timestamp,timestamp_sample,control_mode_flags,output_tracking_error[0],output_tracking_error[1],output_tracking_error[2],filter_fault_flags,pos_horiz_accuracy,pos_vert_accuracy,hdg_test_ratio,vel_test_ratio,pos_test_ratio,hgt_test_ratio,tas_test_ratio,hagl_test_ratio,beta_test_ratio,time_slip,accel_device_id,gyro_device_id,baro_device_id,mag_device_id,mag_inclination_deg,mag_inclination_ref_deg,mag_strength_gs,mag_strength_ref_gs,gps_check_fail_flags,solution_status_flags,reset_count_vel_ne,reset_count_vel_d,reset_count_pos_ne,reset_count_pod_d,reset_count_quat,pre_flt_fail_innov_heading,pre_flt_fail_innov_height,pre_flt_fail_innov_pos_horiz,pre_flt_fail_innov_vel_horiz,pre_flt_fail_innov_vel_vert,pre_flt_fail_mag_field_disturbed,health_flags,timeout_flags
4435000,4283000,13421772800,0.0037094408,0.014098147,0.0011640696,0,14.187328,10.012793,nan,nan,nan,nan,nan,nan,nan,0.0,1310988,1310988,6620172,197388,nan,nan,nan,nan,0,128,1,1,1,1,0,0,0,0,0,0,0,0,0
4443000,4291000,13421772800,0.0034892166,0.014012956,0.0012728812,0,14.191954,10.014103,nan,nan,nan,nan,nan,nan,nan,0.0,1310988,1310988,6620172,197388,nan,nan,nan,nan,0,128,1,1,1,1,0,0,0,0,0,0,0,0,0
4451000,4299000,13421772800,0.0033307977,0.0138600515,0.0013732996,0,14.196803,10.015477,nan,nan,nan,nan,nan,nan,nan,0.0,1310988,1310988,6620172,197388,nan,nan,nan,nan,0,128,1,1,1,1,0,0,0,0,0,0,0,0,0
4459000,4307000,13421772800,0.0031938192,0.013650489,0.0014684543,0,14.201877,10.016915,nan,nan,nan,nan,nan,nan,nan,0.0,1310988,1310988,6620172,197388,nan,nan,nan,nan,0,128,1,1,1,1,0,0,0,0,0,0,0,0,0
4467000,4315000,13421772800,0.0030677032,0.013403633,0.0015569429,0,14.207175,10.018416,nan,nan,nan,nan,nan,nan,nan,0.0,1310988,1310988,6620172,197388,nan,nan,nan,nan,0,128,1,1,1,1,0,0,0,0,0,0,0,0,0
4475000,4323000,13421772800,0.0029480455,0.013122857,0.0016397277,0,14.212697,10.019981,nan,nan,nan,nan,nan,nan,nan,0.0,1310988,1310988,6620172,197388,nan,nan,nan,nan,0,128,1,1,1,1,0,0,0,0,0,0,0,0,0
4483000,4331000,13421772800,0.002832594,0.012819554,0.0017156927,0,14.218441,10.02161,nan,nan,nan,nan,nan,nan,nan,0.0,1310988,1310988,6620172,197388,nan,nan,nan,nan,0,128,1,1,1,1,0,0,0,0,0,0,0,0,0
4491000,4339000,13421772800,0.0027200505,0.0125019755,0.0017859711,0,14.224409,10.023302,nan,nan,nan,nan,nan,nan,nan,0.0,1310988,1310988,6620172,197388,nan,nan,nan,nan,0,128,1,1,1,1,0,0,0,0,0,0,0,0,0
4507000,4355000,13421772800,0.0025007587,0.011835395,0.001915795,0,14.237015,10.026877,nan,nan,nan,nan,nan,nan,nan,0.0,1310988,1310988,6620172,197388,nan,nan,nan,nan,0,128,1,1,1,1,0,0,0,0,0,0,0,0,0
4515000,4363000,13421772800,0.0023931332,0.0114971055,0.0019740323,0,14.24365,10.028761,nan,nan,nan,nan,nan,nan,nan,0.0,1310988,1310988,6620172,197388,nan,nan,nan,nan,0,128,1,1,1,1,0,0,0,0,0,0,0,0,0
4523000,4371000,13421772800,0.0022864835,0.011156949,0.0020286317,0,14.250509,10.030707,nan,nan,nan,nan,nan,nan,nan,0.0,1310988,1310988,6620172,197388,nan,nan,nan,nan,0,128,1,1,1,1,0,0,0,0,0,0,0,0,0
4531000,4379000,13421772800,0.0021806343,0.010820592,0.0020820375,0,14.257589,10.032718,nan,nan,nan,nan,nan,nan,nan,0.0,1310988,1310988,6620172,197388,nan,nan,nan,nan,0,128,1,1,1,1,0,0,0,0,0,0,0,0,0
4547000,4395000,13421772800,0.0019708155,0.0101555735,0.0021778555,0,14.272415,10.036928,nan,nan,nan,nan,nan,nan,nan,0.0,1310988,1310988,6620172,197388,nan,nan,nan,nan,0,128,1,1,1,1,0,0,0,0,0,0,0,0,0
4555000,4403000,13421772800,0.0018666645,0.009829366,0.0022231939,0,14.28016,10.039128,nan,nan,nan,nan,nan,nan,nan,0.0,1310988,1310988,6620172,197388,nan,nan,nan,nan,0,128,1,1,1,1,0,0,0,0,0,0,0,0,0
4563000,4411000,13421772800,0.0017629317,0.009511963,0.002265578,0,14.288126,10.04139,nan,nan,nan,nan,nan,nan,nan,0.0,1310988,1310988,6620172,197388,nan,nan,nan,nan,0,128,1,1,1,1,0,0,0,0,0,0,0,0,0
4571000,4419000,13421772800,0.0016595605,0.009202087,0.0023070597,0,14.296312,10.043717,nan,nan,nan,nan,nan,nan,nan,0.0,1310988,1310988,6620172,197388,nan,nan,nan,nan,0,128,1,1,1,1,0,0,0,0,0,0,0,0,0
4587000,4435000,13421772800,0.0014537555,0.008599339,0.0023827862,0,14.313344,10.048559,nan,nan,nan,nan,nan,nan,nan,0.0,1310988,1310988,6620172,197388,nan,nan,nan,nan,0,128,1,1,1,1,0,0,0,0,0,0,0,0,0
4595000,4443000,13421772800,0.0013561355,0.008308044,0.0024178347,0,14.32219,10.051075,nan,nan,nan,nan,nan,nan,nan,0.0,1310988,1310988,6620172,197388,nan,nan,nan,nan,0,128,1,1,1,1,0,0,0,0,0,0,0,0,0
4603000,4451000,13421772800,0.0012643129,0.008022492,0.0024498038,0,14.331255,10.053654,nan,nan,nan,nan,nan,nan,nan,0.0,1310988,1310988,6620172,197388,nan,nan,nan,nan,0,128,1,1,1,1,0,0,0,0,0,0,0,0,0
4611000,4459000,13421772800,0.0011766613,0.007745293,0.002477623,0,14.340539,10.056296,nan,nan,nan,nan,nan,nan,nan,0.0,1310988,1310988,6620172,197388,nan,nan,nan,nan,0,128,1,1,1,1,0,0,0,0,0,0,0,0,0
4627000,4475000,13421772800,0.0010118829,0.0072105424,0.002525877,0,14.359762,10.0617695,nan,nan,nan,nan,nan,nan,nan,0.0,1310988,1310988,6620172,197388,nan,nan,nan,nan,0,128,1,1,1,1,0,0,0,0,0,0,0,0,0
4635000,4483000,13421772800,0.0009341443,0.006754012,0.0042011165,0,0.7062522,7.093797,nan,nan,nan,nan,nan,nan,nan,0.0,1310988,1310988,6620172,197388,nan,nan,nan,nan,0,128,1,1,1,1,0,0,0,0,0,0,0,0,0
4643000,4491000,13421772800,0.000859603,0.0065074326,0.0040492415,0,0.70894736,7.095859,nan,nan,nan,nan,nan,nan,nan,0.0,1310988,1310988,6620172,197388,nan,nan,nan,nan,0,128,1,1,1,1,0,0,0,0,0,0,0,0,0
4651000,4499000,13421772800,0.0007880236,0.006265686,0.0039043715,0,0.7159995,7.09801,nan,nan,nan,nan,nan,nan,nan,0.0,1310988,1310988,6620172,197388,nan,nan,nan,nan,0,128,1,1,1,1,0,0,0,0,0,0,0,0,0
4667000,4515000,13421772800,0.00065354025,0.0058035576,0.0036345113,0,0.7426084,7.1025786,nan,nan,nan,nan,nan,nan,nan,0.0,1310988,1310988,6620172,197388,nan,nan,nan,nan,0,128,1,1,1,1,0,0,0,0,0,0,0,0,0
4675000,4523000,13421772800,0.0005905613,0.0055802395,0.0035065946,0,0.76173174,7.1049967,nan,nan,nan,nan,nan,nan,nan,0.0,1310988,1310988,6620172,197388,nan,nan,nan,nan,0,128,1,1,1,1,0,0,0,0,0,0,0,0,0
4683000,4531000,13421772800,0.0005303924,0.0053642956,0.0033863918,0,0.7843774,7.107503,nan,nan,nan,nan,nan,nan,nan,0.0,1310988,1310988,6620172,197388,nan,nan,nan,nan,0,128,1,1,1,1,0,0,0,0,0,0,0,0,0
4691000,4539000,13421772800,0.0004730064,0.005154055,0.0032698114,0,0.8102518,7.110098,nan,nan,nan,nan,nan,nan,nan,0.0,1310988,1310988,6620172,197388,nan,nan,nan,nan,0,128,1,1,1,1,0,0,0,0,0,0,0,0,0
4707000,4555000,13421772800,0.00036652712,0.004751341,0.0030522223,0,0.87050635,7.1155534,nan,nan,nan,nan,nan,nan,nan,0.0,1310988,1310988,6620172,197388,nan,nan,nan,nan,0,1152,1,1,1,1,0,0,0,0,0,0,0,0,0
4715000,4563000,13421772800,0.00031740757,0.0045569204,0.0029497563,0,0.9043231,7.118414,nan,nan,nan,nan,nan,nan,nan,0.0,1310988,1310988,6620172,197388,nan,nan,nan,nan,0,1152,1,1,1,1,0,0,0,0,0,0,0,0,0
4723000,4571000,13421772800,0.0002710171,0.00436667,0.002855148,0,0.9402542,7.121362,nan,nan,nan,nan,nan,nan,nan,0.0,1310988,1310988,6620172,197388,nan,nan,nan,nan,0,1152,1,1,1,1,0,0,0,0,0,0,0,0,0
4731000,4579000,13421772800,0.00022734744,0.0041826195,0.0027614026,0,0.9780683,7.124399,nan,nan,nan,nan,nan,nan,nan,0.0,1310988,1310988,6620172,197388,nan,nan,nan,nan,0,1152,1,1,1,1,0,0,0,0,0,0,0,0,0
4747000,4595000,13421772800,0.00014813997,0.0038298243,0.002585876,0,1.0585339,7.130737,nan,nan,nan,nan,nan,nan,nan,0.0,1310988,1310988,6620172,197388,nan,nan,nan,nan,0,1152,1,1,1,1,0,0,0,0,0,0,0,0,0
4755000,4603000,13421772800,0.00011245764,0.0036597655,0.002503616,0,1.1008345,7.134037,nan,nan,nan,nan,nan,nan,nan,0.0,1310988,1310988,6620172,197388,nan,nan,nan,nan,0,1152,1,1,1,1,0,0,0,0,0,0,0,0,0
4763000,4611000,13421772800,7.919724e-05,0.0034931705,0.0024247172,0,1.1443135,7.137425,nan,nan,nan,nan,nan,nan,nan,0.0,1310988,1310988,6620172,197388,nan,nan,nan,nan,0,1152,1,1,1,1,0,0,0,0,0,0,0,0,0
4771000,4619000,13421772800,4.8260143e-05,0.0033317101,0.0023488435,0,1.1888429,7.1409006,nan,nan,nan,nan,nan,nan,nan,0.0,1310988,1310988,6620172,197388,nan,nan,nan,nan,0,1152,1,1,1,1,0,0,0,0,0,0,0,0,0
4787000,4635000,13421772800,7.618897e-06,0.003020788,0.0022071009,0,1.2806171,7.148114,nan,nan,nan,nan,nan,nan,nan,0.0,1310988,1310988,6620172,197388,nan,nan,nan,nan,0,1152,1,1,1,1,0,0,0,0,0,0,0,0,0
4795000,4643000,13421772800,3.186962e-05,0.0028716046,0.0021399355,0,1.327677,7.1518517,nan,nan,nan,nan,nan,nan,nan,0.0,1310988,1310988,6620172,197388,nan,nan,nan,nan,0,1152,1,1,1,1,0,0,0,0,0,0,0,0,0
4803000,4651000,13421772800,5.4449774e-05,0.002727815,0.0020738668,0,1.3754139,7.1556764,nan,nan,nan,nan,nan,nan,nan,0.0,1310988,1310988,6620172,197388,nan,nan,nan,nan,0,1152,1,1,1,1,0,0,0,0,0,0,0,0,0
4811000,4659000,13421772800,7.516873e-05,0.002587238,0.0020111888,0,1.423761,7.159588,nan,nan,nan,nan,nan,nan,nan,0.0,1310988,1310988,6620172,197388,nan,nan,nan,nan,0,1152,1,1,1,1,0,0,0,0,0,0,0,0,0
4827000,4675000,13421772800,0.00011128645,0.0023196044,0.0018932266,0,1.522057,7.1676717,nan,nan,nan,nan,nan,nan,nan,0.0,1310988,1310988,6620172,197388,nan,nan,nan,nan,0,1152,1,1,1,1,0,0,0,0,0,0,0,0,0
4835000,4683000,13421772800,0.00012682137,0.0021930446,0.0018358874,0,1.5719084,7.171843,nan,nan,nan,nan,nan,nan,nan,0.0,1310988,1310988,6620172,197388,nan,nan,nan,nan,0,1152,1,1,1,1,0,0,0,0,0,0,0,0,0
4843000,4691000,13421772800,0.00020589837,0.043425288,0.0127327135,0,0.64820105,5.830252,nan,nan,nan,nan,nan,nan,nan,0.0,1310988,1310988,6620172,197388,nan,nan,nan,nan,0,1152,1,1,1,1,0,0,0,0,0,0,0,0,0
4851000,4699000,13421772800,0.00021760703,0.042054825,0.01265591,0,0.6688121,5.8338,nan,nan,nan,nan,nan,nan,nan,0.0,1310988,1310988,6620172,197388,nan,nan,nan,nan,0,1152,1,1,1,1,0,0,0,0,0,0,0,0,0
4867000,4715000,13421772800,0.00023726221,0.039435927,0.012509166,0,0.7124904,5.841212,nan,nan,nan,nan,nan,nan,nan,0.0,1310988,1310988,6620172,197388,nan,nan,nan,nan,0,1152,1,1,1,1,0,0,0,0,0,0,0,0,0
4875000,4723000,13488881664,0.00024528758,0.03818349,0.012438643,0,0.73541445,5.845076,nan,nan,nan,nan,nan,nan,nan,0.0,1310988,1310988,6620172,197388,nan,nan,nan,nan,0,1152,1,1,1,1,0,0,0,0,0,0,0,0,0
4883000,4731000,13488881664,0.00042144072,0.08106764,0.018965874,0,0.5003727,5.7735224,nan,nan,nan,nan,nan,nan,nan,0.0,1310988,1310988,6620172,197388,nan,nan,nan,nan,0,1152,1,1,1,1,0,0,0,0,0,0,0,0,0
4891000,4739000,13488881664,0.00042691716,0.07848968,0.019036878,0,0.5003727,5.7735224,nan,nan,nan,nan,nan,nan,nan,0.0,1310988,1310988,6620172,197388,nan,nan,nan,nan,0,1152,1,1,1,1,0,0,0,0,0,0,0,0,0
4907000,4755000,13488881664,0.0004353197,0.073555484,0.019167565,0,0.50035655,5.7735224,nan,nan,nan,nan,nan,nan,nan,0.0,1310988,1310988,6620172,197388,nan,nan,nan,nan,0,1152,1,1,1,1,0,0,0,0,0,0,0,0,0
4915000,4763000,13488881664,0.00043834338,0.071197994,0.01923051,0,0.5003405,5.7735224,nan,nan,nan,nan,nan,nan,nan,0.0,1310988,1310988,6620172,197388,nan,nan,nan,nan,0,1152,1,1,1,1,0,0,0,0,0,0,0,0,0
4923000,4771000,13488881664,0.00044064326,0.0689068,0.019288532,0,0.5003193,5.7735224,nan,nan,nan,nan,nan,nan,nan,0.0,1310988,1310988,6620172,197388,nan,nan,nan,nan,0,1152,1,1,1,1,0,0,0,0,0,0,0,0,0
4931000,4779000,13488881664,0.00044227295,0.06668444,0.019342583,0,0.50029325,5.7735224,nan,nan,nan,nan,nan,nan,nan,0.0,1310988,1310988,6620172,197388,nan,nan,nan,nan,0,1152,1,1,1,1,0,0,0,0,0,0,0,0,0
4947000,4795000,13488881664,0.00044368271,0.062424086,0.01944524,0,0.50022775,5.7735224,nan,nan,nan,nan,nan,nan,nan,0.0,1310988,1310988,6620172,197388,nan,nan,nan,nan,0,1152,1,1,1,1,0,0,0,0,0,0,0,0,0
4955000,4803000,13488881664,0.00044355766,0.060388044,0.019492624,0,0.5001893,5.7735224,nan,nan,nan,nan,nan,nan,nan,0.0,1310988,1310988,6620172,197388,nan,nan,nan,nan,0,1152,1,1,1,1,0,0,0,0,0,0,0,0,0
4963000,4811000,13488881664,0.00044294287,0.05841078,0.019537294,0,0.5001478,5.7735224,nan,nan,nan,nan,nan,nan,nan,0.0,1310988,1310988,6620172,197388,nan,nan,nan,nan,0,1152,1,1,1,1,0,0,0,0,0,0,0,0,0
4971000,4819000,13488881664,0.0004418815,0.05648889,0.01957902,0,0.5001039,5.7735224,nan,nan,nan,nan,nan,nan,nan,0.0,1310988,1310988,6620172,197388,nan,nan,nan,nan,0,1152,1,1,1,1,0,0,0,0,0,0,0,0,0
4987000,4835000,13488881664,0.0004385781,0.052817836,0.019654436,0,0.5000112,5.773521,nan,nan,nan,nan,nan,nan,nan,0.0,1310988,1310988,6620172,197388,nan,nan,nan,nan,0,1152,1,1,1,1,0,0,0,0,0,0,0,0,0
4995000,4843000,13488881664,0.00043641715,0.051062725,0.019689273,0,0.499964,5.7735205,nan,nan,nan,nan,nan,nan,nan,0.0,1310988,1310988,6620172,197388,nan,nan,nan,nan,0,1152,1,1,1,1,0,0,0,0,0,0,0,0,0
5003000,4851000,13488881664,0.00043158955,0.04935904,0.019708809,0,0.49991748,5.77352,nan,nan,nan,nan,nan,nan,nan,0.0,1310988,1310988,6620172,197388,nan,nan,nan,nan,0,1152,1,1,1,1,0,0,0,0,0,0,0,0,0
5011000,4859000,13488881664,0.0004264958,0.047705665,0.019716568,0,0.49987257,5.773519,nan,nan,nan,nan,nan,nan,nan,0.0,1310988,1310988,6620172,197388,nan,nan,nan,nan,0,1152,1,1,1,1,0,0,0,0,0,0,0,0,0
5027000,4875000,13488881664,0.00041564452,0.044534225,0.019697195,0,0.49979198,5.7735176,nan,nan,nan,nan,nan,nan,nan,0.0,1310988,1310988,6620172,197388,nan,nan,nan,nan,0,1152,1,1,1,1,0,0,0,0,0,0,0,0,0
5035000,4883000,13488881664,0.00040994602,0.04302027,0.019671004,0,0.4997587,5.773517,nan,nan,nan,nan,nan,nan,nan,0.0,1310988,1310988,6620172,197388,nan,nan,nan,nan,0,1152,1,1,1,1,0,0,0,0,0,0,0,0,0
5043000,4891000,13488881664,0.00039885586,0.041546714,0.019622691,0,0.49973178,5.7735167,nan,nan,nan,nan,nan,nan,nan,0.0,1310988,1310988,6620172,197388,nan,nan,nan,nan,0,1152,1,1,1,1,0,0,0,0,0,0,0,0,0
5051000,4899000,2208217169920,0.0003876261,0.04011142,0.019759778,0,14.142136,5.0000086,nan,nan,nan,nan,nan,nan,nan,0.0,1310988,1310988,6620172,197388,nan,nan,nan,nan,0,1152,2,1,2,1,0,0,0,0,0,0,0,0,0
5067000,4915000,2208217169920,0.0064335787,0.03657059,0.019923557,0,14.142589,5.0000076,nan,nan,nan,nan,nan,nan,nan,0.0,1310988,1310988,6620172,197388,nan,nan,nan,nan,0,1152,2,1,2,1,0,0,0,0,0,0,0,0,0
5075000,4923000,2208217169920,0.006509515,0.034872703,0.019968495,0,14.143153,5.000007,nan,nan,nan,nan,nan,nan,nan,0.0,1310988,1310988,6620172,197388,nan,nan,nan,nan,0,1152,2,1,2,1,0,0,0,0,0,0,0,0,0
5083000,4931000,2208217169920,0.006585504,0.03322724,0.019987045,0,14.143946,5.0000067,nan,nan,nan,nan,nan,nan,nan,0.0,1310988,1310988,6620172,197388,nan,nan,nan,nan,0,1152,2,1,2,1,0,0,0,0,0,0,0,0,0
5091000,4939000,2208217169920,0.006398724,0.035074662,0.020233104,0,14.142136,5.000002,nan,nan,nan,nan,nan,nan,nan,0.0,1310988,1310988,6620172,197388,nan,nan,nan,nan,0,1152,2,1,2,1,0,0,0,0,0,0,0,0,0
5107000,4955000,2208217169920,0.0065486524,0.031782687,0.020190919,0,14.142136,5.000002,nan,nan,nan,nan,nan,nan,nan,0.0,1310988,1310988,6620172,197388,nan,nan,nan,nan,0,1152,2,1,2,1,0,0,0,0,0,0,0,0,0
5115000,4963000,2208217169920,0.0066236835,0.030208474,0.020141557,0,14.142136,5.000002,nan,nan,nan,nan,nan,nan,nan,0.0,1310988,1310988,6620172,197388,nan,nan,nan,nan,0,1152,2,1,2,1,0,0,0,0,0,0,0,0,0
5123000,4971000,2208217169920,0.0066987476,0.02868725,0.020072788,0,14.142136,5.000002,nan,nan,nan,nan,nan,nan,nan,0.0,1310988,1310988,6620172,197388,nan,nan,nan,nan,0,1152,2,1,2,1,0,0,0,0,0,0,0,0,0
5131000,4979000,2208217169920,0.0067738304,0.027206168,0.01998808,0,14.142136,5.000002,nan,nan,nan,nan,nan,nan,nan,0.0,1310988,1310988,6620172,197388,nan,nan,nan,nan,0,1152,2,1,2,1,0,0,0,0,0,0,0,0,0
5147000,4995000,2208217169920,0.006924052,0.024380822,0.019768752,0,14.142136,5.000002,nan,nan,nan,nan,nan,nan,nan,0.0,1310988,1310988,6620172,197388,nan,nan,nan,nan,0,1152,2,1,2,1,0,0,0,0,0,0,0,0,0
5155000,5003000,2208217169920,0.0069991713,0.023039836,0.019637674,0,14.142136,5.000002,nan,nan,nan,nan,nan,nan,nan,0.0,1310988,1310988,6620172,197388,nan,nan,nan,nan,0,1152,2,1,2,1,0,0,0,0,0,0,0,0,0
5163000,5011000,2208217169920,0.0070742383,0.021747597,0.019491145,0,14.142136,5.000002,nan,nan,nan,nan,nan,nan,nan,0.0,1310988,1310988,6620172,197388,nan,nan,nan,nan,0,1152,2,1,2,1,0,0,0,0,0,0,0,0,0
5171000,5019000,2208217169920,0.0071492475,0.020490767,0.019334557,0,14.142136,5.000002,nan,nan,nan,nan,nan,nan,nan,0.0,1310988,1310988,6620172,197388,nan,nan,nan,nan,0,1152,2,1,2,1,0,0,0,0,0,0,0,0,0
5187000,5035000,2208217169920,0.007299078,0.018096225,0.01898249,0,14.142136,5.000002,nan,nan,nan,nan,nan,nan,nan,0.0,1310988,1310988,6620172,197388,nan,nan,nan,nan,0,1152,2,1,2,1,0,0,0,0,0,0,0,0,0
5195000,5043000,2208217169920,0.0073738913,0.016970556,0.018792072,0,14.142136,5.000002,nan,nan,nan,nan,nan,nan,nan,0.0,1310988,1310988,6620172,197388,nan,nan,nan,nan,0,1152,2,1,2,1,0,0,0,0,0,0,0,0,0
5203000,5051000,2208217169920,0.0074485233,0.015890723,0.01859074,0,14.142137,5.000002,nan,nan,nan,nan,nan,nan,nan,0.0,1310988,1310988,6620172,197388,nan,nan,nan,nan,0,1152,2,1,2,1,0,0,0,0,0,0,0,0,0
5211000,5059000,2208217169920,0.0075229695,0.014849013,0.018175354,0,14.142138,5.000002,nan,nan,nan,nan,nan,nan,nan,0.0,1310988,1310988,6620172,197388,nan,nan,nan,nan,0,1152,2,1,2,1,0,0,0,0,0,0,0,0,0
5227000,5075000,2208217169920,0.007428245,0.012931512,0.017337361,0,14.142139,5.000002,nan,nan,nan,nan,nan,nan,nan,0.0,1310988,1310988,6620172,197388,nan,nan,nan,nan,0,1152,2,1,2,1,0,0,0,0,0,0,0,0,0
5235000,5083000,2208217169920,0.007257292,0.012058821,0.01691676,0,14.14214,5.000002,nan,nan,nan,nan,nan,nan,nan,0.0,1310988,1310988,6620172,197388,nan,nan,nan,nan,0,1152,2,1,2,1,0,0,0,0,0,0,0,0,0
5243000,5091000,2208217169920,0.007084376,0.011251522,0.016494803,0,14.142142,5.000002,nan,nan,nan,nan,nan,nan,nan,0.0,1310988,1310988,6620172,197388,nan,nan,nan,nan,0,1152,2,1,2,1,0,0,0,0,0,0,0,0,0
5251000,5099000,2208217169920,0.00691606,0.010495951,0.01607002,0,14.142144,5.000002,nan,nan,nan,nan,nan,nan,nan,0.0,1310988,1310988,6620172,197388,nan,nan,nan,nan,0,1152,2,1,2,1,0,0,0,0,0,0,0,0,0
5267000,5115000,2208217169920,0.0037232907,0.014696314,0.018939544,0,0.014268872,4.4721375,nan,nan,nan,nan,nan,nan,nan,0.0,1310988,1310988,6620172,197388,nan,nan,nan,nan,0,1152,2,1,2,1,0,0,0,0,0,0,0,0,0
5275000,5123000,2208217169920,0.003653745,0.014012263,0.018448625,0,0.01466615,4.4721375,nan,nan,nan,nan,nan,nan,nan,0.0,1310988,1310988,6620172,197388,nan,nan,nan,nan,0,1152,2,1,2,1,0,0,0,0,0,0,0,0,0
5283000,5131000,2208217169920,0.0035952476,0.0133613115,0.017966595,0,0.015348261,4.4721375,nan,nan,nan,nan,nan,nan,nan,0.0,1310988,1310988,6620172,197388,nan,nan,nan,nan,0,1152,2,1,2,1,0,0,0,0,0,0,0,0,0
5291000,5139000,2208217169920,0.0035486638,0.01274196,0.017485566,0,0.01631407,4.4721375,nan,nan,nan,nan,nan,nan,nan,0.0,1310988,1310988,6620172,197388,nan,nan,nan,nan,0,1152,2,1,2,1,0,0,0,0,0,0,0,0,0
5307000,5155000,2225397039105,0.02087702,0.05499516,0.018353531,0,0.014143913,4.4721375,nan,nan,nan,nan,nan,nan,nan,0.0,1310988,1310988,6620172,197388,63.134743,nan,0.48089916,nan,0,1153,2,1,2,1,0,0,0,0,0,0,0,0,0
5315000,5163000,2225329930241,0.021051828,0.05471677,0.018199047,0,0.014144004,4.4721375,nan,nan,nan,nan,nan,nan,nan,0.0,1310988,1310988,6620172,197388,63.134743,nan,0.48089916,nan,0,1153,2,1,2,1,0,0,0,0,0,0,0,0,0
5323000,5171000,2225329930241,0.021230752,0.054473247,0.01805256,0,0.014144223,4.4721375,nan,nan,nan,nan,nan,nan,nan,0.0,1310988,1310988,6620172,197388,63.134743,nan,0.48089916,nan,0,1153,2,1,2,1,0,0,0,0,0,0,0,0,0
5331000,5179000,2225329930241,0.02140187,0.054251578,0.017917888,0,0.014144658,4.4721375,nan,nan,nan,nan,nan,nan,nan,0.0,1310988,1310988,6620172,197388,63.134743,nan,0.48089916,nan,0,1153,2,1,2,1,0,0,0,0,0,0,0,0,0
5347000,5195000,2225329930241,0.021787254,0.05381283,0.01767466,0,0.0141465785,4.4721375,nan,nan,nan,nan,nan,nan,nan,0.0,1310988,1310988,6620172,197388,63.134743,nan,0.48089916,nan,0,1153,2,1,2,1,0,0,0,0,0,0,0,0,0
5355000,5203000,2225329930241,0.021983653,0.05361618,0.017570414,0,0.014148286,4.4721375,nan,nan,nan,nan,nan,nan,nan,0.0,1310988,1310988,6620172,197388,63.134743,nan,0.48089916,nan,0,1153,2,1,2,1,0,0,0,0,0,0,0,0,0
5363000,5211000,2225329930241,0.022179537,0.053442113,0.017475361,0,0.014150653,4.4721375,nan,nan,nan,nan,nan,nan,nan,0.0,1310988,1310988,6620172,197388,63.134743,nan,0.48089916,nan,0,1153,2,1,2,1,0,0,0,0,0,0,0,0,0
5371000,5219000,2225329930241,0.022371713,0.053279202,0.017391706,0,0.014153815,4.4721375,nan,nan,nan,nan,nan,nan,nan,0.0,1310988,1310988,6620172,197388,63.134743,nan,0.48089916,nan,0,1153,2,1,2,1,0,0,0,0,0,0,0,0,0
5387000,5235000,2225329930241,0.022765562,0.053052828,0.017254911,0,0.014163099,4.4721375,nan,nan,nan,nan,nan,nan,nan,0.0,1310988,1310988,6620172,197388,62.944542,nan,0.47822776,nan,0,1153,2,1,2,1,0,0,0,0,0,0,0,0,0
5395000,5243000,2225329930241,0.022951433,0.05292835,0.01720282,0,0.014169536,4.4721375,nan,nan,nan,nan,nan,nan,nan,0.0,1310988,1310988,6620172,197388,62.944542,nan,0.47822776,nan,0,1153,2,1,2,1,0,0,0,0,0,0,0,0,0
5403000,5251000,2225329930241,0.023130538,0.052812953,0.01715969,0,0.0141773885,4.4721375,nan,nan,nan,nan,nan,nan,nan,0.0,1310988,1310988,6620172,197388,62.944542,nan,0.47822776,nan,0,1153,2,1,2,1,0,0,0,0,0,0,0,0,0
5411000,5259000,2225329930241,0.023318844,0.05272259,0.01712775,0,0.014186835,4.4721375,nan,nan,nan,nan,nan,nan,nan,0.0,1310988,1310988,6620172,197388,62.944542,nan,0.47822776,nan,0,1153,2,1,2,1,0,0,0,0,0,0,0,0,0
5427000,5275000,2225329930241,0.023496514,0.052573085,0.017095914,0,0.014211268,4.4721375,nan,nan,nan,nan,nan,nan,nan,0.0,1310988,1310988,6620172,197388,62.944542,nan,0.47822776,nan,0,1153,2,1,2,1,0,0,0,0,0,0,0,0,0
5435000,5283000,2225329930241,0.023490643,0.052505,0.017092226,0,0.0142266555,4.4721375,nan,nan,nan,nan,nan,nan,nan,0.0,1310988,1310988,6620172,197388,62.944542,nan,0.47822776,nan,0,1153,2,1,2,1,0,0,0,0,0,0,0,0,0
5443000,5291000,2225329930241,0.023484241,0.052397568,0.017097713,0,0.014244441,4.4721375,nan,nan,nan,nan,nan,nan,nan,0.0,1310988,1310988,6620172,197388,62.944542,nan,0.47822776,nan,0,1153,2,1,2,1,0,0,0,0,0,0,0,0,0
5451000,5299000,2225329930241,0.02347284,0.052299526,0.017111016,0,0.014264834,4.4721375,nan,nan,nan,nan,nan,nan,nan,0.0,1310988,1310988,6620172,197388,62.971535,nan,0.48080197,nan,0,1153,2,1,2,1,0,0,0,0,0,0,0,0,0
5467000,5315000,26306674689,0.022389062,0.05186131,0.017133629,0,0.0143143665,4.082484,nan,nan,nan,nan,nan,nan,nan,0.0,1310988,1310988,6620172,197388,62.971535,nan,0.48080197,nan,0,1025,2,1,2,1,0,0,0,0,0,0,0,0,0
5475000,5323000,26306674689,0.021834077,0.051574998,0.017136892,0,0.014343979,4.082484,nan,nan,nan,nan,nan,nan,nan,0.0,1310988,1310988,6620172,197388,62.971535,nan,0.48080197,nan,0,1025,2,1,2,1,0,0,0,0,0,0,0,0,0
5483000,5331000,26306674689,0.021266388,0.051254097,0.017135851,0,0.014377149,4.082484,nan,nan,nan,nan,nan,nan,nan,0.0,1310988,1310988,6620172,197388,62.971535,nan,0.48080197,nan,0,1025,2,1,2,1,0,0,0,0,0,0,0,0,0
5491000,5339000,26306674689,0.020703088,0.05090075,0.017127845,0,0.014414135,4.082484,nan,nan,nan,nan,nan,nan,nan,0.0,1310988,1310988,6620172,197388,62.971535,nan,0.48080197,nan,0,1025,2,1,2,1,0,0,0,0,0,0,0,0,0
5507000,5355000,17716742145,0.019572787,0.050100543,0.017046072,0,2.0,1.0,nan,nan,nan,1.1754944e-38,nan,nan,nan,0.0,1310988,1310988,6620172,197388,62.971535,nan,0.48080197,nan,0,37,2,1,3,3,0,0,0,0,0,0,0,0,0
5515000,5363000,17716742145,0.019003218,0.049620673,0.017027648,0,2.0,1.0,nan,nan,nan,1.1754944e-38,nan,nan,nan,0.0,1310988,1310988,6620172,197388,62.971535,nan,0.48080197,nan,0,37,2,1,3,3,0,0,0,0,0,0,0,0,0
5523000,5371000,17716742145,0.018421836,0.049089402,0.017005986,0,2.0,1.0,nan,nan,nan,1.1754944e-38,nan,nan,nan,0.0,1310988,1310988,6620172,197388,63.082737,63.157204,0.48117736,0.48238713,0,37,2,1,3,3,0,0,0,0,0,0,0,0,0
5531000,5379000,17716742145,0.017832626,0.048548397,0.016977932,0,2.0,1.0000001,nan,nan,nan,1.1754944e-38,nan,nan,nan,0.0,1310988,1310988,6620172,197388,63.082737,63.157204,0.48117736,0.48238713,0,37,2,1,3,3,0,0,0,0,0,0,0,0,0
5547000,5395000,17716742145,0.016644586,0.047344804,0.01690352,0,2.0000005,1.0000004,nan,nan,nan,1.1754944e-38,nan,nan,nan,0.0,1310988,1310988,6620172,197388,63.082737,63.157204,0.48117736,0.48238713,0,37,2,1,3,3,0,0,0,0,0,0,0,0,0
5555000,5403000,17716742145,0.016043615,0.04671985,0.016857395,0,2.0000007,1.0000005,nan,nan,nan,1.1754944e-38,nan,nan,nan,0.0,1310988,1310988,6620172,197388,63.082737,63.157204,0.48117736,0.48238713,0,37,2,1,3,3,0,0,0,0,0,0,0,0,0
5563000,5411000,17716742145,0.01543618,0.04607212,0.016805401,0,2.000001,1.0000006,nan,nan,nan,1.1754944e-38,nan,nan,nan,0.0,1310988,1310988,6620172,197388,63.082737,63.157204,0.48117736,0.48238713,0,37,2,1,3,3,0,0,0,0,0,0,0,0,0
5571000,5419000,17716742145,0.014820129,0.045347843,0.01674822,0,2.0000012,1.0000008,nan,nan,nan,1.1754944e-38,nan,nan,nan,0.0,1310988,1310988,6620172,197388,63.082737,63.157204,0.48117736,0.48238713,0,37,2,1,3,3,0,0,0,0,0,0,0,0,0
5587000,5435000,17716742145,0.013591278,0.043834798,0.016611474,0,2.0000021,1.0000013,nan,nan,nan,1.1754944e-38,nan,nan,nan,0.0,1310988,1310988,6620172,197388,63.082737,63.157204,0.48117736,0.48238713,0,37,2,1,3,3,0,0,0,0,0,0,0,0,0
5595000,5443000,17716742145,0.012970929,0.04305952,0.016531933,0,2.0000026,1.0000017,nan,nan,nan,1.1754944e-38,nan,nan,nan,0.0,1310988,1310988,6620172,197388,62.90225,63.157204,0.4797974,0.48238713,0,37,2,1,3,3,0,0,0,0,0,0,0,0,0
5603000,5451000,17716742145,0.012357526,0.04226579,0.016446458,0,2.000003,1.000002,nan,nan,nan,1.1754944e-38,nan,nan,nan,0.0,1310988,1310988,6620172,197388,62.90225,63.157204,0.4797974,0.48238713,0,37,2,1,3,3,0,0,0,0,0,0,0,0,0
5611000,5459000,17716742145,0.011750301,0.04143139,0.016354086,0,2.0000036,1.0000024,nan,nan,nan,1.1754944e-38,nan,nan,nan,0.0,1310988,1310988,6620172,197388,62.90225,63.157204,0.4797974,0.48238713,0,37,2,1,3,3,0,0,0,0,0,0,0,0,0
5627000,5475000,17716742145,0.010562344,0.03969047,0.016146919,0,2.000005,1.0000032,nan,nan,nan,1.1754944e-38,nan,nan,nan,0.0,1310988,1310988,6620172,197388,62.90225,63.157204,0.4797974,0.48238713,0,37,2,1,3,3,0,0,0,0,0,0,0,0,0
5635000,5483000,17716742145,0.009985932,0.038793836,0.01603335,0,2.0000057,1.0000037,nan,nan,nan,1.1754944e-38,nan,nan,nan,0.0,1310988,1310988,6620172,197388,62.90225,63.157204,0.4797974,0.48238713,0,37,2,1,3,3,0,0,0,0,0,0,0,0,0
5643000,5491000,17716742145,0.009420027,0.037864976,0.015910976,0,2.0000067,1.0000042,nan,nan,nan,1.1754944e-38,nan,nan,nan,0.0,1310988,1310988,6620172,197388,62.90225,63.157204,0.4797974,0.48238713,0,37,2,1,3,3,0,0,0,0,0,0,0,0,0
5651000,5499000,17716742145,0.008872193,0.03692136,0.015779994,0,2.0000076,1.0000048,nan,nan,nan,1.1754944e-38,nan,nan,nan,0.0,1310988,1310988,6620172,197388,62.90225,63.157204,0.4797974,0.48238713,0,37,2,1,3,3,0,0,0,0,0,0,0,0,0
5667000,5515000,17716742145,0.007818216,0.035016693,0.01549723,0,2.0000098,1.0000061,nan,nan,nan,1.1754944e-38,nan,nan,nan,0.0,1310988,1310988,6620172,197388,62.880222,63.157204,0.47991258,0.48238713,0,37,2,1,3,3,0,0,0,0,0,0,0,0,0
5675000,5523000,17716742145,0.0073163286,0.034042846,0.015344395,0,2.000011,1.0000068,nan,nan,nan,1.1754944e-38,nan,nan,nan,0.0,1310988,1310988,6620172,197388,62.880222,63.157204,0.47991258,0.48238713,0,37,2,1,3,3,0,0,0,0,0,0,0,0,0
5683000,5531000,17716742145,0.0068335496,0.03304423,0.01518448,0,2.0000122,1.0000075,nan,nan,nan,1.1754944e-38,nan,nan,nan,0.0,1310988,1310988,6620172,197388,62.880222,63.157204,0.47991258,0.48238713,0,37,2,1,3,3,0,0,0,0,0,0,0,0,0
5691000,5539000,17716742145,0.0063699987,0.03203734,0.0150158,0,2.0000136,1.0000083,nan,nan,nan,1.1754944e-38,nan,nan,nan,0.0,1310988,1310988,6620172,197388,62.880222,63.157204,0.47991258,0.48238713,0,37,2,1,3,3,0,0,0,0,0,0,0,0,0
5707000,5555000,17716742657,0.005481568,0.03002445,0.014658455,0,2.0000167,1.0000101,nan,nan,nan,5.1716208e-05,nan,nan,nan,0.0,1310988,1310988,6620172,197388,62.880222,63.157204,0.47991258,0.48238713,0,37,2,1,3,3,0,0,0,0,0,0,0,0,0
5715000,5563000,17716742657,0.0050632195,0.029017627,0.014469008,0,2.0000184,1.0000111,nan,nan,nan,5.1716208e-05,nan,nan,nan,0.0,1310988,1310988,6620172,197388,62.880222,63.157204,0.47991258,0.48238713,0,37,2,1,3,3,0,0,0,0,0,0,0,0,0
5723000,5571000,17716742657,0.0046591656,0.028003864,0.014272354,0,2.0000203,1.000012,nan,nan,nan,5.1716208e-05,nan,nan,nan,0.0,1310988,1310988,6620172,197388,62.880222,63.157204,0.47991258,0.48238713,0,37,2,1,3,3,0,0,0,0,0,0,0,0,0
5731000,5579000,17716742657,0.004270521,0.02698962,0.014067096,0,2.0000222,1.0000131,nan,nan,nan,5.1716208e-05,nan,nan,nan,0.0,1310988,1310988,6620172,197388,62.880222,63.157204,0.47991258,0.48238713,0,37,2,1,3,3,0,0,0,0,0,0,0,0,0
5747000,5595000,17716742657,0.003543225,0.024961049,0.013640508,0,2.0000267,1.0000156,nan,nan,nan,5.1716208e-05,nan,nan,nan,0.0,1310988,1310988,6620172,197388,63.184513,63.157204,0.48074877,0.48238713,0,37,2,1,3,3,0,0,0,0,0,0,0,0,0
5755000,5603000,17716742657,0.0032005613,0.02395008,0.013416378,0,2.000029,1.0000169,nan,nan,nan,5.1716208e-05,nan,nan,nan,0.0,1310988,1310988,6620172,197388,63.184513,63.157204,0.48074877,0.48238713,0,37,2,1,3,3,0,0,0,0,0,0,0,0,0
5763000,5611000,17716742657,0.0028730251,0.02293706,0.013185652,0,2.0000315,1.0000182,nan,nan,nan,5.1716208e-05,nan,nan,nan,0.0,1310988,1310988,6620172,197388,63.184513,63.157204,0.48074877,0.48238713,0,37,2,1,3,3,0,0,0,0,0,0,0,0,0
5771000,5619000,17716742657,0.0025553885,0.021927886,0.016148418,0,2.000034,0.9615447,nan,nan,nan,0.0011616461,nan,nan,nan,0.0,1310988,1310988,6620172,197388,63.184513,63.157204,0.48074877,0.48238713,0,37,2,1,3,3,0,0,0,0,0,0,0,0,0
5787000,5635000,17716742657,0.0019825394,0.019949691,0.015391659,0,2.00004,0.9615477,nan,nan,nan,0.0011616461,nan,nan,nan,0.0,1310988,1310988,6620172,197388,63.184513,63.157204,0.48074877,0.48238713,0,37,2,1,3,3,0,0,0,0,0,0,0,0,0
5795000,5643000,17716742657,0.0017089553,0.018967194,0.0150206825,0,2.0000432,0.9615493,nan,nan,nan,0.0011616461,nan,nan,nan,0.0,1310988,1310988,6620172,197388,63.184513,63.157204,0.48074877,0.48238713,0,37,2,1,3,3,0,0,0,0,0,0,0,0,0
5803000,5651000,17716742657,0.0014498618,0.017993674,0.014647009,0,2.0000465,0.96155095,nan,nan,nan,0.0011616461,nan,nan,nan,0.0,1310988,1310988,6620172,197388,63.184513,63.157204,0.48074877,0.48238713,0,37,2,1,3,3,0,0,0,0,0,0,0,0,0
5811000,5659000,17716742657,0.0012154132,0.017036175,0.014274093,0,2.0000498,0.96155274,nan,nan,nan,0.0011616461,nan,nan,nan,0.0,1310988,1310988,6620172,197388,62.99005,63.157204,0.4810135,0.48238713,0,37,2,1,3,3,0,0,0,0,0,0,0,0,0
5827000,5675000,17716742657,0.0007869296,0.015159953,0.013515539,0,2.0000575,0.9615566,nan,nan,nan,0.0011616461,nan,nan,nan,0.0,1310988,1310988,6620172,197388,62.99005,63.157204,0.4810135,0.48238713,0,37,2,1,3,3,0,0,0,0,0,0,0,0,0
5835000,5683000,17716742657,0.00059491594,0.014238572,0.012902365,0,2.0000615,0.9272095,nan,nan,nan,0.0010935959,nan,nan,nan,0.0,1310988,1310988,6620172,197388,62.99005,63.157204,0.4810135,0.48238713,0,37,2,1,3,3,0,0,0,0,0,0,0,0,0
5843000,5691000,17716742657,0.0004257731,0.013338026,0.012537852,0,2.0000658,0.9272116,nan,nan,nan,0.0010935959,nan,nan,nan,0.0,1310988,1310988,6620172,197388,62.99005,63.157204,0.4810135,0.48238713,0,37,2,1,3,3,0,0,0,0,0,0,0,0,0
5851000,5699000,17716742657,0.000272227,0.012447901,0.012175556,0,2.0000703,0.9272137,nan,nan,nan,0.0010935959,nan,nan,nan,0.0,1310988,1310988,6620172,197388,62.99005,63.157204,0.4810135,0.48238713,0,37,2,1,3,3,0,0,0,0,0,0,0,0,0
5867000,5715000,17716742657,0.00015888184,0.010712235,0.011447799,0,2.0000799,0.9272184,nan,nan,nan,0.0010935959,nan,nan,nan,0.0,1310988,1310988,6620172,197388,62.99005,63.157204,0.4810135,0.48238713,0,37,2,1,3,3,0,0,0,0,0,0,0,0,0
5875000,5723000,17716742657,0.0002464558,0.009874593,0.011089139,0,2.000085,0.9272209,nan,nan,nan,0.0010935959,nan,nan,nan,0.0,1310988,1310988,6620172,197388,62.99005,63.157204,0.4810135,0.48238713,0,37,2,1,3,3,0,0,0,0,0,0,0,0,0
5883000,5731000,17716742657,0.00035181871,0.00906041,0.010736278,0,2.0000904,0.92722344,nan,nan,nan,0.0010935959,nan,nan,nan,0.0,1310988,1310988,6620172,197388,63.049706,63.157204,0.48043317,0.48238713,0,37,2,1,3,3,0,0,0,0,0,0,0,0,0
5891000,5739000,17716742657,0.00045218316,0.008261584,0.010379398,0,2.000096,0.9272262,nan,nan,nan,0.0010935959,nan,nan,nan,0.0,1310988,1310988,6620172,197388,63.049706,63.157204,0.48043317,0.48238713,0,37,2,1,3,3,0,0,0,0,0,0,0,0,0
5907000,5755000,17716742657,0.0006328223,0.006723768,0.008348649,0,2.0001082,0.6674502,nan,nan,nan,0.0008555976,nan,nan,nan,0.0,1310988,1310988,6620172,197388,63.049706,63.157204,0.48043317,0.48238713,0,37,2,1,3,3,0,0,0,0,0,0,0,0,0
5915000,5763000,17716742657,0.0007175769,0.0059853694,0.008045663,0,2.0001147,0.6674525,nan,nan,nan,0.0008555976,nan,nan,nan,0.0,1310988,1310988,6620172,197388,63.049706,63.157204,0.48043317,0.48238713,0,37,2,1,3,3,0,0,0,0,0,0,0,0,0
5923000,5771000,17716742657,0.0007930047,0.005266842,0.0077414364,0,2.0001216,0.66745496,nan,nan,nan,0.0008555976,nan,nan,nan,0.0,1310988,1310988,6620172,197388,63.049706,63.157204,0.48043317,0.48238713,0,37,2,1,3,3,0,0,0,0,0,0,0,0,0
5931000,5779000,17716742657,0.0008534533,0.0045766965,0.0074367016,0,2.0001285,0.6674576,nan,nan,nan,0.0008555976,nan,nan,nan,0.0,1310988,1310988,6620172,197388,63.049706,63.157204,0.48043317,0.48238713,0,37,2,1,3,3,0,0,0,0,0,0,0,0,0
5947000,5795000,17716742657,0.00095890375,0.0032947601,0.006830436,0,2.0001438,0.6674633,nan,nan,nan,0.0008555976,nan,nan,nan,0.0,1310988,1310988,6620172,197388,63.049706,63.157204,0.48043317,0.48238713,0,37,2,1,3,3,0,0,0,0,0,0,0,0,0
5955000,5803000,17716742657,0.0010121702,0.0027063913,0.006521516,0,2.0001516,0.66746646,nan,nan,nan,0.0008555976,nan,nan,nan,0.0,1310988,1310988,6620172,197388,63.442104,63.157204,0.48248225,0.48238713,0,37,2,1,3,3,0,0,0,0,0,0,0,0,0
5963000,5811000,17716742657,0.0010556226,0.0021857014,0.006215341,0,2.0001602,0.6556577,nan,nan,nan,0.00081489404,nan,nan,nan,0.0,1310988,1310988,6620172,197388,63.442104,63.157204,0.48248225,0.48238713,0,37,2,1,3,3,0,0,0,0,0,0,0,0,0
5971000,5819000,17716742657,0.0010969561,0.0017699765,0.0059101423,0,2.0001688,0.6556611,nan,nan,nan,0.00081489404,nan,nan,nan,0.0,1310988,1310988,6620172,197388,63.442104,63.157204,0.48248225,0.48238713,0,37,2,1,3,3,0,0,0,0,0,0,0,0,0
5987000,5835000,17716742657,0.0011380146,0.0015214528,0.005311606,0,2.0001872,0.6556685,nan,nan,nan,0.00081489404,nan,nan,nan,0.0,1310988,1310988,6620172,197388,63.442104,63.157204,0.48248225,0.48238713,0,37,2,1,3,3,0,0,0,0,0,0,0,0,0
5995000,5843000,17716742657,0.0011477806,0.0017124265,0.0050190706,0,2.000197,0.6556725,nan,nan,nan,0.00081489404,nan,nan,nan,0.0,1310988,1310988,6620172,197388,63.442104,63.157204,0.48248225,0.48238713,0,37,2,1,3,3,0,0,0,0,0,0,0,0,0
6003000,5851000,17716742657,0.0011578328,0.0020494473,0.0047214627,0,2.0002072,0.65567666,nan,nan,nan,0.00081489404,nan,nan,nan,0.0,1310988,1310988,6620172,197388,63.442104,63.157204,0.48248225,0.48238713,0,37,2,1,3,3,0,0,0,0,0,0,0,0,0
6011000,5859000,17716742657,0.0011710258,0.0024591384,0.0044280593,0,2.0002177,0.6556811,nan,nan,nan,0.00081489404,nan,nan,nan,0.0,1310988,1310988,6620172,197388,63.442104,63.157204,0.48248225,0.48238713,0,37,2,1,3,3,0,0,0,0,0,0,0,0,0
6027000,5875000,17716742657,0.0011908598,0.003367689,0.0037484325,0,2.0002398,0.64448345,nan,nan,nan,0.0007897185,nan,nan,nan,0.0,1310988,1310988,6620172,197388,63.347008,63.157204,0.48047745,0.48238713,0,37,2,1,3,3,0,0,0,0,0,0,0,0,0
6035000,5883000,17716742657,0.0011986603,0.003831813,0.0034576992,0,2.0002518,0.6444884,nan,nan,nan,0.0007897185,nan,nan,nan,0.0,1310988,1310988,6620172,197388,63.347008,63.157204,0.48047745,0.48238713,0,37,2,1,3,3,0,0,0,0,0,0,0,0,0
6043000,5891000,17716742657,0.0011970093,0.0042895684,0.0031724093,0,2.000264,0.6444936,nan,nan,nan,0.0007897185,nan,nan,nan,0.0,1310988,1310988,6620172,197388,63.347008,63.157204,0.48047745,0.48238713,0,37,2,1,3,3,0,0,0,0,0,0,0,0,0
6051000,5899000,17716742657,0.0011820121,0.0047172145,0.0028965352,0,2.0002768,0.644499,nan,nan,nan,0.0007897185,nan,nan,nan,0.0,1310988,1310988,6620172,197388,63.347008,63.157204,0.48047745,0.48238713,0,37,2,1,3,3,0,0,0,0,0,0,0,0,0
6067000,5915000,17716742657,0.0011487424,0.0055559794,0.0023579895,0,2.0003035,0.6445105,nan,nan,nan,0.0007897185,nan,nan,nan,0.0,1310988,1310988,6620172,197388,63.347008,63.157204,0.48047745,0.48238713,0,37,2,1,3,3,0,0,0,0,0,0,0,0,0
6075000,5923000,17716742657,0.0011215169,0.005949483,0.0021027804,0,2.0003176,0.6445166,nan,nan,nan,0.0007897185,nan,nan,nan,0.0,1310988,1310988,6620172,197388,63.347008,63.157204,0.48047745,0.48238713,0,37,2,1,3,3,0,0,0,0,0,0,0,0,0
6083000,5931000,17716742657,0.001094741,0.0063271513,0.0018542955,0,2.000332,0.644523,nan,nan,nan,0.0007897185,nan,nan,nan,0.0,1310988,1310988,6620172,197388,63.347008,63.157204,0.48047745,0.48238713,0,37,2,1,3,3,0,0,0,0,0,0,0,0,0
6091000,5939000,17716742657,0.0010738086,0.006702631,0.0023157548,0,2.0003471,0.6338769,nan,nan,nan,0.00063380465,nan,nan,nan,0.0,1310988,1310988,6620172,197388,62.813477,63.157204,0.482637,0.48238713,0,37,2,1,3,3,0,0,0,0,0,0,0,0,0
6107000,5955000,17716742657,0.0010380031,0.0074313455,0.0019642112,0,2.000379,0.63389075,nan,nan,nan,0.00063380465,nan,nan,nan,0.0,1310988,1310988,6620172,197388,62.813477,63.157204,0.482637,0.48238713,0,37,2,1,3,3,0,0,0,0,0,0,0,0,0
6115000,5963000,17716742657,0.0010216726,0.0077851564,0.0018497633,0,2.0003958,0.6338981,nan,nan,nan,0.00063380465,nan,nan,nan,0.0,1310988,1310988,6620172,197388,62.813477,63.157204,0.482637,0.48238713,0,37,2,1,3,3,0,0,0,0,0,0,0,0,0
6123000,5971000,17716742657,0.0009942824,0.008107347,0.0017745319,0,2.000413,0.63390565,nan,nan,nan,0.00063380465,nan,nan,nan,0.0,1310988,1310988,6620172,197388,62.813477,63.157204,0.482637,0.48238713,0,37,2,1,3,3,0,0,0,0,0,0,0,0,0
6131000,5979000,17716742657,0.00096210226,0.008409729,0.0017126212,0,2.0004308,0.6339135,nan,nan,nan,0.00063380465,nan,nan,nan,0.0,1310988,1310988,6620172,197388,62.813477,63.157204,0.482637,0.48238713,0,37,2,1,3,3,0,0,0,0,0,0,0,0,0
6147000,5995000,17716742657,0.0009097094,0.008993915,0.0017261927,0,2.0004685,0.63393015,nan,nan,nan,0.00063380465,nan,nan,nan,0.0,1310988,1310988,6620172,197388,62.813477,63.157204,0.482637,0.48238713,0,37,2,1,3,3,0,0,0,0,0,0,0,0,0
6155000,6003000,17716742657,0.00087984075,0.009269293,0.0019154863,0,2.0004883,0.62379545,nan,nan,nan,0.0006036633,nan,nan,nan,0.0,1310988,1310988,6620172,197388,62.813477,63.157204,0.482637,0.48238713,0,37,2,1,3,3,0,0,0,0,0,0,0,0,0
6163000,6011000,17716742657,0.00085435173,0.009533928,0.001994341,0,2.0005085,0.6238044,nan,nan,nan,0.0006036633,nan,nan,nan,0.0,1310988,1310988,6620172,197388,62.840366,63.157204,0.47930583,0.48238713,0,37,2,1,3,3,0,0,0,0,0,0,0,0,0
6171000,6019000,17716742657,0.0008196556,0.009769394,0.002094999,0,2.0005295,0.6238136,nan,nan,nan,0.0006036633,nan,nan,nan,0.0,1310988,1310988,6620172,197388,62.840366,63.157204,0.47930583,0.48238713,0,37,2,1,3,3,0,0,0,0,0,0,0,0,0
6187000,6035000,17716742657,0.00074981875,0.010216453,0.0023586848,0,2.0005736,0.62383306,nan,nan,nan,0.0006036633,nan,nan,nan,0.0,1310988,1310988,6620172,197388,62.840366,63.157204,0.47930583,0.48238713,0,37,2,1,3,3,0,0,0,0,0,0,0,0,0
6195000,6043000,17716742657,0.00071948906,0.010435741,0.0025220301,0,2.0005968,0.6238433,nan,nan,nan,0.0006036633,nan,nan,nan,0.0,1310988,1310988,6620172,197388,62.840366,63.157204,0.47930583,0.48238713,0,37,2,1,3,3,0,0,0,0,0,0,0,0,0
6203000,6051000,17716742657,0.0006843726,0.010632439,0.0026885471,0,2.0006204,0.62385386,nan,nan,nan,0.0006036633,nan,nan,nan,0.0,1310988,1310988,6620172,197388,62.840366,63.157204,0.47930583,0.48238713,0,37,2,1,3,3,0,0,0,0,0,0,0,0,0
6211000,6059000,17716742657,0.00066200295,0.01083321,0.0025486853,0,2.000645,0.61419064,nan,nan,nan,0.0006762048,nan,nan,nan,0.0,1310988,1310988,6620172,197388,62.840366,63.157204,0.47930583,0.48238713,0,37,2,1,3,3,0,0,0,0,0,0,0,0,0
6227000,6075000,17716742657,0.0006115684,0.011209433,0.0029651918,0,2.0006957,0.6142131,nan,nan,nan,0.0006762048,nan,nan,nan,0.0,1310988,1310988,6620172,197388,62.840366,63.157204,0.47930583,0.48238713,0,37,2,1,3,3,0,0,0,0,0,0,0,0,0
6235000,6083000,17716742657,0.00059461454,0.011400104,0.0031723243,0,2.0007224,0.6142249,nan,nan,nan,0.0006762048,nan,nan,nan,0.0,1310988,1310988,6620172,197388,63.440063,63.157204,0.47940776,0.48238713,0,37,2,1,3,3,0,0,0,0,0,0,0,0,0
6243000,6091000,17716742657,0.00057259394,0.011570719,0.0033761747,0,2.0007498,0.61423707,nan,nan,nan,0.0006762048,nan,nan,nan,0.0,1310988,1310988,6620172,197388,63.440063,63.157204,0.47940776,0.48238713,0,37,2,1,3,3,0,0,0,0,0,0,0,0,0
6251000,6099000,17716742657,0.00054931885,0.011726739,0.003572529,0,2.0007782,0.6142496,nan,nan,nan,0.0006762048,nan,nan,nan,0.0,1310988,1310988,6620172,197388,63.440063,63.157204,0.47940776,0.48238713,0,37,2,1,3,3,0,0,0,0,0,0,0,0,0
6267000,6115000,17716742657,0.00049819425,0.0120132845,0.0039566783,0,2.0008376,0.61427575,nan,nan,nan,0.0006762048,nan,nan,nan,0.0,1310988,1310988,6620172,197388,63.440063,63.157204,0.47940776,0.48238713,0,37,2,1,3,3,0,0,0,0,0,0,0,0,0
6275000,6123000,17716742657,0.00048032316,0.012156694,0.004198978,0,2.0008683,0.6050483,nan,nan,nan,0.0007510659,nan,nan,nan,0.0,1310988,1310988,6620172,197388,63.440063,63.157204,0.47940776,0.48238713,0,37,2,1,3,3,0,0,0,0,0,0,0,0,0
6283000,6131000,17716742657,0.00046926498,0.012308639,0.0043855743,0,2.0009003,0.6050621,nan,nan,nan,0.0007510659,nan,nan,nan,0.0,1310988,1310988,6620172,197388,63.440063,63.157204,0.47940776,0.48238713,0,37,2,1,3,3,0,0,0,0,0,0,0,0,0
6291000,6139000,17716742657,0.00045052732,0.012437209,0.0045629865,0,2.000933,0.60507643,nan,nan,nan,0.0007510659,nan,nan,nan,0.0,1310988,1310988,6620172,197388,63.440063,63.157204,0.47940776,0.48238713,0,37,2,1,3,3,0,0,0,0,0,0,0,0,0
6307000,6155000,17716742657,0.00039122134,0.012618926,0.004863787,0,2.0010011,0.51770794,nan,nan,nan,0.00086441287,nan,nan,nan,0.0,1310988,1310988,6620172,197388,62.953712,63.157204,0.47950846,0.48238713,0,37,2,1,3,3,0,0,0,0,0,0,0,0,0
6315000,6163000,17716742657,0.00036619624,0.012705001,0.0050230306,0,2.0010366,0.51772135,nan,nan,nan,0.00086441287,nan,nan,nan,0.0,1310988,1310988,6620172,197388,62.953712,63.157204,0.47950846,0.48238713,0,37,2,1,3,3,0,0,0,0,0,0,0,0,0
6323000,6171000,17716742657,0.0003320795,0.012770458,0.0051736925,0,2.0010734,0.5177353,nan,nan,nan,0.00086441287,nan,nan,nan,0.0,1310988,1310988,6620172,197388,62.953712,63.157204,0.47950846,0.48238713,0,37,2,1,3,3,0,0,0,0,0,0,0,0,0
6331000,6179000,17716742657,0.00030190448,0.012838937,0.005321618,0,2.001111,0.5177497,nan,nan,nan,0.00086441287,nan,nan,nan,0.0,1310988,1310988,6620172,197388,62.953712,63.157204,0.47950846,0.48238713,0,37,2,1,3,3,0,0,0,0,0,0,0,0,0
6347000,6195000,17716742657,0.0002681288,0.012997529,0.005639999,0,2.0011895,0.51221067,nan,nan,nan,0.00082597684,nan,nan,nan,0.0,1310988,1310988,6620172,197388,62.953712,63.157204,0.47950846,0.48238713,0,37,2,1,3,3,0,0,0,0,0,0,0,0,0
6355000,6203000,17716742657,0.0002602787,0.013088925,0.0057950476,0,2.00123,0.51222646,nan,nan,nan,0.00082597684,nan,nan,nan,0.0,1310988,1310988,6620172,197388,62.953712,63.157204,0.47950846,0.48238713,0,37,2,1,3,3,0,0,0,0,0,0,0,0,0
6363000,6211000,17716742657,0.00024175717,0.0131494105,0.0059345863,0,2.001272,0.51224273,nan,nan,nan,0.00082597684,nan,nan,nan,0.0,1310988,1310988,6620172,197388,62.953712,63.157204,0.47950846,0.48238713,0,37,2,1,3,3,0,0,0,0,0,0,0,0,0
6371000,6219000,17716742657,0.00022469972,0.0132078845,0.006069644,0,2.001315,0.5122596,nan,nan,nan,0.00082597684,nan,nan,nan,0.0,1310988,1310988,6620172,197388,62.953712,63.157204,0.47950846,0.48238713,0,37,2,1,3,3,0,0,0,0,0,0,0,0,0
6387000,6235000,189515434499,0.000197776,0.014043205,0.0063303793,0,2.001405,0.5122949,nan,nan,nan,0.00082597684,nan,nan,nan,0.0,1310988,1310988,6620172,197388,63.38918,63.157204,0.47848162,0.48238713,0,37,2,1,3,3,1,0,0,0,0,0,0,0,0
6395000,6243000,189515434499,0.00018389693,0.014269618,0.0064614955,0,2.0014515,0.5123134,nan,nan,nan,0.00082597684,nan,nan,nan,0.0,1310988,1310988,6620172,197388,63.38918,63.157204,0.47848162,0.48238713,0,37,2,1,3,3,1,0,0,0,0,0,0,0,0
6403000,6251000,189515434499,0.00017815577,0.014538787,0.006618989,0,2.0014992,0.5069353,nan,nan,nan,0.0010254001,nan,nan,nan,0.0,1310988,1310988,6620172,197388,63.38918,63.157204,0.47848162,0.48238713,0,37,2,1,3,3,1,0,0,0,0,0,0,0,0
6411000,6259000,189515434499,0.0001533529,0.012061508,0.006739682,0,2.0015478,0.5069547,nan,nan,nan,0.0010254001,nan,nan,nan,0.0,1310988,1310988,6620172,197388,63.38918,63.157204,0.47848162,0.48238713,0,37,2,1,3,3,1,0,0,0,0,0,0,0,0
6427000,6275000,189515434499,0.00013363727,0.012794538,0.0069460208,0,2.0016496,0.5069953,nan,nan,nan,0.0010254001,nan,nan,nan,0.0,1310988,1310988,6620172,197388,63.38918,63.157204,0.47848162,0.48238713,0,37,2,1,3,3,1,0,0,0,0,0,0,0,0
6435000,6283000,189515434499,0.00012528265,0.012865631,0.0070461365,0,2.001702,0.50701654,nan,nan,nan,0.0010254001,nan,nan,nan,0.0,1310988,1310988,6620172,197388,63.38918,63.157204,0.47848162,0.48238713,0,37,2,1,3,3,1,0,0,0,0,0,0,0,0
6443000,6291000,189515434499,0.000106302396,0.011228694,0.007132692,0,2.0017562,0.50703835,nan,nan,nan,0.0010254001,nan,nan,nan,0.0,1310988,1310988,6620172,197388,63.38918,63.157204,0.47848162,0.48238713,0,37,2,1,3,3,1,0,0,0,0,0,0,0,0
6451000,6299000,189515434579,0.0026973933,0.00880781,0.007249764,0,2.001806,0.5070608,0.0026944398,nan,nan,0.0010254001,nan,nan,nan,0.0,1310988,1310988,6620172,197388,63.156876,63.157204,0.4801682,0.48238713,0,37,2,1,3,3,1,0,0,0,0,0,0,0,0
6467000,6315000,189515434579,0.0026891923,0.007002136,0.007353911,0,2.0019202,0.5018726,0.0026944398,nan,nan,0.00079269416,nan,nan,nan,0.0,1310988,1310988,6620172,197388,63.156876,63.157204,0.4801682,0.48238713,0,37,2,1,3,3,1,0,0,0,0,0,0,0,0
6475000,6323000,189515434579,0.0026901113,0.008244392,0.007388023,0,2.0019796,0.5018967,0.0026944398,nan,nan,0.00079269416,nan,nan,nan,0.0,1310988,1310988,6620172,197388,63.156876,63.157204,0.4801682,0.48238713,0,37,2,1,3,3,1,0,0,0,0,0,0,0,0
6483000,6331000,189515434579,0.0026980212,0.008852885,0.007413474,0,2.0020404,0.5019215,0.0026944398,nan,nan,0.00079269416,nan,nan,nan,0.0,1310988,1310988,6620172,197388,63.156876,63.157204,0.4801682,0.48238713,0,37,2,1,3,3,1,0,0,0,0,0,0,0,0
6491000,6339000,189515434579,0.002702514,0.009930798,0.007452072,0,2.0021026,0.5019469,0.0026944398,nan,nan,0.00079269416,nan,nan,nan,0.0,1310988,1310988,6620172,197388,63.156876,63.157204,0.4801682,0.48238713,0,37,2,1,3,3,1,0,0,0,0,0,0,0,0
6507000,6355000,189515434579,0.0027012962,0.009891354,0.00755437,0,2.0022316,0.5019998,0.0026944398,nan,nan,0.00079269416,nan,nan,nan,0.0,1310988,1310988,6620172,197388,63.156876,63.157204,0.4801682,0.48238713,0,37,2,1,3,3,1,0,0,0,0,0,0,0,0
6515000,6363000,189515434579,0.0027032918,0.010356242,0.0075964816,0,2.0022984,0.50202733,0.0026944398,nan,nan,0.00079269416,nan,nan,nan,0.0,1310988,1310988,6620172,197388,63.156876,63.157204,0.4801682,0.48238713,0,37,2,1,3,3,1,0,0,0,0,0,0,0,0
6523000,6371000,189515434579,0.0023169874,0.011528106,0.0075967708,0,2.0023656,0.5020555,0.0062061283,nan,nan,0.00079269416,nan,nan,nan,0.0,1310988,1310988,6620172,197388,63.56666,63.157204,0.48031646,0.48238713,0,37,2,1,3,3,1,0,0,0,0,0,0,0,0
6531000,6379000,189515434579,0.002324218,0.01284417,0.007643399,0,2.0024357,0.49700233,0.0062061283,nan,nan,0.00076153805,nan,nan,nan,0.0,1310988,1310988,6620172,197388,63.56666,63.157204,0.48031646,0.48238713,0,37,2,1,3,3,1,0,0,0,0,0,0,0,0
6547000,6395000,189515434579,0.002336735,0.012831643,0.0077397907,0,2.0025811,0.49706176,0.0062061283,nan,nan,0.00076153805,nan,nan,nan,0.0,1310988,1310988,6620172,197388,63.56666,63.157204,0.48031646,0.48238713,0,37,2,1,3,3,1,0,0,0,0,0,0,0,0
6555000,6403000,189515434579,0.0023368706,0.012854724,0.0077957306,0,2.0026565,0.49709257,0.0062061283,nan,nan,0.00076153805,nan,nan,nan,0.0,1310988,1310988,6620172,197388,63.56666,63.157204,0.48031646,0.48238713,0,37,2,1,3,3,1,0,0,0,0,0,0,0,0
6563000,6411000,189515434579,0.0023380036,0.012872232,0.00784713,0,2.0027337,0.49712417,0.0062061283,nan,nan,0.00076153805,nan,nan,nan,0.0,1310988,1310988,6620172,197388,63.56666,63.157204,0.48031646,0.48238713,0,37,2,1,3,3,1,0,0,0,0,0,0,0,0
6571000,6419000,189515434579,0.0023398912,0.012875749,0.007892907,0,2.0028126,0.4971565,0.0062061283,nan,nan,0.00076153805,nan,nan,nan,0.0,1310988,1310988,6620172,197388,63.56666,63.157204,0.48031646,0.48238713,0,37,2,1,3,3,1,0,0,0,0,0,0,0,0
6587000,6435000,189515434579,0.00234497,0.012888575,0.007979581,0,2.0029764,0.49722353,0.0062061283,nan,nan,0.00076153805,nan,nan,nan,0.0,1310988,1310988,6620172,197388,63.56666,63.157204,0.48031646,0.48238713,0,37,2,1,3,3,1,0,0,0,0,0,0,0,0
6595000,6443000,189515434579,0.0011072876,0.012769629,0.00800193,0,2.0030603,0.49232033,0.006253853,nan,nan,0.0007149867,nan,nan,nan,0.0,1310988,1310988,6620172,197388,63.436466,63.157204,0.48025662,0.48238713,0,37,2,1,3,3,1,0,0,0,0,0,0,0,0
6603000,6451000,189515434579,0.0011102216,0.012755049,0.008037436,0,2.0031474,0.49235547,0.006253853,nan,nan,0.0007149867,nan,nan,nan,0.0,1310988,1310988,6620172,197388,63.436466,63.157204,0.48025662,0.48238713,0,37,2,1,3,3,1,0,0,0,0,0,0,0,0
6611000,6459000,189515434579,0.0010543215,0.012700615,0.008050131,0,2.0032363,0.49239147,0.006253853,nan,nan,0.0007149867,nan,nan,nan,0.0,1310988,1310988,6620172,197388,63.436466,63.157204,0.48025662,0.48238713,0,37,2,1,3,3,1,0,0,0,0,0,0,0,0
6627000,6475000,189515434579,0.0009417576,0.012597924,0.0080783935,0,2.0034208,0.49246588,0.006253853,nan,nan,0.0007149867,nan,nan,nan,0.0,1310988,1310988,6620172,197388,63.436466,63.157204,0.48025662,0.48238713,0,37,2,1,3,3,1,0,0,0,0,0,0,0,0
6635000,6483000,189515434579,0.0008702603,0.012615841,0.0081213005,0,2.0035164,0.4925044,0.006253853,nan,nan,0.0007149867,nan,nan,nan,0.0,1310988,1310988,6620172,197388,63.436466,63.157204,0.48025662,0.48238713,0,37,2,1,3,3,1,0,0,0,0,0,0,0,0
6643000,6491000,189515434579,0.0007957342,0.012664509,0.008175277,0,2.0036142,0.49254373,0.006253853,nan,nan,0.0007149867,nan,nan,nan,0.0,1310988,1310988,6620172,197388,63.436466,63.157204,0.48025662,0.48238713,0,37,2,1,3,3,1,0,0,0,0,0,0,0,0
6651000,6499000,189515434579,0.00072595145,0.01269517,0.008219558,0,2.0037146,0.49258396,0.006253853,nan,nan,0.0007149867,nan,nan,nan,0.0,1310988,1310988,6620172,197388,63.436466,63.157204,0.48025662,0.48238713,0,37,2,1,3,3,1,0,0,0,0,0,0,0,0
6667000,6515000,189515434579,0.0018646653,0.012804931,0.008295845,0,2.003921,0.48786452,0.007641579,nan,nan,0.0007918768,nan,nan,nan,0.0,1310988,1310988,6620172,197388,63.1626,63.157204,0.47732353,0.48238713,0,37,2,1,3,3,1,0,0,0,0,0,0,0,0
6675000,6523000,189515434579,0.0017885946,0.012806477,0.008338428,0,2.0040286,0.48790702,0.007641579,nan,nan,0.0007918768,nan,nan,nan,0.0,1310988,1310988,6620172,197388,63.1626,63.157204,0.47732353,0.48238713,0,37,2,1,3,3,1,0,0,0,0,0,0,0,0
6683000,6531000,189515434579,0.0017237474,0.012811395,0.008379202,0,2.0041387,0.4879504,0.007641579,nan,nan,0.0007918768,nan,nan,nan,0.0,1310988,1310988,6620172,197388,63.1626,63.157204,0.47732353,0.48238713,0,37,2,1,3,3,1,0,0,0,0,0,0,0,0
6691000,6539000,189515434579,0.0016592978,0.012805463,0.008415906,0,2.0042515,0.48799476,0.007641579,nan,nan,0.0007918768,nan,nan,nan,0.0,1310988,1310988,6620172,197388,63.1626,63.157204,0.47732353,0.48238713,0,37,2,1,3,3,1,0,0,0,0,0,0,0,0
6707000,6555000,17763984738903,0.0014063995,0.016246684,0.020308817,0,1.1554177,0.43860686,0.007641579,0.008996138,0.0011966199,0.000943294,nan,nan,nan,0.0,1310988,1310988,6620172,197388,63.1626,63.157204,0.47732353,0.48238713,0,831,2,1,3,3,1,0,0,0,0,0,0,0,0
6715000,6563000,17763984738903,0.0013473917,0.01615537,0.020091468,0,1.1554728,0.43524808,0.007641579,0.008996138,0.0011966199,0.0007599752,nan,nan,nan,0.0,1310988,1310988,6620172,197388,63.1626,63.157204,0.47732353,0.48238713,0,831,2,1,3,3,1,0,0,0,0,0,0,0,0
6723000,6571000,17763984738903,0.0012888281,0.016065752,0.019769805,0,1.1555308,0.43529022,0.007641579,0.008996138,0.0011966199,0.0007599752,nan,nan,nan,0.0,1310988,1310988,6620172,197388,63.1626,63.157204,0.47732353,0.48238713,0,831,2,1,3,3,1,0,0,0,0,0,0,0,0
6731000,6579000,17763984738903,0.0012304022,0.015974473,0.019458294,0,1.1555921,0.4353334,0.007641579,0.008996138,0.0011966199,0.0007599752,nan,nan,nan,0.0,1310988,1310988,6620172,197388,63.1626,63.157204,0.47732353,0.48238713,0,831,2,1,3,3,1,0,0,0,0,0,0,0,0
6747000,6595000,17763984738839,0.0009964274,0.015912898,0.018878523,0,1.1557238,0.43542284,0.0071432996,0.008996138,0.0011966199,0.0007599752,nan,nan,nan,0.0,1310988,1310988,6620172,197388,63.062683,63.157204,0.48115242,0.48238713,0,831,2,1,3,3,1,0,0,0,0,0,0,0,0
6755000,6603000,17763984738839,0.000970123,0.015818791,0.018593308,0,1.1557946,0.43546915,0.0071432996,0.008996138,0.0011966199,0.0007599752,nan,nan,nan,0.0,1310988,1310988,6620172,197388,63.062683,63.157204,0.48115242,0.48238713,0,831,2,1,3,3,1,0,0,0,0,0,0,0,0
6763000,6611000,17763984738839,0.000944003,0.015729222,0.018314512,0,1.155869,0.4355165,0.0071432996,0.008996138,0.0011966199,0.0007599752,nan,nan,nan,0.0,1310988,1310988,6620172,197388,63.062683,63.157204,0.48115242,0.48238713,0,831,2,1,3,3,1,0,0,0,0,0,0,0,0
6771000,6619000,17763984738839,0.0009193948,0.015645163,0.018041832,0,1.155947,0.43556497,0.0071432996,0.008996138,0.0011966199,0.0007599752,nan,nan,nan,0.0,1310988,1310988,6620172,197388,63.062683,63.157204,0.48115242,0.48238713,0,831,2,1,3,3,1,0,0,0,0,0,0,0,0
6787000,6635000,17763984738839,0.00087522384,0.015471473,0.017567694,0,1.1561137,0.43233433,0.0071432996,0.008996138,0.0011966199,0.0008263675,nan,nan,nan,0.0,1310988,1310988,6620172,197388,63.062683,63.157204,0.48115242,0.48238713,0,831,2,1,3,3,1,0,0,0,0,0,0,0,0
6795000,6643000,17763984738839,0.00085576484,0.015391882,0.017315462,0,1.1562028,0.43238574,0.0071432996,0.008996138,0.0011966199,0.0008263675,nan,nan,nan,0.0,1310988,1310988,6620172,197388,63.062683,63.157204,0.48115242,0.48238713,0,831,2,1,3,3,1,0,0,0,0,0,0,0,0
6803000,6651000,17763984738839,0.00083810935,0.015314262,0.017068421,0,1.1562959,0.43243828,0.0071432996,0.008996138,0.0011966199,0.0008263675,nan,nan,nan,0.0,1310988,1310988,6620172,197388,63.062683,63.157204,0.48115242,0.48238713,0,831,2,1,3,3,1,0,0,0,0,0,0,0,0
6811000,6659000,17763984738839,0.00042788993,0.015192496,0.016820658,0,1.1563926,0.43249196,0.0068276282,0.008996138,0.0011966199,0.0008263675,nan,nan,nan,0.0,1310988,1310988,6620172,197388,63.32003,63.157204,0.47917983,0.48238713,0,831,2,1,3,3,1,0,0,0,0,0,0,0,0
6827000,6675000,17763984738839,0.0004065888,0.015041066,0.016364342,0,1.1565994,0.43260282,0.0068276282,0.008996138,0.0011966199,0.0008263675,nan,nan,nan,0.0,1310988,1310988,6620172,197388,63.32003,63.157204,0.47917983,0.48238713,0,831,2,1,3,3,1,0,0,0,0,0,0,0,0
6835000,6683000,17763984738839,0.00039703152,0.014966973,0.016145723,0,1.1567093,0.43266004,0.0068276282,0.008996138,0.0011966199,0.0008263675,nan,nan,nan,0.0,1310988,1310988,6620172,197388,63.32003,63.157204,0.47917983,0.48238713,0,831,2,1,3,3,1,0,0,0,0,0,0,0,0
6843000,6691000,17763984738839,0.000392985,0.0148903215,0.01588958,0,1.1568238,0.42945376,0.0068276282,0.008996138,0.0011966199,0.0007237092,nan,nan,nan,0.0,1310988,1310988,6620172,197388,63.32003,63.157204,0.47917983,0.48238713,0,831,2,1,3,3,1,0,0,0,0,0,0,0,0
6851000,6699000,17763984738839,0.00039414768,0.0148208365,0.015681574,0,1.1569427,0.42951295,0.0068276282,0.008996138,0.0011966199,0.0007237092,nan,nan,nan,0.0,1310988,1310988,6620172,197388,63.32003,63.157204,0.47917983,0.48238713,0,831,2,1,3,3,1,0,0,0,0,0,0,0,0
6867000,6715000,17763984738839,0.00038420176,0.014679532,0.015277194,0,1.157195,0.42963502,0.0068276282,0.008996138,0.0011966199,0.0007237092,nan,nan,nan,0.0,1310988,1310988,6620172,197388,63.32003,63.157204,0.47917983,0.48238713,0,831,2,1,3,3,1,0,0,0,0,0,0,0,0
6875000,6723000,17763984738839,0.00038385385,0.014606644,0.015082516,0,1.1573285,0.4296979,0.0068276282,0.008996138,0.0011966199,0.0007237092,nan,nan,nan,0.0,1310988,1310988,6620172,197388,63.32003,63.157204,0.47917983,0.48238713,0,831,2,1,3,3,1,0,0,0,0,0,0,0,0
6883000,6731000,17763984738839,0.00050359935,0.014451311,0.014870564,0,1.1574663,0.42976207,0.0044086203,0.008996138,0.0011966199,0.0007237092,nan,nan,nan,0.0,1310988,1310988,6620172,197388,63.447712,63.157204,0.48160365,0.48238713,0,831,2,1,3,3,1,0,0,0,0,0,0,0,0
6891000,6739000,17763984738839,0.00047522213,0.01437845,0.014683987,0,1.1576099,0.42982754,0.0044086203,0.008996138,0.0011966199,0.0007237092,nan,nan,nan,0.0,1310988,1310988,6620172,197388,63.447712,63.157204,0.48160365,0.48238713,0,831,2,1,3,3,1,0,0,0,0,0,0,0,0
6907000,6755000,17763984738839,0.00042777762,0.014238277,0.014277476,0,1.1579136,0.42675942,0.0044086203,0.008996138,0.0011966199,0.0006073396,nan,nan,nan,0.0,1310988,1310988,6620172,197388,63.447712,63.157204,0.48160365,0.48238713,0,831,2,1,3,3,1,0,0,0,0,0,0,0,0
6915000,6763000,17763984738839,0.00040558146,0.014170208,0.014103313,0,1.1580735,0.42682827,0.0044086203,0.008996138,0.0011966199,0.0006073396,nan,nan,nan,0.0,1310988,1310988,6620172,197388,63.447712,63.157204,0.48160365,0.48238713,0,831,2,1,3,3,1,0,0,0,0,0,0,0,0
6923000,6771000,17763984738839,0.00038405004,0.014096965,0.013934323,0,1.1582394,0.42689845,0.0044086203,0.008996138,0.0011966199,0.0006073396,nan,nan,nan,0.0,1310988,1310988,6620172,197388,63.447712,63.157204,0.48160365,0.48238713,0,831,2,1,3,3,1,0,0,0,0,0,0,0,0
6931000,6779000,17763984738839,0.0003634404,0.014021365,0.013763766,0,1.1584109,0.42696998,0.0044086203,0.008996138,0.0011966199,0.0006073396,nan,nan,nan,0.0,1310988,1310988,6620172,197388,63.447712,63.157204,0.48160365,0.48238713,0,831,2,1,3,3,1,0,0,0,0,0,0,0,0
6947000,6795000,17763984738839,0.00032425136,0.013883599,0.013437952,0,1.1587721,0.42711717,0.0044086203,0.008996138,0.0011966199,0.0006073396,nan,nan,nan,0.0,1310988,1310988,6620172,197388,63.447712,63.157204,0.48160365,0.48238713,0,831,2,1,3,3,1,0,0,0,0,0,0,0,0
6955000,6803000,17763984738839,0.0003371569,0.014013525,0.01334053,0,1.1589607,0.42719284,0.0053602285,0.008996138,0.0011966199,0.0006073396,nan,nan,nan,0.0,1310988,1310988,6620172,197388,63.00988,63.157204,0.47968936,0.48238713,0,831,2,1,3,3,1,0,0,0,0,0,0,0,0
6963000,6811000,17763984738839,0.00034174538,0.013939011,0.013186915,0,1.1591568,0.4272699,0.0053602285,0.008996138,0.0011966199,0.0006073396,nan,nan,nan,0.0,1310988,1310988,6620172,197388,63.00988,63.157204,0.47968936,0.48238713,0,831,2,1,3,3,1,0,0,0,0,0,0,0,0
6971000,6819000,17763984738839,0.00033725527,0.013868045,0.013022987,0,1.1593595,0.42420343,0.0053602285,0.008996138,0.0011966199,0.00065743295,nan,nan,nan,0.0,1310988,1310988,6620172,197388,63.00988,63.157204,0.47968936,0.48238713,0,831,2,1,3,3,1,0,0,0,0,0,0,0,0
6987000,6835000,17763984738839,0.0003277148,0.013719476,0.0127252685,0,1.1597848,0.42436358,0.0053602285,0.008996138,0.0011966199,0.00065743295,nan,nan,nan,0.0,1310988,1310988,6620172,197388,63.00988,63.157204,0.47968936,0.48238713,0,831,2,1,3,3,1,0,0,0,0,0,0,0,0
6995000,6843000,17763984738839,0.00032205315,0.013645297,0.012582732,0,1.1600078,0.42444584,0.0053602285,0.008996138,0.0011966199,0.00065743295,nan,nan,nan,0.0,1310988,1310988,6620172,197388,63.00988,63.157204,0.47968936,0.48238713,0,831,2,1,3,3,1,0,0,0,0,0,0,0,0
7003000,6851000,17763984738839,0.0003154541,0.013576658,0.012441242,0,1.1602379,0.42452958,0.0053602285,0.008996138,0.0011966199,0.00065743295,nan,nan,nan,0.0,1310988,1310988,6620172,197388,63.00988,63.157204,0.47968936,0.48238713,0,831,2,1,3,3,1,0,0,0,0,0,0,0,0
7011000,6859000,17763984738839,0.00030820543,0.013506603,0.012302702,0,1.1604751,0.42461482,0.0053602285,0.008996138,0.0011966199,0.00065743295,nan,nan,nan,0.0,1310988,1310988,6620172,197388,63.00988,63.157204,0.47968936,0.48238713,0,831,2,1,3,3,1,0,0,0,0,0,0,0,0
7027000,6875000,17763984738839,0.00019505851,0.013487113,0.0120761795,0,1.1609696,0.4247898,0.0053272783,0.008996138,0.0011966199,0.00065743295,nan,nan,nan,0.0,1310988,1310988,6620172,197388,63.12371,63.157204,0.48136732,0.48238713,0,831,2,1,3,3,1,0,0,0,0,0,0,0,0
7035000,6883000,17763984738839,0.00018507258,0.013409735,0.011943024,0,1.1612293,0.42178866,0.0053272783,0.008996138,0.0011966199,0.0006436609,nan,nan,nan,0.0,1310988,1310988,6620172,197388,63.12371,63.157204,0.48136732,0.48238713,0,831,2,1,3,3,1,0,0,0,0,0,0,0,0
7043000,6891000,17763984738839,0.0001810902,0.013334354,0.011814683,0,1.1614968,0.42187935,0.0053272783,0.008996138,0.0011966199,0.0006436609,nan,nan,nan,0.0,1310988,1310988,6620172,197388,63.12371,63.157204,0.48136732,0.48238713,0,831,2,1,3,3,1,0,0,0,0,0,0,0,0
