timestamp,roll,pitch,yaw,thrust_body[0],thrust_body[1],thrust_body[2],reset_integral
5635000,-0.005828767,-0.0031405787,0.00020992622,0.0,0.0,-0.001,0
5643000,-0.006496009,-0.0033446222,-0.00041876046,0.0,0.0,-0.001,0
5655000,-0.00807317,-0.0030647526,-0.00022914275,0.0,0.0,-0.001,0
5675000,-0.009263426,-0.0031967652,-0.00019454322,0.0,0.0,-0.001,0
5691000,-0.011645757,-0.0036278549,0.00056463334,0.0,0.0,-0.001,0
5715000,-0.012995492,-0.0055679143,0.00010690035,0.0,0.0,-0.001,0
5735000,-0.014911227,-0.005622412,0.00025893026,0.0,0.0,-0.001,0
5755000,-0.016925873,-0.0062330607,0.0002218691,0.0,0.0,-0.001,0
5775000,-0.015985053,-0.00755301,-2.0336825e-05,0.0,0.0,-0.001,0
5791000,-0.016731245,-0.0077390233,2.7537346e-05,0.0,0.0,-0.001,0
5811000,-0.016400095,-0.007604802,-0.00038447406,0.0,0.0,-0.001,0
5835000,-0.015455297,-0.0056883995,-0.00019655278,0.0,0.0,-0.001,0
5851000,-0.015455957,-0.006246711,-0.00035734478,0.0,0.0,-0.001,0
5875000,-0.014458111,-0.004627044,-0.000114213326,0.0,0.0,-0.001,0
5895000,-0.013936382,-0.004207317,-0.00017642243,0.0,0.0,-0.001,0
5915000,-0.013919713,-0.0049045584,-0.00041908343,0.0,0.0,-0.001,0
5935000,-0.01493023,-0.0055962154,8.2399296e-05,0.0,0.0,-0.001,0
5955000,-0.015171724,-0.00636044,-0.0002116963,0.0,0.0,-0.001,0
5975000,-0.016438652,-0.006700329,-3.9081933e-05,0.0,0.0,-0.001,0
5995000,-0.015653556,-0.0067555285,-8.80871e-06,0.0,0.0,-0.001,0
6015000,-0.014744522,-0.0076568346,-4.6150744e-05,0.0,0.0,-0.001,0
6035000,-0.014146008,-0.007707175,-5.3159565e-05,0.0,0.0,-0.001,0
6051000,-0.013104123,-0.007777203,0.00014501701,0.0,0.0,-0.001,0
6075000,-0.012315148,-0.005500573,0.00030424562,0.0,0.0,-0.001,0
6095000,-0.011940339,-0.004710966,-0.00010875141,0.0,0.0,-0.001,0
6115000,-0.010949029,-0.0040617683,-0.0003644198,0.0,0.0,-0.001,0
6135000,-0.009199441,-0.0038806396,-0.00012913886,0.0,0.0,-0.001,0
6155000,-0.008411357,-0.005046197,-0.00077544537,0.0,0.0,-0.001,0
6175000,-0.0092866,-0.004475022,2.5184709e-06,0.0,0.0,-0.001,0
6195000,-0.008629169,-0.0031390726,0.00061083166,0.0,0.0,-0.001,0
6215000,-0.007643404,-0.002393139,-0.000114265684,0.0,0.0,-0.001,0
6235000,-0.006065604,-0.0014228005,6.756274e-05,0.0,0.0,-0.001,0
6251000,-0.0062660086,-0.0019355355,-5.2838586e-06,0.0,0.0,-0.001,0
6275000,-0.005657784,-0.0006460356,0.0005069363,0.0,0.0,-0.001,0
6295000,-0.00380733,0.0006235532,-8.428545e-05,0.0,0.0,-0.001,0
6311000,-0.0042635165,0.0013166553,-8.478173e-05,0.0,0.0,-0.001,0
6331000,-0.00399837,0.002555729,8.029363e-05,0.0,0.0,-0.001,0
6355000,-0.003479287,0.0006329673,0.0004942816,0.0,0.0,-0.001,0
6375000,-0.0034121773,-0.0010447579,0.0001654547,0.0,0.0,-0.001,0
6395000,-0.00309301,-0.0015697024,0.00014895201,0.0,0.0,-0.001,0
6415000,-0.0024427632,-0.0010971613,4.297495e-05,0.0,0.0,-0.001,0
6435000,-0.0015522907,-0.00047801848,-0.0003926158,0.0,0.0,-0.001,0
6455000,-0.0020236934,-8.05083e-05,-0.00016856194,0.0,0.0,-0.001,0
6475000,-0.0030496102,0.0010659315,-0.00060373545,0.0,0.0,-0.001,0
6495000,-0.001941331,0.0015319923,-0.00015479326,0.0,0.0,-0.001,0
6515000,-0.00088664633,0.0032205733,-0.0004710555,0.0,0.0,-0.001,0
6535000,-0.0019020321,0.004012958,-0.0004956722,0.0,0.0,-0.001,0
6555000,-0.0012213588,0.0041088425,0.00020068884,0.0,0.0,-0.001,0
6571000,-0.00073378463,0.0049493285,-0.00034171343,0.0,0.0,-0.001,0
6595000,-0.00062282255,0.0038838075,-0.00016063452,0.0,0.0,-0.001,0
6615000,0.00022223382,0.002380536,0.00027662516,0.0,0.0,-0.001,0
6631000,0.0012675276,0.0014783724,0.00032502413,0.0,0.0,-0.001,0
6655000,0.0013914905,0.0027564834,-7.2181225e-05,0.0,0.0,-0.001,0
6671000,0.0019314883,0.003756227,-7.259846e-05,0.0,0.0,-0.001,0
6691000,0.0019259929,0.003895055,-8.59499e-05,0.0,0.0,-0.001,0
6715000,0.0018213198,0.006166246,0.000274539,0.0,0.0,-0.001,0
6731000,0.0032868115,0.006286101,-0.0001552105,0.0,0.0,-0.001,0
6755000,0.0029393667,0.0059317853,-0.0006721616,0.0,0.0,-0.001,0
6775000,0.003146261,0.0053333086,-1.2099743e-05,0.0,0.0,-0.001,0
6795000,0.0036449507,0.0050027394,-0.0007689595,0.0,0.0,-0.001,0
6815000,0.003774865,0.005570617,-0.00021237135,0.0,0.0,-0.001,0
6835000,0.0031970511,0.005431837,0.00021988153,0.0,0.0,-0.001,0
6851000,0.00288863,0.005664319,0.00059580803,0.0,0.0,-0.001,0
6875000,0.0034227183,0.005672314,0.0005298853,0.0,0.0,-0.001,0
6895000,0.0036844467,0.00421694,0.00026077032,0.0,0.0,-0.001,0
6915000,0.0017804934,0.003594696,0.00018399954,0.0,0.0,-0.001,0
6935000,0.0017027182,0.005915082,0.00018191338,0.0,0.0,-0.001,0
6955000,0.0028279203,0.006749782,-0.0008248687,0.0,0.0,-0.001,0
6975000,0.003650985,0.006377492,0.00010681152,0.0,0.0,-0.001,0
6995000,0.00360829,0.00713415,0.00047022104,0.0,0.0,-0.001,0
7015000,0.0029852092,0.0064332928,-3.9219856e-05,0.0,0.0,-0.001,0
7031000,0.003576585,0.0068903207,9.596348e-06,0.0,0.0,-0.001,0
7055000,0.0035903733,0.00856154,-6.592274e-05,0.0,0.0,-0.001,0
7075000,0.0025316249,0.009078584,-0.00016105175,0.0,0.0,-0.001,0
7091000,0.002765371,0.009651579,-0.00029248,0.0,0.0,-0.001,0
7115000,0.00467142,0.009068123,0.0003529787,0.0,0.0,-0.001,0
7135000,0.00518007,0.009299926,0.00013977289,0.0,0.0,-0.001,0
7155000,0.005851078,0.009828176,-0.00029999018,0.0,0.0,-0.001,0
7175000,0.0057551367,0.011850603,-0.00022363663,0.0,0.0,-0.001,0
7195000,0.0058554467,0.011237962,7.510185e-05,0.0,0.0,-0.001,0
7215000,0.0071207816,0.01156651,-9.846687e-05,0.0,0.0,-0.001,0
7235000,0.007993087,0.012070626,-0.0006058216,0.0,0.0,-0.001,0
7255000,0.0077263764,0.013608755,-0.00016397238,0.0,0.0,-0.001,0
7275000,0.007895866,0.012526633,0.00016522408,0.0,0.0,-0.001,0
7295000,0.007758635,0.011733583,4.7564507e-05,0.0,0.0,-0.001,0
7315000,0.0082825115,0.0137797035,-1.2099743e-05,0.0,0.0,-0.001,0
7335000,0.011041216,0.014898251,-0.00018692017,0.0,0.0,-0.001,0
7351000,0.010285019,0.015580314,-6.967783e-05,0.0,0.0,-0.001,0
7375000,0.010888149,0.015714983,0.00027787685,0.0,0.0,-0.001,0
7391000,0.01236669,0.014924432,0.00010472536,0.0,0.0,-0.001,0
7411000,0.011309928,0.01423238,0.00021904707,0.0,0.0,-0.001,0
7435000,0.012032652,0.014775811,-0.00024825335,0.0,0.0,-0.001,0
7455000,0.013323845,0.016506555,-0.00015687943,0.0,0.0,-0.001,0
7475000,0.014172971,0.016646633,-0.00058203936,0.0,0.0,-0.001,0
7491000,0.014526491,0.017508173,-0.00015437603,0.0,0.0,-0.001,0
7515000,0.015084498,0.017264768,-0.00016188622,0.0,0.0,-0.001,0
7535000,0.014758175,0.017169688,-0.00019359589,0.0,0.0,-0.001,0
7551000,0.0150149735,0.017705511,-8.7201595e-05,0.0,0.0,-0.001,0
7575000,0.01534987,0.016080242,-0.00014561415,0.0,0.0,-0.001,0
7595000,0.0147382775,0.016741462,-0.0007380843,0.0,0.0,-0.001,0
7615000,0.01570628,0.0161942,5.298853e-05,0.0,0.0,-0.001,0
7635000,0.017337075,0.0156965,0.00019025803,0.0,0.0,-0.001,0
7655000,0.018269356,0.015311999,0.0005052686,0.0,0.0,-0.001,0
7675000,0.019071404,0.015860368,-0.0005198717,0.0,0.0,-0.001,0
7691000,0.018971013,0.015567407,-0.0001335144,0.0,0.0,-0.001,0
7715000,0.019486409,0.017167898,0.00016731024,0.0,0.0,-0.001,0
7731000,0.02078797,0.017095469,0.00020110607,0.0,0.0,-0.001,0
7755000,0.021136044,0.017384628,-0.00017899275,0.0,0.0,-0.001,0
7775000,0.020604927,0.017449921,0.00015896559,0.0,0.0,-0.001,0
7795000,0.020970393,0.019218372,-0.00024074316,0.0,0.0,-0.001,0
7815000,0.02271906,0.02018304,-0.00027287006,0.0,0.0,-0.001,0
7835000,0.020216838,0.023461403,-0.00012266636,0.0,0.0,-0.001,0
7855000,0.021193761,0.022512048,5.5909157e-05,0.0,0.0,-0.001,0
7875000,0.022906454,0.022065353,-0.0005645156,0.0,0.0,-0.001,0
7895000,0.02198439,0.023024622,-6.300211e-05,0.0,0.0,-0.001,0
7915000,0.021760829,0.024496494,-0.0001885891,0.0,0.0,-0.001,0
7935000,0.021192888,0.025092263,3.0040741e-05,0.0,0.0,-0.001,0
7955000,0.021514427,0.027266692,0.00025951862,0.0,0.0,-0.001,0
7971000,0.022274207,0.027713042,0.0005440712,0.0,0.0,-0.001,0
7995000,0.023113398,0.02742518,-0.00012433529,0.0,0.0,-0.001,0
8011000,0.021409368,0.028174674,0.00011014938,0.0,0.0,-0.001,0
8031000,0.020165825,0.029805044,0.00012266636,0.0,0.0,-0.001,0
8055000,0.021609105,0.03088023,-0.00014519691,0.0,0.0,-0.001,0
8075000,0.021718893,0.030425653,-5.0902367e-05,0.0,0.0,-0.001,0
8091000,0.02252078,0.030820392,0.00032502413,0.0,0.0,-0.001,0
8115000,0.02383442,0.034114767,0.00047272444,0.0,0.0,-0.001,0
8135000,0.02447233,0.03413,0.00017690659,0.0,0.0,-0.001,0
8155000,0.024743395,0.034254447,-0.00055116415,0.0,0.0,-0.001,0
8175000,0.025626149,0.03426955,-0.00011974573,0.0,0.0,-0.001,0
8195000,0.02582884,0.0348744,0.00043225288,0.0,0.0,-0.001,0
8215000,0.025474574,0.03646317,-0.00011098385,0.0,0.0,-0.001,0
8235000,0.025167927,0.036121435,0.00030374527,0.0,0.0,-0.001,0
8251000,0.024648674,0.035310727,-0.00044935942,0.0,0.0,-0.001,0
8275000,0.025623707,0.03704367,-0.00030332804,0.0,0.0,-0.001,0
8295000,0.02661344,0.036923025,0.00035756826,0.0,0.0,-0.001,0
8315000,0.027705414,0.03744717,0.00014895201,0.0,0.0,-0.001,0
8331000,0.02719613,0.038626894,0.00031000376,0.0,0.0,-0.001,0
8355000,0.028799538,0.039019257,-0.00052028894,0.0,0.0,-0.001,0
8375000,0.028050154,0.03809081,-6.592274e-05,0.0,0.0,-0.001,0
8395000,0.029102596,0.039036203,-1.7940998e-05,0.0,0.0,-0.001,0
8415000,0.029759934,0.0382164,0.00013935566,0.0,0.0,-0.001,0
8435000,0.02938206,0.0387682,0.0005482435,0.0,0.0,-0.001,0
8451000,0.029916234,0.038967963,9.596348e-05,0.0,0.0,-0.001,0
8475000,0.03028111,0.03945881,-8.845329e-05,0.0,0.0,-0.001,0
8495000,0.030656181,0.039068926,-4.464388e-05,0.0,0.0,-0.001,0
8515000,0.030532053,0.04122885,-0.0007998347,0.0,0.0,-0.001,0
8535000,0.030470503,0.04121941,-2.1278858e-05,0.0,0.0,-0.001,0
8555000,0.030631648,0.04103878,0.0006200075,0.0,0.0,-0.001,0
8571000,0.030685503,0.041578576,0.00032001734,0.0,0.0,-0.001,0
8591000,0.030887522,0.04149658,-6.0915947e-05,0.0,0.0,-0.001,0
8611000,0.030494343,0.04294074,-0.00045603514,0.0,0.0,-0.001,0
8635000,0.031093642,0.04360812,-8.59499e-05,0.0,0.0,-0.001,0
8655000,0.031366117,0.04487013,-0.00013560057,0.0,0.0,-0.001,0
8675000,0.032339208,0.044919092,0.0003271103,0.0,0.0,-0.001,0
8691000,0.033501484,0.045337774,0.0003387928,0.0,0.0,-0.001,0
8715000,0.03295818,0.044682458,3.629923e-05,0.0,0.0,-0.001,0
8735000,0.03315681,0.04406578,0.00021070242,0.0,0.0,-0.001,0
8755000,0.03265399,0.04412254,-0.00019443035,0.0,0.0,-0.001,0
8775000,0.03283069,0.043209452,6.425381e-05,0.0,0.0,-0.001,0
8795000,0.032807216,0.042647414,-0.00014770031,0.0,0.0,-0.001,0
8811000,0.031592872,0.04147233,0.00078064203,0.0,0.0,-0.001,0
8835000,0.030276021,0.042049833,0.00031876564,0.0,0.0,-0.001,0
8855000,0.03180626,0.04239133,-0.00016981363,0.0,0.0,-0.001,0
8875000,0.033020508,0.042490285,-0.00021988153,0.0,0.0,-0.001,0
8891000,0.03362087,0.04391333,-4.8816204e-05,0.0,0.0,-0.001,0
8915000,0.0332957,0.044003855,1.7106533e-05,0.0,0.0,-0.001,0
8935000,0.03204402,0.04447566,-0.00034046173,0.0,0.0,-0.001,0
8955000,0.032047976,0.045374,0.00045019388,0.0,0.0,-0.001,0
8971000,0.031508308,0.044612277,0.00014311075,0.0,0.0,-0.001,0
8991000,0.032027476,0.043438688,0.0001001358,0.0,0.0,-0.001,0
9015000,0.033233617,0.04463586,-0.00013893843,0.0,0.0,-0.001,0
9035000,0.033808507,0.04449079,0.0005353093,0.0,0.0,-0.001,0
9055000,0.033892814,0.04395982,0.00016981363,0.0,0.0,-0.001,0
9075000,0.033426084,0.04364739,-0.00070637465,0.0,0.0,-0.001,0
9095000,0.03354929,0.043241862,0.0001718998,0.0,0.0,-0.001,0
9115000,0.03211421,0.04491807,-0.0005891323,0.0,0.0,-0.001,0
9135000,0.031208534,0.044601016,-0.000120162964,0.0,0.0,-0.001,0
9155000,0.03341767,0.04501972,-9.095669e-05,0.0,0.0,-0.001,0
9175000,0.03316248,0.04355876,0.00036799908,0.0,0.0,-0.001,0
9195000,0.033738047,0.044891495,-0.00028038025,0.0,0.0,-0.001,0
9215000,0.03191933,0.04550444,0.0003375411,0.0,0.0,-0.001,0
9235000,0.032745164,0.046620004,-0.00015228987,0.0,0.0,-0.001,0
9255000,0.03278581,0.046834394,0.00013101101,0.0,0.0,-0.001,0
9275000,0.031284314,0.0454984,-0.00011599064,0.0,0.0,-0.001,0
9291000,0.030844072,0.045531273,0.00013768673,0.0,0.0,-0.001,0
9315000,0.031153845,0.04460391,-0.00029414892,0.0,0.0,-0.001,0
9331000,0.031450704,0.04594533,0.00023072958,0.0,0.0,-0.001,0
9351000,0.031120632,0.04671993,5.0902367e-05,0.0,0.0,-0.001,0
9375000,0.031102626,0.04753744,0.000108897686,0.0,0.0,-0.001,0
9395000,0.030159617,0.048609577,-0.00057536364,0.0,0.0,-0.001,0
9415000,0.029228963,0.048208512,0.0002937317,0.0,0.0,-0.001,0
9431000,0.02993102,0.04831382,0.00013017654,0.0,0.0,-0.001,0
9451000,0.029696938,0.047417734,0.00018191338,0.0,0.0,-0.001,0
9475000,0.028937437,0.046081427,-1.6272068e-05,0.0,0.0,-0.001,0
9495000,0.028171802,0.04738494,0.0002015233,0.0,0.0,-0.001,0
9511000,0.027153105,0.047921404,-0.00012475252,0.0,0.0,-0.001,0
9531000,0.027097099,0.044774596,-0.00047647953,0.0,0.0,-0.001,0
9551000,0.025091901,0.043977194,-0.00016981363,0.0,0.0,-0.001,0
9575000,0.02551093,0.042970106,6.7174435e-05,0.0,0.0,-0.001,0
9595000,0.025795327,0.043470107,0.00067967176,0.0,0.0,-0.001,0
9615000,0.025375511,0.042920943,0.00038969517,0.0,0.0,-0.001,0
9635000,0.027422698,0.04247157,8.3863735e-05,0.0,0.0,-0.001,0
9655000,0.02769629,0.042032983,-7.510185e-05,0.0,0.0,-0.001,0
9675000,0.027418543,0.043005966,-0.00047314167,0.0,0.0,-0.001,0
9691000,0.02693645,0.043344554,-8.302927e-05,0.0,0.0,-0.001,0
9715000,0.025237143,0.043109387,0.00019651651,0.0,0.0,-0.001,0
9731000,0.024626028,0.042601317,0.000116825104,0.0,0.0,-0.001,0
9751000,0.024064071,0.04278054,-6.92606e-05,0.0,0.0,-0.001,0
9775000,0.023823507,0.04219584,0.0001013875,0.0,0.0,-0.001,0
9795000,0.022512838,0.041657798,-0.00046479702,0.0,0.0,-0.001,0
9815000,0.021600913,0.041335076,9.7215176e-05,0.0,0.0,-0.001,0
9835000,0.021768995,0.041675445,-0.0010464191,0.0,0.0,-0.001,0
9851000,0.021709315,0.041377887,8.34465e-05,0.0,0.0,-0.001,0
9875000,0.023033667,0.039922345,0.00028038025,0.0,0.0,-0.001,0
9895000,0.022613779,0.04076824,-6.842613e-05,0.0,0.0,-0.001,0
9915000,0.022331353,0.040924437,-0.00020068884,0.0,0.0,-0.001,0
9935000,0.02231199,0.041635405,0.00023531914,0.0,0.0,-0.001,0
9955000,0.02232745,0.041175902,0.00018817186,0.0,0.0,-0.001,0
9975000,0.022691088,0.04058087,-0.00029414892,0.0,0.0,-0.001,0
9995000,0.023602521,0.039872132,-0.0005761981,0.0,0.0,-0.001,0
10011000,0.023544565,0.039841857,-0.0004364252,0.0,0.0,-0.001,0
10035000,0.023395436,0.04051818,-6.842613e-05,0.0,0.0,-0.001,0
10055000,0.022326352,0.039819576,-1.7106533e-05,0.0,0.0,-0.001,0
10075000,0.023080513,0.040412083,0.0005862117,0.0,0.0,-0.001,0
10095000,0.02339632,0.039564762,0.00020360947,0.0,0.0,-0.001,0
10111000,0.023354657,0.0396325,0.00023323298,0.0,0.0,-0.001,0
10135000,0.023819659,0.039577782,0.00036257505,0.0,0.0,-0.001,0
10155000,0.02212783,0.039451443,-0.00028830767,0.0,0.0,-0.001,0
10171000,0.021754194,0.038453892,-0.00012475252,0.0,0.0,-0.001,0
10195000,0.021547677,0.03792043,0.00014519691,0.0,0.0,-0.001,0
10215000,0.021369897,0.03785144,0.00019317865,0.0,0.0,-0.001,0
10235000,0.021358866,0.036954127,-0.00015980005,0.0,0.0,-0.001,0
10255000,0.020962168,0.037337214,-0.00018024445,0.0,0.0,-0.001,0
10275000,0.020428754,0.037174694,-3.4213066e-05,0.0,0.0,-0.001,0
10295000,0.019958945,0.037127547,0.00013184547,0.0,0.0,-0.001,0
10315000,0.019696787,0.03781746,0.00047439337,0.0,0.0,-0.001,0
10335000,0.019998409,0.037599742,0.0002040267,0.0,0.0,-0.001,0
10355000,0.019566737,0.037756216,9.679794e-05,0.0,0.0,-0.001,0
10375000,0.018029526,0.037782647,0.00013685226,0.0,0.0,-0.001,0
10395000,0.016773798,0.038203374,-5.799532e-05,0.0,0.0,-0.001,0
10415000,0.015451948,0.038714208,7.343292e-05,0.0,0.0,-0.001,0
10435000,0.014569292,0.03876616,-0.00016188622,0.0,0.0,-0.001,0
10455000,0.0145123815,0.0376692,1.0848045e-05,0.0,0.0,-0.001,0
10471000,0.014987098,0.03600756,9.763241e-05,0.0,0.0,-0.001,0
10495000,0.013937156,0.035825565,-0.00011307001,0.0,0.0,-0.001,0
10515000,0.013599925,0.035995875,-0.00014394522,0.0,0.0,-0.001,0
10531000,0.013401609,0.036080997,-5.8829784e-05,0.0,0.0,-0.001,0
10551000,0.012555019,0.03496688,-0.0001385212,0.0,0.0,-0.001,0
10575000,0.014464124,0.033473812,-8.0525875e-05,0.0,0.0,-0.001,0
10595000,0.015335144,0.03401099,0.0003450513,0.0,0.0,-0.001,0
10615000,0.015887067,0.033905562,-7.468462e-05,0.0,0.0,-0.001,0
10635000,0.017018078,0.03354716,-0.00013184547,0.0,0.0,-0.001,0
10655000,0.01817941,0.032573983,0.00032544136,0.0,0.0,-0.001,0
10675000,0.018894129,0.034635685,-0.00016021729,0.0,0.0,-0.001,0
10695000,0.016669918,0.03638674,-1.66893e-06,0.0,0.0,-0.001,0
10715000,0.014798596,0.03619281,5.298853e-05,0.0,0.0,-0.001,0
10735000,0.013440156,0.036618166,-7.176399e-05,0.0,0.0,-0.001,0
10755000,0.012560367,0.036552306,-0.00037676096,0.0,0.0,-0.001,0
10775000,0.012781832,0.035756815,6.133318e-05,0.0,0.0,-0.001,0
10791000,0.011878222,0.03649905,0.00026077032,0.0,0.0,-0.001,0
10811000,0.011191057,0.034926634,-0.00033795834,0.0,0.0,-0.001,0
10831000,0.010846429,0.03331366,-0.0001706481,0.0,0.0,-0.001,0
10851000,0.009916719,0.031975072,0.0004531145,0.0,0.0,-0.001,0
10875000,0.00877248,0.031618677,0.00034588575,0.0,0.0,-0.001,0
10895000,0.0097216675,0.031118423,-0.00016647577,0.0,0.0,-0.001,0
10915000,0.0101771755,0.031892225,-0.00033420324,0.0,0.0,-0.001,0
10931000,0.009204695,0.032069795,1.9609928e-05,0.0,0.0,-0.001,0
10955000,0.010743721,0.032736868,-0.00045269728,0.0,0.0,-0.001,0
10975000,0.0088913925,0.031075286,-0.00047272444,0.0,0.0,-0.001,0
10995000,0.0075510712,0.032316744,-0.000274539,0.0,0.0,-0.001,0
11015000,0.006031122,0.031582475,-8.970499e-05,0.0,0.0,-0.001,0
11035000,0.0063130707,0.03146504,-0.00019860268,0.0,0.0,-0.001,0
11055000,0.0050617503,0.033405364,0.00013643503,0.0,0.0,-0.001,0
11075000,0.005842616,0.032680914,4.297495e-05,0.0,0.0,-0.001,0
11095000,0.006511298,0.032940567,-0.0003617406,0.0,0.0,-0.001,0
11111000,0.007430735,0.03275221,0.00019609928,0.0,0.0,-0.001,0
11135000,0.0067905094,0.032808077,-7.343292e-05,0.0,0.0,-0.001,0
11155000,0.006683115,0.03260461,0.00022405386,0.0,0.0,-0.001,0
11175000,0.0068205986,0.032753028,9.179115e-06,0.0,0.0,-0.001,0
11195000,0.006102532,0.03323344,-0.00017607212,0.0,0.0,-0.001,0
11211000,0.005563422,0.032467306,-0.00047188997,0.0,0.0,-0.001,0
11235000,0.0033339215,0.031228166,-0.00039720535,0.0,0.0,-0.001,0
11255000,0.0029645264,0.029478315,0.00012767315,0.0,0.0,-0.001,0
11275000,0.00427775,0.028125914,8.428097e-05,0.0,0.0,-0.001,0
11295000,0.0049389536,0.027959535,0.00022822618,0.0,0.0,-0.001,0
11315000,0.0032316959,0.027642895,-0.00017106533,0.0,0.0,-0.001,0
11331000,0.0034994977,0.028138936,3.129244e-05,0.0,0.0,-0.001,0
11355000,0.0033813678,0.02957581,0.0003721714,0.0,0.0,-0.001,0
11375000,0.0017128773,0.029994959,0.00024032593,0.0,0.0,-0.001,0
11395000,0.002001659,0.030445736,0.0005966425,0.0,0.0,-0.001,0
11415000,0.0037112283,0.03191942,0.00016146898,0.0,0.0,-0.001,0
11435000,0.0036539277,0.032947216,0.00069218874,0.0,0.0,-0.001,0
11455000,0.0021701278,0.033229277,0.00028830767,0.0,0.0,-0.001,0
11471000,0.0026071519,0.03324137,-0.0005198717,0.0,0.0,-0.001,0
11495000,0.0015479699,0.03418427,-0.00025868416,0.0,0.0,-0.001,0
11515000,0.00024678558,0.03280425,5.2154064e-05,0.0,0.0,-0.001,0
11531000,-0.0006499812,0.032835323,-0.0005232096,0.0,0.0,-0.001,0
11551000,-0.00071053207,0.03125295,-0.00014311075,0.0,0.0,-0.001,0
11575000,-0.000575928,0.03261004,7.092953e-05,0.0,0.0,-0.001,0
11595000,8.210726e-05,0.033223316,-0.00026327372,0.0,0.0,-0.001,0
11615000,-0.0012584683,0.033626888,-3.629923e-05,0.0,0.0,-0.001,0
11635000,-0.0010402575,0.034322605,-8.0525875e-05,0.0,0.0,-0.001,0
11655000,-0.00043127686,0.03430458,-0.000116825104,0.0,0.0,-0.001,0
11675000,-0.001193881,0.034045547,4.005432e-05,0.0,0.0,-0.001,0
11695000,-0.001683332,0.03378114,0.00017815828,0.0,0.0,-0.001,0
11715000,-0.0026828079,0.033006977,-9.512901e-05,0.0,0.0,-0.001,0
11735000,-0.003142369,0.03302794,-2.7954578e-05,0.0,0.0,-0.001,0
11755000,-0.0024042483,0.033688605,-0.00041681528,0.0,0.0,-0.001,0
11771000,-0.0016735122,0.0333602,0.00039845705,0.0,0.0,-0.001,0
11795000,-0.00029550865,0.033867776,-0.00034463406,0.0,0.0,-0.001,0
11815000,-0.00021376833,0.03387197,0.00017398596,0.0,0.0,-0.001,0
11831000,4.437752e-05,0.034140777,0.00027787685,0.0,0.0,-0.001,0
11855000,-0.00046962686,0.03470236,-0.0002219677,0.0,0.0,-0.001,0
11875000,-0.0016613007,0.034920968,-4.464388e-05,0.0,0.0,-0.001,0
11895000,-0.0014150776,0.03402026,0.00019735098,0.0,0.0,-0.001,0
11915000,-0.0011856072,0.033321947,3.129244e-05,0.0,0.0,-0.001,0
11935000,-0.0013418021,0.032121245,6.592274e-05,0.0,0.0,-0.001,0
11955000,-0.0027525136,0.031609952,5.465746e-05,0.0,0.0,-0.001,0
11975000,-0.0049417615,0.031018727,8.177757e-05,0.0,0.0,-0.001,0
11995000,-0.005598195,0.031519517,-0.00025868416,0.0,0.0,-0.001,0
12015000,-0.005438079,0.02759377,8.010864e-05,0.0,0.0,-0.001,0
12035000,-0.005621394,0.027066834,-0.000115573406,0.0,0.0,-0.001,0
12055000,-0.0066246036,0.028845683,-0.00025951862,0.0,0.0,-0.001,0
12071000,-0.007173647,0.028826011,6.133318e-05,0.0,0.0,-0.001,0
12095000,-0.007042582,0.028583676,5.7160854e-05,0.0,0.0,-0.001,0
12111000,-0.007889778,0.029025406,6.967783e-05,0.0,0.0,-0.001,0
12131000,-0.008006231,0.027559344,2.4616718e-05,0.0,0.0,-0.001,0
12155000,-0.007763991,0.026767926,3.33786e-06,0.0,0.0,-0.001,0
12171000,-0.0075371545,0.026600223,0.00019109249,0.0,0.0,-0.001,0
12195000,-0.0070043886,0.02541722,-0.000567019,0.0,0.0,-0.001,0
12215000,-0.007119799,0.026082236,0.00013810396,0.0,0.0,-0.001,0
12235000,-0.0077673383,0.026527155,-0.00046229362,0.0,0.0,-0.001,0
12255000,-0.007007248,0.027177222,-0.00016856194,0.0,0.0,-0.001,0
12275000,-0.008370367,0.026457625,9.137392e-05,0.0,0.0,-0.001,0
12295000,-0.007931865,0.02605467,1.2516975e-06,0.0,0.0,-0.001,0
12315000,-0.006341313,0.025246693,0.00013184547,0.0,0.0,-0.001,0
12335000,-0.0068144454,0.023837809,-5.6743622e-05,0.0,0.0,-0.001,0
12355000,-0.00695836,0.023663275,2.2113323e-05,0.0,0.0,-0.001,0
12375000,-0.0068715825,0.022511594,-0.00021404028,0.0,0.0,-0.001,0
12395000,-0.006877873,0.02091644,-0.00025743246,0.0,0.0,-0.001,0
12411000,-0.006276502,0.020957865,0.00019443035,0.0,0.0,-0.001,0
12435000,-0.0072976565,0.01980811,-0.0008106828,0.0,0.0,-0.001,0
12455000,-0.006855538,0.019855807,-1.835823e-05,0.0,0.0,-0.001,0
12471000,-0.0073995665,0.020303357,-8.34465e-07,0.0,0.0,-0.001,0
12495000,-0.0070735635,0.019986615,-3.504753e-05,0.0,0.0,-0.001,0
12515000,-0.006745054,0.019668896,0.00017690659,0.0,0.0,-0.001,0
12531000,-0.0075179096,0.019837495,-7.927418e-05,0.0,0.0,-0.001,0
12555000,-0.0068675675,0.018888641,-0.00021862984,0.0,0.0,-0.001,0
12575000,-0.007485896,0.019604778,-3.2126904e-05,0.0,0.0,-0.001,0
12591000,-0.008133092,0.019869749,-8.2194805e-05,0.0,0.0,-0.001,0
12611000,-0.008176405,0.020505931,-2.2113323e-05,0.0,0.0,-0.001,0
12635000,-0.008441323,0.020046739,-0.0001347661,0.0,0.0,-0.001,0
12655000,-0.009468552,0.019499874,-9.596348e-05,0.0,0.0,-0.001,0
12675000,-0.009508694,0.018905412,-0.0002682805,0.0,0.0,-0.001,0
12691000,-0.009070368,0.018747676,-4.506111e-05,0.0,0.0,-0.001,0
12711000,-0.009200053,0.018258378,-2.0861626e-06,0.0,0.0,-0.001,0
12735000,-0.007710923,0.017441228,0.00017690659,0.0,0.0,-0.001,0
12755000,-0.007368226,0.01741642,0.00063210726,0.0,0.0,-0.001,0
12775000,-0.0070126313,0.01899042,0.00028830767,0.0,0.0,-0.001,0
12795000,-0.007373707,0.018385112,0.0007067919,0.0,0.0,-0.001,0
12811000,-0.008584464,0.017933574,-0.0001731515,0.0,0.0,-0.001,0
12835000,-0.010291493,0.017601924,0.0002645254,0.0,0.0,-0.001,0
12855000,-0.011456135,0.01651852,7.0512295e-05,0.0,0.0,-0.001,0
12871000,-0.010442753,0.015993886,-0.00041264296,0.0,0.0,-0.001,0
12895000,-0.008917663,0.015386195,3.7550926e-06,0.0,0.0,-0.001,0
12915000,-0.008030558,0.015479084,-0.0005570054,0.0,0.0,-0.001,0
12935000,-0.008642171,0.015663771,-6.467104e-05,0.0,0.0,-0.001,0
12955000,-0.008448468,0.015272912,-0.00012975931,0.0,0.0,-0.001,0
12975000,-0.008724226,0.01540488,0.00013393164,0.0,0.0,-0.001,0
12995000,-0.00880976,0.013538803,0.00018149614,0.0,0.0,-0.001,0
13015000,-0.010562298,0.0134097105,-6.425381e-05,0.0,0.0,-0.001,0
13035000,-0.009265032,0.013994028,0.00051027536,0.0,0.0,-0.001,0
13051000,-0.009585935,0.013332516,-0.0001180768,0.0,0.0,-0.001,0
13071000,-0.010094603,0.012462996,0.00019484758,0.0,0.0,-0.001,0
13095000,-0.010824033,0.012907498,0.00019192696,0.0,0.0,-0.001,0
13115000,-0.010624011,0.01266313,0.00029414892,0.0,0.0,-0.001,0
13131000,-0.010204352,0.012870863,0.00019818544,0.0,0.0,-0.001,0
13155000,-0.011308359,0.012789388,-0.00038051605,0.0,0.0,-0.001,0
13171000,-0.011515417,0.0126417205,-0.0004005432,0.0,0.0,-0.001,0
13195000,-0.012276918,0.013283096,-0.00023239851,0.0,0.0,-0.001,0
13215000,-0.0121120475,0.0144585185,-2.8789043e-05,0.0,0.0,-0.001,0
13235000,-0.011757287,0.015041349,0.00015562773,0.0,0.0,-0.001,0
13255000,-0.01145495,0.014451848,0.00016522408,0.0,0.0,-0.001,0
13275000,-0.011546275,0.013407823,-0.0003926158,0.0,0.0,-0.001,0
13291000,-0.01164576,0.013193062,0.00049608946,0.0,0.0,-0.001,0
13315000,-0.012552204,0.012220211,0.00037509203,0.0,0.0,-0.001,0
13331000,-0.013059967,0.011996839,0.00037384033,0.0,0.0,-0.001,0
13355000,-0.01385594,0.011080159,0.0002219677,0.0,0.0,-0.001,0
13371000,-0.012808064,0.010922307,0.00047397614,0.0,0.0,-0.001,0
13395000,-0.01171911,0.009409858,0.00017815828,0.0,0.0,-0.001,0
13411000,-0.012311776,0.010049024,0.0006079078,0.0,0.0,-0.001,0
13435000,-0.0128686,0.010837966,-0.0005065203,0.0,0.0,-0.001,0
13455000,-0.013528395,0.009862022,-7.635355e-05,0.0,0.0,-0.001,0
13475000,-0.013034074,0.00947409,0.0002949834,0.0,0.0,-0.001,0
13495000,-0.013450123,0.009537516,-0.00012141466,0.0,0.0,-0.001,0
13511000,-0.013922342,0.008814881,-8.34465e-06,0.0,0.0,-0.001,0
13535000,-0.014052317,0.008201092,9.346008e-05,0.0,0.0,-0.001,0
13555000,-0.013531791,0.008424498,2.7954578e-05,0.0,0.0,-0.001,0
13575000,-0.013488317,0.007803766,0.000423491,0.0,0.0,-0.001,0
13595000,-0.013173556,0.0066859834,-0.00015687943,0.0,0.0,-0.001,0
13611000,-0.013441983,0.0071184905,0.00011307001,0.0,0.0,-0.001,0
13631000,-0.014147714,0.006951577,-2.9623508e-05,0.0,0.0,-0.001,0
13655000,-0.014277518,0.0069440715,2.0861626e-06,0.0,0.0,-0.001,0
13671000,-0.01417134,0.006504515,-0.00032544136,0.0,0.0,-0.001,0
13695000,-0.013458114,0.0054534413,-0.00023907423,0.0,0.0,-0.001,0
13715000,-0.0132894255,0.005209861,0.00050610304,0.0,0.0,-0.001,0
13735000,-0.012853576,0.005285709,0.00029456615,0.0,0.0,-0.001,0
13755000,-0.013396086,0.005735325,-0.0006312728,0.0,0.0,-0.001,0
13775000,-0.013139207,0.006844287,-0.0003746748,0.0,0.0,-0.001,0
13795000,-0.013427263,0.0076435115,0.0002770424,0.0,0.0,-0.001,0
13815000,-0.013245692,0.007713604,0.00016063452,0.0,0.0,-0.001,0
13835000,-0.014175871,0.008436638,0.00024324656,0.0,0.0,-0.001,0
13855000,-0.0138753345,0.009430816,2.9623508e-05,0.0,0.0,-0.001,0
13875000,-0.013717306,0.009308908,0.000116825104,0.0,0.0,-0.001,0
13895000,-0.013624533,0.009635372,0.0002232194,0.0,0.0,-0.001,0
13915000,-0.014412122,0.010251394,0.0004005432,0.0,0.0,-0.001,0
13935000,-0.014821371,0.010189245,-0.00025993586,0.0,0.0,-0.001,0
13955000,-0.015433019,0.009879088,0.00016146898,0.0,0.0,-0.001,0
13975000,-0.015317408,0.008812803,0.00010806322,0.0,0.0,-0.001,0
13995000,-0.015081317,0.008262072,0.000662148,0.0,0.0,-0.001,0
14015000,-0.01596891,0.0076377396,-0.0002515912,0.0,0.0,-0.001,0
14035000,-0.015323092,0.008149874,-9.846687e-05,0.0,0.0,-0.001,0
14051000,-0.0143714165,0.007056984,0.0003951192,0.0,0.0,-0.001,0
14075000,-0.013719945,0.0076939417,-0.000184834,0.0,0.0,-0.001,0
14091000,-0.014518905,0.0074342014,-0.00023281574,0.0,0.0,-0.001,0
14111000,-0.01430938,0.008016001,-0.0001539588,0.0,0.0,-0.001,0
14131000,-0.015320454,0.007911187,0.00013643503,0.0,0.0,-0.001,0
14155000,-0.01535679,0.006862981,-0.00058496,0.0,0.0,-0.001,0
14175000,-0.015811706,0.00582507,-0.00021612644,0.0,0.0,-0.001,0
14195000,-0.01594701,0.0049911905,-0.00034171343,0.0,0.0,-0.001,0
14215000,-0.01569749,0.004870708,1.335144e-05,0.0,0.0,-0.001,0
14235000,-0.015979502,0.004533608,0.000315845,0.0,0.0,-0.001,0
14255000,-0.017784009,0.0047323448,-0.00024741888,0.0,0.0,-0.001,0
14275000,-0.01818396,0.004768203,-0.0002837181,0.0,0.0,-0.001,0
14295000,-0.019137695,0.0057188645,9.596348e-05,0.0,0.0,-0.001,0
14315000,-0.019655142,0.0049176426,-0.00013935566,0.0,0.0,-0.001,0
14335000,-0.019257672,0.003462446,-0.00014519691,0.0,0.0,-0.001,0
14351000,-0.018202173,0.0026624901,0.0001681447,0.0,0.0,-0.001,0
14375000,-0.01702559,0.0029557599,-0.00013643503,0.0,0.0,-0.001,0
14395000,-0.016233606,0.0024049557,0.00017607212,0.0,0.0,-0.001,0
14415000,-0.016549118,0.003087934,-1.168251e-05,0.0,0.0,-0.001,0
14435000,-0.017936306,0.0038382886,7.927418e-05,0.0,0.0,-0.001,0
14455000,-0.019810494,0.005167835,-0.0002540946,0.0,0.0,-0.001,0
14475000,-0.020086143,0.0061125592,0.00047439337,0.0,0.0,-0.001,0
14495000,-0.01962282,0.007916117,-0.00017440319,0.0,0.0,-0.001,0
14515000,-0.020218827,0.007983389,-0.00023114681,0.0,0.0,-0.001,0
14535000,-0.020911194,0.0072634914,0.00031208992,0.0,0.0,-0.001,0
14555000,-0.02198025,0.0073698545,-0.0005428195,0.0,0.0,-0.001,0
14571000,-0.023365967,0.007967648,0.00030457973,0.0,0.0,-0.001,0
14595000,-0.024274297,0.007935327,0.00038927794,0.0,0.0,-0.001,0
14615000,-0.025272796,0.007176538,-0.00014978647,0.0,0.0,-0.001,0
14635000,-0.026959091,0.006103399,8.34465e-07,0.0,0.0,-0.001,0
14655000,-0.02731144,0.0068000816,-0.00013309717,0.0,0.0,-0.001,0
14671000,-0.026627833,0.008305712,-5.5491924e-05,0.0,0.0,-0.001,0
14695000,-0.027676217,0.007463594,9.596348e-06,0.0,0.0,-0.001,0
14715000,-0.027903397,0.0076608006,-9.846687e-05,0.0,0.0,-0.001,0
14735000,-0.0288032,0.008408486,0.00012642145,0.0,0.0,-0.001,0
14751000,-0.030083887,0.008478106,-0.00050234795,0.0,0.0,-0.001,0
14775000,-0.029901192,0.009570617,7.8856945e-05,0.0,0.0,-0.001,0
14791000,-0.03048554,0.008333118,1.1265278e-05,0.0,0.0,-0.001,0
14815000,-0.03185793,0.008604761,-0.00021904707,0.0,0.0,-0.001,0
14831000,-0.03265907,0.0068405718,2.2530556e-05,0.0,0.0,-0.001,0
14851000,-0.032116182,0.0067976154,0.00024950504,0.0,0.0,-0.001,0
14875000,-0.032995872,0.00673199,0.0005169511,0.0,0.0,-0.001,0
14895000,-0.031561952,0.007077015,-0.00014853477,0.0,0.0,-0.001,0
14911000,-0.031535465,0.006913794,6.0498714e-05,0.0,0.0,-0.001,0
14935000,-0.032477796,0.008011452,-7.343292e-05,0.0,0.0,-0.001,0
14951000,-0.03247081,0.0075041503,-2.8371811e-05,0.0,0.0,-0.001,0
14971000,-0.03110212,0.009030289,3.46303e-05,0.0,0.0,-0.001,0
14995000,-0.030456603,0.009609714,0.0003258586,0.0,0.0,-0.001,0
15015000,-0.02999669,0.009948145,-5.13196e-05,0.0,0.0,-0.001,0
15035000,-0.030465782,0.01047649,0.00027287006,0.0,0.0,-0.001,0
15055000,-0.03127271,0.0100113945,0.0003888607,0.0,0.0,-0.001,0
15075000,-0.031178286,0.010405373,-4.839897e-05,0.0,0.0,-0.001,0
15095000,-0.030749246,0.010559763,8.761883e-05,0.0,0.0,-0.001,0
15115000,-0.029735744,0.010432376,0.00023365021,0.0,0.0,-0.001,0
15135000,-0.028388157,0.010747685,-0.000113904476,0.0,0.0,-0.001,0
15155000,-0.027839564,0.010735615,5.6743622e-05,0.0,0.0,-0.001,0
15171000,-0.027414497,0.010439781,0.0005144477,0.0,0.0,-0.001,0
15195000,-0.027409598,0.010707008,4.0888786e-05,0.0,0.0,-0.001,0
15215000,-0.027433157,0.009605799,-2.2113323e-05,0.0,0.0,-0.001,0
15235000,-0.027041107,0.010422585,-0.00053197145,0.0,0.0,-0.001,0
15255000,-0.025620267,0.010093319,-0.00015980005,0.0,0.0,-0.001,0
15271000,-0.025568984,0.009270321,0.00034880638,0.0,0.0,-0.001,0
15295000,-0.022749498,0.008736966,0.00012099743,0.0,0.0,-0.001,0
15315000,-0.02396439,0.008896677,4.5895576e-06,0.0,0.0,-0.001,0
15331000,-0.022326391,0.008780701,-0.0004389286,0.0,0.0,-0.001,0
15355000,-0.022521105,0.008997576,0.000703454,0.0,0.0,-0.001,0
15375000,-0.022515997,0.008328054,1.4603138e-05,0.0,0.0,-0.001,0
15391000,-0.022816185,0.008327101,0.00016564131,0.0,0.0,-0.001,0
15411000,-0.02380431,0.0093358345,-3.2544136e-05,0.0,0.0,-0.001,0
15435000,-0.021944996,0.008567456,-0.00017273426,0.0,0.0,-0.001,0
15455000,-0.02200798,0.0074597592,0.00015562773,0.0,0.0,-0.001,0
15471000,-0.021623109,0.007295875,-0.0002515912,0.0,0.0,-0.001,0
15491000,-0.021386437,0.0077889,0.00014978647,0.0,0.0,-0.001,0
15511000,-0.020249834,0.009095906,6.508827e-05,0.0,0.0,-0.001,0
15531000,-0.019994404,0.0072299843,-0.0004990101,0.0,0.0,-0.001,0
15555000,-0.020921271,0.0069732266,-0.0007773042,0.0,0.0,-0.001,0
15575000,-0.02057956,0.0070297485,-0.000113904476,0.0,0.0,-0.001,0
15595000,-0.018886525,0.0072559286,-5.5491924e-05,0.0,0.0,-0.001,0
15611000,-0.019347392,0.007838642,-0.00054365396,0.0,0.0,-0.001,0
15635000,-0.019423427,0.0071415794,0.00042140484,0.0,0.0,-0.001,0
15655000,-0.020555345,0.007117334,-1.50203705e-05,0.0,0.0,-0.001,0
15671000,-0.020570554,0.007870171,4.8816204e-05,0.0,0.0,-0.001,0
15695000,-0.019893419,0.008126375,-2.336502e-05,0.0,0.0,-0.001,0
15715000,-0.019488797,0.008924034,-0.00024491549,0.0,0.0,-0.001,0
15735000,-0.019166782,0.00667597,8.2194805e-05,0.0,0.0,-0.001,0
15755000,-0.018380487,0.0072888597,0.00019276142,0.0,0.0,-0.001,0
15775000,-0.017305177,0.0073336996,-0.0001335144,0.0,0.0,-0.001,0
15795000,-0.015176075,0.0075752437,0.00047522783,0.0,0.0,-0.001,0
15811000,-0.014633361,0.007845899,0.00034421682,0.0,0.0,-0.001,0
15831000,-0.015240842,0.009095474,-7.009506e-05,0.0,0.0,-0.001,0
15851000,-0.013439701,0.0088468045,0.00010639429,0.0,0.0,-0.001,0
15871000,-0.01236607,0.0074900007,-0.0002553463,0.0,0.0,-0.001,0
15895000,-0.01356045,0.008091688,0.00015771389,0.0,0.0,-0.001,0
15915000,-0.013948055,0.009995423,0.00033295155,0.0,0.0,-0.001,0
15935000,-0.013217497,0.011550758,-0.00012683868,0.0,0.0,-0.001,0
15951000,-0.012720971,0.0128982505,5.0902367e-05,0.0,0.0,-0.001,0
15975000,-0.012632554,0.014130865,-7.927418e-06,0.0,0.0,-0.001,0
15995000,-0.012447578,0.013285357,0.00014352798,0.0,0.0,-0.001,0
16015000,-0.012729006,0.014257029,-0.00013059378,0.0,0.0,-0.001,0
16035000,-0.013352776,0.014914522,0.00019901991,0.0,0.0,-0.001,0
16055000,-0.012686264,0.015229017,0.00015938282,0.0,0.0,-0.001,0
16075000,-0.013882523,0.014481694,0.00064086914,0.0,0.0,-0.001,0
16091000,-0.012708669,0.015142256,0.0007789731,0.0,0.0,-0.001,0
16111000,-0.010860503,0.015110231,0.00019985437,0.0,0.0,-0.001,0
16135000,-0.010810554,0.015759366,-6.425381e-05,0.0,0.0,-0.001,0
16155000,-0.0099147,0.016118694,0.00023823977,0.0,0.0,-0.001,0
16175000,-0.008224439,0.01422937,0.00022155046,0.0,0.0,-0.001,0
16195000,-0.0064770635,0.015181419,-0.0002837181,0.0,0.0,-0.001,0
16211000,-0.0066063055,0.015983708,-8.845329e-05,0.0,0.0,-0.001,0
16235000,-0.007156129,0.016370477,-0.00014102459,0.0,0.0,-0.001,0
16255000,-0.0067759915,0.01570762,9.846687e-05,0.0,0.0,-0.001,0
16275000,-0.0074517345,0.0153408265,-3.46303e-05,0.0,0.0,-0.001,0
16295000,-0.0071511087,0.01521729,0.00030583143,0.0,0.0,-0.001,0
16315000,-0.0058825472,0.014343635,1.4603138e-05,0.0,0.0,-0.001,0
16335000,-0.006840926,0.014433393,-5.7160854e-05,0.0,0.0,-0.001,0
16355000,-0.0068018027,0.015838712,0.00023156404,0.0,0.0,-0.001,0
16375000,-0.006950711,0.016013078,-7.009506e-05,0.0,0.0,-0.001,0
16395000,-0.0054332903,0.015400785,-1.5854836e-05,0.0,0.0,-0.001,0
16411000,-0.0049437624,0.014269711,-0.0008507371,0.0,0.0,-0.001,0
16435000,-0.005531269,0.012740174,-0.0004990101,0.0,0.0,-0.001,0
16455000,-0.0056332015,0.011889957,5.0902367e-05,0.0,0.0,-0.001,0
16475000,-0.0025327513,0.011340773,0.0004209876,0.0,0.0,-0.001,0
16495000,-0.0018459065,0.010738678,-0.00012391806,0.0,0.0,-0.001,0
16515000,-0.002514339,0.010850681,-0.00022655725,0.0,0.0,-0.001,0
16535000,-0.0034761606,0.011735785,-0.00012141466,0.0,0.0,-0.001,0
16555000,-0.003176387,0.012295321,-0.000118494034,0.0,0.0,-0.001,0
16575000,-0.0028072046,0.012839733,-1.7106533e-05,0.0,0.0,-0.001,0
16595000,-0.0012786547,0.012236271,0.000118911266,0.0,0.0,-0.001,0
16611000,-0.0004007388,0.011882817,0.00030833483,0.0,0.0,-0.001,0
16635000,-0.0017084517,0.012188026,-0.0007017851,0.0,0.0,-0.001,0
16655000,-0.0019940617,0.013062836,-0.000118911266,0.0,0.0,-0.001,0
16671000,-0.0014905278,0.013413208,4.339218e-05,0.0,0.0,-0.001,0
16691000,-0.00085992506,0.014370374,8.34465e-07,0.0,0.0,-0.001,0
16715000,-0.0017030663,0.015556203,-0.00022363663,0.0,0.0,-0.001,0
16735000,-0.000359979,0.015445849,-0.0003041625,0.0,0.0,-0.001,0
16755000,-0.001566093,0.015371938,0.000103890896,0.0,0.0,-0.001,0
16775000,-0.0010836469,0.015331474,6.467104e-05,0.0,0.0,-0.001,0
16795000,-0.00021386053,0.01619833,-0.00045394897,0.0,0.0,-0.001,0
16811000,-5.4175965e-05,0.016084379,0.00019317865,0.0,0.0,-0.001,0
16831000,-0.00019306224,0.01586797,4.839897e-05,0.0,0.0,-0.001,0
16855000,-0.0010004346,0.016333204,-2.002716e-05,0.0,0.0,-0.001,0
16875000,-0.0007540351,0.016669694,7.510185e-05,0.0,0.0,-0.001,0
16895000,-0.00013637636,0.01648107,-2.8371811e-05,0.0,0.0,-0.001,0
16915000,0.0021483195,0.017019797,-0.00054198503,0.0,0.0,-0.001,0
16935000,0.0024045194,0.01509507,0.00015896559,0.0,0.0,-0.001,0
16955000,0.0018379707,0.014430787,-0.00024157763,0.0,0.0,-0.001,0
16975000,0.001722802,0.015631968,4.4226646e-05,0.0,0.0,-0.001,0
16995000,0.0013385927,0.016397905,0.00030499697,0.0,0.0,-0.001,0
17015000,0.002082284,0.016225215,0.00016480684,0.0,0.0,-0.001,0
17031000,0.0027437625,0.016237661,0.00037300587,0.0,0.0,-0.001,0
17055000,0.0024610497,0.016408294,-5.13196e-05,0.0,0.0,-0.001,0
17075000,0.0005938681,0.016089533,-1.4603138e-05,0.0,0.0,-0.001,0
17091000,-9.977212e-05,0.015592702,-2.9206276e-05,0.0,0.0,-0.001,0
17111000,-0.0013115262,0.015735485,0.00010097027,0.0,0.0,-0.001,0
17135000,-0.0015308335,0.015392936,5.507469e-05,0.0,0.0,-0.001,0
17155000,-0.00079295365,0.015936349,0.0004222393,0.0,0.0,-0.001,0
17175000,0.0020417953,0.01564398,-3.296137e-05,0.0,0.0,-0.001,0
17195000,0.0013425341,0.017719489,-0.0005111098,0.0,0.0,-0.001,0
17215000,0.00023511238,0.019804131,6.258488e-05,0.0,0.0,-0.001,0
17235000,0.00029402692,0.021522332,-0.0002169609,0.0,0.0,-0.001,0
17255000,0.0006827265,0.021714991,0.00010305643,0.0,0.0,-0.001,0
17275000,0.00045321696,0.023191899,0.00023406744,0.0,0.0,-0.001,0
17295000,-0.0007736897,0.02333415,8.302927e-05,0.0,0.0,-0.001,0
17315000,0.0006532036,0.023049172,-0.00059622526,0.0,0.0,-0.001,0
17335000,0.0016145306,0.021369953,-4.673004e-05,0.0,0.0,-0.001,0
17355000,0.0007273834,0.020290488,6.80089e-05,0.0,0.0,-0.001,0
17375000,0.0010215594,0.0207316,0.00022906065,0.0,0.0,-0.001,0
17391000,0.0007948326,0.020804705,-0.0001527071,0.0,0.0,-0.001,0
17415000,0.0020549167,0.021457374,-9.179115e-06,0.0,0.0,-0.001,0
17435000,0.0015804227,0.021840924,0.00043934584,0.0,0.0,-0.001,0
17455000,0.00032008998,0.02096581,0.00018566847,0.0,0.0,-0.001,0
17475000,0.0006515635,0.020097923,0.0009583831,0.0,0.0,-0.001,0
17495000,0.0005336376,0.020259742,-0.00012433529,0.0,0.0,-0.001,0
17511000,0.0008007148,0.01949783,-0.00010973215,0.0,0.0,-0.001,0
17535000,0.0021061879,0.018846419,-0.00029456615,0.0,0.0,-0.001,0
17555000,0.0025753407,0.019984614,-0.0003721714,0.0,0.0,-0.001,0
17575000,0.0039001377,0.01945065,1.7106533e-05,0.0,0.0,-0.001,0
17595000,0.004931032,0.01893214,0.000739336,0.0,0.0,-0.001,0
17615000,0.0041763787,0.018060451,-0.00026077032,0.0,0.0,-0.001,0
17635000,0.004756357,0.016004413,-0.00023323298,0.0,0.0,-0.001,0
17655000,0.0047688643,0.013413059,-8.0525875e-05,0.0,0.0,-0.001,0
17675000,0.003447502,0.013912711,-0.00054365396,0.0,0.0,-0.001,0
17691000,0.003113091,0.013123406,0.00026243925,0.0,0.0,-0.001,0
17715000,0.0042682337,0.012828782,0.0004885793,0.0,0.0,-0.001,0
17735000,0.004922825,0.013460132,0.00026118755,0.0,0.0,-0.001,0
17755000,0.0059574945,0.013441919,-9.8884106e-05,0.0,0.0,-0.001,0
17775000,0.006939579,0.013229356,0.00017607212,0.0,0.0,-0.001,0
17795000,0.0068140686,0.012001132,0.00032627583,0.0,0.0,-0.001,0
17815000,0.00675305,0.01097149,0.0001514554,0.0,0.0,-0.001,0
17835000,0.005909087,0.010483187,-0.0005636811,0.0,0.0,-0.001,0
17855000,0.0063150395,0.009967243,-3.0457973e-05,0.0,0.0,-0.001,0
17875000,0.0061662383,0.011176777,0.00037008524,0.0,0.0,-0.001,0
17895000,0.0059100846,0.010472048,-0.0004272461,0.0,0.0,-0.001,0
17915000,0.0062089274,0.010805057,-7.593632e-05,0.0,0.0,-0.001,0
17935000,0.007345195,0.008533312,8.34465e-06,0.0,0.0,-0.001,0
17951000,0.008199725,0.007907318,-5.9247017e-05,0.0,0.0,-0.001,0
17975000,0.00943383,0.0077655967,2.670288e-05,0.0,0.0,-0.001,0
17995000,0.011032209,0.0074886456,-0.00036257505,0.0,0.0,-0.001,0
18011000,0.012032939,0.0065461025,0.00016897917,0.0,0.0,-0.001,0
18031000,0.0122258,0.0051007634,0.00029206276,0.0,0.0,-0.001,0
18051000,0.012438742,0.0046274997,-0.0002732873,0.0,0.0,-0.001,0
18075000,0.014367155,0.004440372,0.00032377243,0.0,0.0,-0.001,0
18095000,0.013826639,0.00537787,-0.00020235777,0.0,0.0,-0.001,0
18115000,0.013021838,0.0051003066,-5.507469e-05,0.0,0.0,-0.001,0
18135000,0.012681242,0.0036799838,-0.00028538704,0.0,0.0,-0.001,0
18151000,0.013334656,0.0043414356,-0.00023365021,0.0,0.0,-0.001,0
18171000,0.013959866,0.0034614964,0.0002707839,0.0,0.0,-0.001,0
18195000,0.01409842,0.0035510398,-0.00013768673,0.0,0.0,-0.001,0
18211000,0.013672905,0.0039038495,0.00029414892,0.0,0.0,-0.001,0
18235000,0.014574429,0.0038016685,0.00027120113,0.0,0.0,-0.001,0
18251000,0.013427283,0.005297173,-0.00018274784,0.0,0.0,-0.001,0
18275000,0.012689524,0.006616804,-0.00047314167,0.0,0.0,-0.001,0
18295000,0.014325385,0.005119297,0.00022947788,0.0,0.0,-0.001,0
18315000,0.015146946,0.0049722004,0.0002194643,0.0,0.0,-0.001,0
18335000,0.014695429,0.004180463,0.00016605854,0.0,0.0,-0.001,0
18351000,0.0146531,0.005199893,-3.796816e-05,0.0,0.0,-0.001,0
18371000,0.014488164,0.0033148457,-0.0005373955,0.0,0.0,-0.001,0
18395000,0.015076593,0.0012934399,0.00012391806,0.0,0.0,-0.001,0
18415000,0.015585013,0.0033236085,0.0006504655,0.0,0.0,-0.001,0
18431000,0.017365152,0.0041571795,-6.2584877e-06,0.0,0.0,-0.001,0
18455000,0.017051313,0.005491061,0.00017899275,0.0,0.0,-0.001,0
18475000,0.01717475,0.00401409,-0.0001347661,0.0,0.0,-0.001,0
18491000,0.017261345,0.0037276777,-0.0002528429,0.0,0.0,-0.001,0
18511000,0.017245121,0.0049203453,-4.7147274e-05,0.0,0.0,-0.001,0
18531000,0.016759317,0.0039699236,-0.0002991557,0.0,0.0,-0.001,0
18555000,0.018482924,0.0022259178,0.00016313791,0.0,0.0,-0.001,0
18575000,0.018186653,0.0019414388,0.00032752752,0.0,0.0,-0.001,0
18595000,0.01843359,0.00010205433,4.5478344e-05,0.0,0.0,-0.001,0
18615000,0.018853901,-0.00030421466,0.00016522408,0.0,0.0,-0.001,0
18635000,0.018284347,-0.00089529343,0.00013643503,0.0,0.0,-0.001,0
18655000,0.019183554,-0.000768994,3.33786e-05,0.0,0.0,-0.001,0
18675000,0.019043798,-0.00063041504,-9.179115e-06,0.0,0.0,-0.001,0
18695000,0.017431777,-0.000589964,-0.00018650293,0.0,0.0,-0.001,0
18715000,0.016797569,-0.00024188217,3.629923e-05,0.0,0.0,-0.001,0
18735000,0.015641727,0.00043525314,-3.5464764e-05,0.0,0.0,-0.001,0
18755000,0.014351979,-0.00089364033,0.0003375411,0.0,0.0,-0.001,0
18771000,0.014541853,-0.001749787,0.00055867434,0.0,0.0,-0.001,0
18795000,0.013353733,-0.00096546626,0.00021737814,0.0,0.0,-0.001,0
18815000,0.012937205,-0.0015041418,9.512901e-05,0.0,0.0,-0.001,0
18835000,0.014449382,-0.00404148,-0.00014185905,0.0,0.0,-0.001,0
18851000,0.014054264,-0.0042387582,-0.0009946823,0.0,0.0,-0.001,0
18875000,0.0140109155,-0.004124018,-0.00010097027,0.0,0.0,-0.001,0
18891000,0.012780968,-0.0043978263,-0.0002503395,0.0,0.0,-0.001,0
18915000,0.012873378,-0.0061033396,-0.00064754486,0.0,0.0,-0.001,0
18935000,0.01218909,-0.0055545075,3.7550926e-06,0.0,0.0,-0.001,0
18955000,0.012211856,-0.0050058994,0.00019359589,0.0,0.0,-0.001,0
18975000,0.011319776,-0.0040831054,0.00016856194,0.0,0.0,-0.001,0
18991000,0.012140881,-0.0040598693,-4.0471554e-05,0.0,0.0,-0.001,0
19011000,0.012574447,-0.0039701234,-0.00064754486,0.0,0.0,-0.001,0
19035000,0.012498938,-0.0032350551,2.503395e-05,0.0,0.0,-0.001,0
19055000,0.011439392,-0.0025544656,-0.00032001734,0.0,0.0,-0.001,0
19075000,0.012044977,-0.0011927825,0.0007714629,0.0,0.0,-0.001,0
19095000,0.012527624,-0.0013107224,-0.0002553463,0.0,0.0,-0.001,0
19115000,0.014208959,-0.0020214347,-0.00031626225,0.0,0.0,-0.001,0
19135000,0.014218114,-0.0031092921,1.7940998e-05,0.0,0.0,-0.001,0
19155000,0.0136308,-0.0024380558,-0.00028413534,0.0,0.0,-0.001,0
19175000,0.013116954,-0.00330131,-0.00011765957,0.0,0.0,-0.001,0
19195000,0.013332856,-0.003114956,0.00019025803,0.0,0.0,-0.001,0
19211000,0.014271511,-0.002036909,-9.596348e-06,0.0,0.0,-0.001,0
19231000,0.013410975,-0.0014380584,-0.00029540062,0.0,0.0,-0.001,0
19251000,0.014353624,-0.001968369,-0.00050860643,0.0,0.0,-0.001,0
19275000,0.014976796,0.00049711857,-0.00036507845,0.0,0.0,-0.001,0
19295000,0.016539376,2.4298206e-05,-1.001358e-05,0.0,0.0,-0.001,0
19315000,0.016473519,0.000402987,-9.095669e-05,0.0,0.0,-0.001,0
19335000,0.015788002,0.0025652861,-9.596348e-06,0.0,0.0,-0.001,0
19355000,0.017189614,0.0028171702,0.00042390823,0.0,0.0,-0.001,0
19375000,0.018013988,0.0036097113,-0.00012099743,0.0,0.0,-0.001,0
19395000,0.01674788,0.0046218624,0.0005373955,0.0,0.0,-0.001,0
19415000,0.017840512,0.004222302,-0.00016772747,0.0,0.0,-0.001,0
19435000,0.01683335,0.0053136013,9.179115e-06,0.0,0.0,-0.001,0
19455000,0.016085865,0.005208901,-5.7160854e-05,0.0,0.0,-0.001,0
19475000,0.017033122,0.0045367754,0.000220716,0.0,0.0,-0.001,0
19495000,0.017755313,0.004862024,3.4213066e-05,0.0,0.0,-0.001,0
19515000,0.017124683,0.0047172043,0.00045770407,0.0,0.0,-0.001,0
19535000,0.018087264,0.005812726,0.00019025803,0.0,0.0,-0.001,0
19555000,0.019353088,0.006365791,-0.0003183484,0.0,0.0,-0.001,0
19575000,0.019908834,0.0076377443,0.0002824664,0.0,0.0,-0.001,0
19595000,0.020046014,0.008073445,7.259846e-05,0.0,0.0,-0.001,0
19615000,0.020907136,0.0075005735,-6.67572e-05,0.0,0.0,-0.001,0
19635000,0.02138668,0.008214489,0.0002849698,0.0,0.0,-0.001,0
19655000,0.020724805,0.008415021,-0.00020945072,0.0,0.0,-0.001,0
19675000,0.020192359,0.0065044165,0.00016355515,0.0,0.0,-0.001,0
19695000,0.018753111,0.0074094385,-5.507469e-05,0.0,0.0,-0.001,0
19715000,0.018879566,0.009028103,0.0002182126,0.0,0.0,-0.001,0
19735000,0.020718563,0.010059316,2.5868416e-05,0.0,0.0,-0.001,0
19755000,0.021235343,0.010807534,5.841255e-06,0.0,0.0,-0.001,0
19771000,0.021040853,0.010887552,-9.179115e-06,0.0,0.0,-0.001,0
19795000,0.02010783,0.009537754,-0.00035589933,0.0,0.0,-0.001,0
19815000,0.020642402,0.00991649,-0.00029790401,0.0,0.0,-0.001,0
19835000,0.021164365,0.010164825,-0.00030750036,0.0,0.0,-0.001,0
19855000,0.02041492,0.00943357,-0.000118494034,0.0,0.0,-0.001,0
19875000,0.020966599,0.01025444,0.00053071976,0.0,0.0,-0.001,0
19891000,0.021322513,0.009039797,0.0001335144,0.0,0.0,-0.001,0
19915000,0.023673754,0.0074896086,-0.0002862215,0.0,0.0,-0.001,0
19931000,0.023308653,0.009121671,-0.0002874732,0.0,0.0,-0.001,0
19951000,0.022998378,0.009789608,-0.00028163195,0.0,0.0,-0.001,0
19975000,0.022883553,0.0087660365,2.2113323e-05,0.0,0.0,-0.001,0
19995000,0.021553222,0.008011833,-4.7564507e-05,0.0,0.0,-0.001,0
20015000,0.019777827,0.009283617,-7.927418e-06,0.0,0.0,-0.001,0
20035000,0.018874016,0.009656689,0.00033962727,0.0,0.0,-0.001,0
20055000,0.018733786,0.008398158,0.00016480684,0.0,0.0,-0.001,0
20075000,0.01962438,0.007829068,-0.00055909157,0.0,0.0,-0.001,0
20095000,0.019851658,0.0074851667,-8.177757e-05,0.0,0.0,-0.001,0
20115000,0.02039787,0.009054685,9.3877316e-05,0.0,0.0,-0.001,0
20135000,0.020182066,0.008650686,-0.000118494034,0.0,0.0,-0.001,0
20155000,0.020317256,0.0075734346,-0.001001358,0.0,0.0,-0.001,0
20171000,0.02082276,0.008257093,-0.0007672906,0.0,0.0,-0.001,0
20191000,0.023669178,0.0075020073,0.0002603531,0.0,0.0,-0.001,0
20215000,0.022683278,0.008471251,0.00016438961,0.0,0.0,-0.001,0
20231000,0.022780327,0.008113854,-0.00023531914,0.0,0.0,-0.001,0
20255000,0.023607658,0.008325147,3.838539e-05,0.0,0.0,-0.001,0
20275000,0.023027679,0.007100313,-0.000423491,0.0,0.0,-0.001,0
20295000,0.022333123,0.00625242,-3.671646e-05,0.0,0.0,-0.001,0
20315000,0.021782223,0.006272566,-6.592274e-05,0.0,0.0,-0.001,0
20335000,0.021649541,0.0057181558,-0.00013560057,0.0,0.0,-0.001,0
20355000,0.021106126,0.006336281,-0.0002503395,0.0,0.0,-0.001,0
20375000,0.021350343,0.006781124,-0.00012975931,0.0,0.0,-0.001,0
20391000,0.023050642,0.0074542314,-6.8843365e-05,0.0,0.0,-0.001,0
20415000,0.025155742,0.00709322,-0.00010973215,0.0,0.0,-0.001,0
20435000,0.026103903,0.007884109,-0.0001898408,0.0,0.0,-0.001,0
20455000,0.025103044,0.007606687,0.00014519691,0.0,0.0,-0.001,0
20475000,0.024146914,0.00871559,8.636713e-05,0.0,0.0,-0.001,0
20491000,0.023301166,0.010604985,-0.0003066659,0.0,0.0,-0.001,0
20515000,0.023803443,0.011610853,-0.00092834234,0.0,0.0,-0.001,0
20535000,0.022385053,0.011812843,-0.0004042983,0.0,0.0,-0.001,0
20555000,0.022012744,0.011768695,-3.796816e-05,0.0,0.0,-0.001,0
20575000,0.022091124,0.012851233,0.0003183484,0.0,0.0,-0.001,0
20595000,0.022259876,0.013365826,0.00010430813,0.0,0.0,-0.001,0
20615000,0.021283649,0.0137903895,-0.0001835823,0.0,0.0,-0.001,0
20635000,0.018586395,0.014182489,-0.0003271103,0.0,0.0,-0.001,0
20655000,0.019996118,0.013826992,0.00020486116,0.0,0.0,-0.001,0
20675000,0.019396227,0.014552798,-0.0005711913,0.0,0.0,-0.001,0
20691000,0.018438134,0.01503347,-7.635355e-05,0.0,0.0,-0.001,0
20715000,0.019924818,0.015169332,0.00026869774,0.0,0.0,-0.001,0
20735000,0.019963585,0.016209174,-0.00014895201,0.0,0.0,-0.001,0
20755000,0.019110106,0.017024139,-0.0001835823,0.0,0.0,-0.001,0
20775000,0.019001603,0.016927568,1.4603138e-05,0.0,0.0,-0.001,0
20795000,0.019296395,0.01740255,-0.00030374527,0.0,0.0,-0.001,0
20815000,0.017664898,0.017106673,0.00042015314,0.0,0.0,-0.001,0
20835000,0.018861134,0.015461512,0.0003183484,0.0,0.0,-0.001,0
20855000,0.020405948,0.01449811,0.00016480684,0.0,0.0,-0.001,0
20875000,0.019542161,0.013646878,-0.00039887428,0.0,0.0,-0.001,0
20891000,0.020393677,0.013734707,0.00032502413,0.0,0.0,-0.001,0
20915000,0.02229549,0.0133385975,-0.00080651045,0.0,0.0,-0.001,0
20935000,0.021811876,0.013347691,0.0002374053,0.0,0.0,-0.001,0
20955000,0.021631962,0.013641091,-7.468462e-05,0.0,0.0,-0.001,0
20975000,0.02150252,0.015056724,-0.00037676096,0.0,0.0,-0.001,0
20995000,0.021109689,0.01694784,2.8789043e-05,0.0,0.0,-0.001,0
21015000,0.022365874,0.018779073,-9.8884106e-05,0.0,0.0,-0.001,0
21035000,0.022793787,0.019238202,-0.00023907423,0.0,0.0,-0.001,0
21055000,0.023427045,0.020359416,-0.0001552105,0.0,0.0,-0.001,0
21075000,0.023337271,0.021594843,2.0444393e-05,0.0,0.0,-0.001,0
21095000,0.024263283,0.02128053,-0.00014019012,0.0,0.0,-0.001,0
21115000,0.02578927,0.01934989,-0.00049066544,0.0,0.0,-0.001,0
21135000,0.026263688,0.019916449,-0.0002169609,0.0,0.0,-0.001,0
21155000,0.026488595,0.018952252,-0.00018525124,0.0,0.0,-0.001,0
21175000,0.02593631,0.01883864,4.965067e-05,0.0,0.0,-0.001,0
21195000,0.02681841,0.019559994,-0.00041639805,0.0,0.0,-0.001,0
21215000,0.026022907,0.01931475,-0.00014144182,0.0,0.0,-0.001,0
21235000,0.025920786,0.019194879,-0.00024241209,0.0,0.0,-0.001,0
21251000,0.027650047,0.019266745,0.00011765957,0.0,0.0,-0.001,0
21275000,0.029577784,0.020023262,-0.00046271086,0.0,0.0,-0.001,0
21295000,0.031559512,0.020109585,1.7940998e-05,0.0,0.0,-0.001,0
21311000,0.031257324,0.020964801,-0.00014060736,0.0,0.0,-0.001,0
21335000,0.030938998,0.020542892,0.00019234419,0.0,0.0,-0.001,0
21355000,0.031129558,0.020230945,0.000121831894,0.0,0.0,-0.001,0
21371000,0.030288367,0.020238016,-0.00036507845,0.0,0.0,-0.001,0
21391000,0.030878235,0.020585256,1.835823e-05,0.0,0.0,-0.001,0
21415000,0.030869108,0.019701507,-6.0915947e-05,0.0,0.0,-0.001,0
21435000,0.029544871,0.018661322,-0.00025993586,0.0,0.0,-0.001,0
21451000,0.028422618,0.02056329,-0.00017732382,0.0,0.0,-0.001,0
21475000,0.02951486,0.020597152,-0.0005853772,0.0,0.0,-0.001,0
21491000,0.031370636,0.021479063,0.00027996302,0.0,0.0,-0.001,0
21511000,0.03140174,0.020571357,1.0848045e-05,0.0,0.0,-0.001,0
21535000,0.032311957,0.01970836,1.7523766e-05,0.0,0.0,-0.001,0
21551000,0.031836208,0.01869779,-0.00010097027,0.0,0.0,-0.001,0
21575000,0.032042664,0.02002111,-0.00027120113,0.0,0.0,-0.001,0
21595000,0.033066675,0.020373601,0.0002528429,0.0,0.0,-0.001,0
21615000,0.03216848,0.018994156,-8.177757e-05,0.0,0.0,-0.001,0
21635000,0.033156894,0.019260915,0.00034755468,0.0,0.0,-0.001,0
21655000,0.031342015,0.01978069,0.00025701523,0.0,0.0,-0.001,0
21675000,0.032029673,0.019147014,0.00027954578,0.0,0.0,-0.001,0
21691000,0.03128742,0.020838585,-0.00047940016,0.0,0.0,-0.001,0
21711000,0.031163672,0.021479065,0.0001835823,0.0,0.0,-0.001,0
21731000,0.030685673,0.02243303,-3.7133694e-05,0.0,0.0,-0.001,0
21755000,0.030759659,0.024550563,-0.00012725592,0.0,0.0,-0.001,0
21775000,0.030930126,0.024195634,-5.841255e-06,0.0,0.0,-0.001,0
21791000,0.03156122,0.024573214,-5.8829784e-05,0.0,0.0,-0.001,0
21811000,0.030069442,0.026384529,0.00034964085,0.0,0.0,-0.001,0
21835000,0.02943128,0.025391823,-0.00022614002,0.0,0.0,-0.001,0
21855000,0.029557655,0.024848837,-6.5505505e-05,0.0,0.0,-0.001,0
21871000,0.029043188,0.023842767,0.00016021729,0.0,0.0,-0.001,0
21895000,0.02850064,0.023605328,0.00039178133,0.0,0.0,-0.001,0
21915000,0.028674107,0.023782847,-0.00055491924,0.0,0.0,-0.001,0
21935000,0.028602358,0.024446525,-2.4616718e-05,0.0,0.0,-0.001,0
21951000,0.028320262,0.025536573,0.00018066168,0.0,0.0,-0.001,0
21975000,0.027301492,0.023917599,-0.00022530556,0.0,0.0,-0.001,0
21991000,0.026932804,0.023810798,1.9192696e-05,0.0,0.0,-0.001,0
22015000,0.027391365,0.024741685,-0.00015479326,0.0,0.0,-0.001,0
22031000,0.026932169,0.025100455,-0.00014603138,0.0,0.0,-0.001,0
22051000,0.027122747,0.025169255,-0.0005106926,0.0,0.0,-0.001,0
22075000,0.025087593,0.02370359,-0.00038719177,0.0,0.0,-0.001,0
22095000,0.023104388,0.025117729,-0.00014895201,0.0,0.0,-0.001,0
22115000,0.023018327,0.02482024,-0.0009692311,0.0,0.0,-0.001,0
22135000,0.023193818,0.02504591,-5.7578087e-05,0.0,0.0,-0.001,0
22155000,0.023327162,0.024901245,0.00015646219,0.0,0.0,-0.001,0
22175000,0.024302894,0.024265526,-2.5868416e-05,0.0,0.0,-0.001,0
22195000,0.024833364,0.02382878,0.00020235777,0.0,0.0,-0.001,0
22215000,0.024271583,0.024915988,0.00024825335,0.0,0.0,-0.001,0
22235000,0.023748284,0.026728837,-2.9206276e-06,0.0,0.0,-0.001,0
22255000,0.024982702,0.026622958,8.7201595e-05,0.0,0.0,-0.001,0
22271000,0.024749758,0.026812224,0.00029289722,0.0,0.0,-0.001,0
22295000,0.026833877,0.02611308,-0.00028204918,0.0,0.0,-0.001,0
22315000,0.027895184,0.02419719,-0.0005156994,0.0,0.0,-0.001,0
22335000,0.02821045,0.023777252,0.00026744604,0.0,0.0,-0.001,0
22351000,0.028394835,0.022988768,0.00024241209,0.0,0.0,-0.001,0
22371000,0.028783282,0.020951323,7.301569e-05,0.0,0.0,-0.001,0
22395000,0.028414702,0.020393059,-0.00038927794,0.0,0.0,-0.001,0
22411000,0.028351394,0.020288639,-0.0002912283,0.0,0.0,-0.001,0
22435000,0.027231427,0.020930316,-0.00010681152,0.0,0.0,-0.001,0
22455000,0.025592664,0.021580543,0.00026285648,0.0,0.0,-0.001,0
22475000,0.026250973,0.022159196,2.7954578e-05,0.0,0.0,-0.001,0
22491000,0.026250854,0.021863764,0.0004556179,0.0,0.0,-0.001,0
22515000,0.025016839,0.023340605,0.00032377243,0.0,0.0,-0.001,0
22531000,0.023462368,0.022655262,-9.8884106e-05,0.0,0.0,-0.001,0
22555000,0.022955382,0.022553723,-5.632639e-05,0.0,0.0,-0.001,0
22575000,0.022502443,0.023781257,-8.428097e-05,0.0,0.0,-0.001,0
22595000,0.023873933,0.02303441,-0.0010330677,0.0,0.0,-0.001,0
22615000,0.023406094,0.022686025,-0.00019443035,0.0,0.0,-0.001,0
22631000,0.023013419,0.023040485,3.2126904e-05,0.0,0.0,-0.001,0
22655000,0.025008729,0.022483308,-1.6272068e-05,0.0,0.0,-0.001,0
22675000,0.025697103,0.022710253,0.0004310012,0.0,0.0,-0.001,0
22695000,0.02431761,0.022865683,0.00017106533,0.0,0.0,-0.001,0
22711000,0.02372244,0.022171214,-0.00026077032,0.0,0.0,-0.001,0
22731000,0.024518766,0.02277396,6.175041e-05,0.0,0.0,-0.001,0
22755000,0.023963861,0.022886056,-0.00036883354,0.0,0.0,-0.001,0
22775000,0.02303907,0.024076838,-6.592274e-05,0.0,0.0,-0.001,0
22795000,0.023732329,0.024043074,-0.0004606247,0.0,0.0,-0.001,0
22815000,0.02310006,0.024172846,-0.00012683868,0.0,0.0,-0.001,0
22835000,0.023470813,0.02394502,-0.00018692017,0.0,0.0,-0.001,0
22855000,0.02410139,0.023793682,0.0003196001,0.0,0.0,-0.001,0
22871000,0.022932552,0.023143765,-7.5519085e-05,0.0,0.0,-0.001,0
22895000,0.02243047,0.022147587,0.00010597706,0.0,0.0,-0.001,0
22911000,0.02143139,0.02138992,0.0001013875,0.0,0.0,-0.001,0
22931000,0.022105124,0.022039056,7.092953e-05,0.0,0.0,-0.001,0
22955000,0.020028852,0.020659344,-0.00096046925,0.0,0.0,-0.001,0
22971000,0.020281203,0.019861571,-0.00016522408,0.0,0.0,-0.001,0
22995000,0.020516694,0.019890478,0.0002616048,0.0,0.0,-0.001,0
23011000,0.018812504,0.02044178,0.00020611286,0.0,0.0,-0.001,0
23035000,0.018417697,0.020245072,0.00026494265,0.0,0.0,-0.001,0
23051000,0.019228663,0.020848278,-0.00036215782,0.0,0.0,-0.001,0
23075000,0.01916689,0.020885298,9.179115e-05,0.0,0.0,-0.001,0
23095000,0.019737462,0.020381484,0.00014102459,0.0,0.0,-0.001,0
23115000,0.020148067,0.021318916,-8.34465e-07,0.0,0.0,-0.001,0
23135000,0.019570751,0.020659551,0.00029081106,0.0,0.0,-0.001,0
23155000,0.020201052,0.02014133,-1.4603138e-05,0.0,0.0,-0.001,0
23175000,0.020233974,0.0198218,-5.4240227e-06,0.0,0.0,-0.001,0
23195000,0.019599417,0.020017896,-0.00015479326,0.0,0.0,-0.001,0
23215000,0.020911025,0.017744943,-0.00019234419,0.0,0.0,-0.001,0
23235000,0.021466156,0.017033316,-0.00056034327,0.0,0.0,-0.001,0
23255000,0.022336444,0.016218707,-0.0001360178,0.0,0.0,-0.001,0
23275000,0.022189481,0.01867202,-4.8816204e-05,0.0,0.0,-0.001,0
23295000,0.022348402,0.018576313,7.593632e-05,0.0,0.0,-0.001,0
23315000,0.022471316,0.017798724,7.8856945e-05,0.0,0.0,-0.001,0
23335000,0.023781992,0.016043315,5.13196e-05,0.0,0.0,-0.001,0
23355000,0.023003101,0.016012706,0.00021487474,0.0,0.0,-0.001,0
23375000,0.024507467,0.01628511,0.000116825104,0.0,0.0,-0.001,0
23395000,0.024164148,0.016304394,0.00012558699,0.0,0.0,-0.001,0
23415000,0.024693018,0.016932324,0.00021070242,0.0,0.0,-0.001,0
23435000,0.024067897,0.018296568,-0.00019443035,0.0,0.0,-0.001,0
23455000,0.02280042,0.01938277,0.00015228987,0.0,0.0,-0.001,0
23471000,0.02177893,0.019035846,0.00010639429,0.0,0.0,-0.001,0
23491000,0.021702457,0.020576129,-3.671646e-05,0.0,0.0,-0.001,0
23515000,0.02005966,0.021231918,-0.00029331446,0.0,0.0,-0.001,0
23535000,0.020811398,0.021403082,-9.7215176e-05,0.0,0.0,-0.001,0
23555000,0.021637646,0.021426601,-5.4240227e-06,0.0,0.0,-0.001,0
23575000,0.021622393,0.021097317,-7.635355e-05,0.0,0.0,-0.001,0
23595000,0.020258531,0.02153952,0.00025618076,0.0,0.0,-0.001,0
23611000,0.020386197,0.0220324,-0.00046229362,0.0,0.0,-0.001,0
23635000,0.020993436,0.022654248,-5.9247017e-05,0.0,0.0,-0.001,0
23655000,0.019047353,0.024060309,-6.7174435e-05,0.0,0.0,-0.001,0
23675000,0.017598782,0.023336956,1.5437603e-05,0.0,0.0,-0.001,0
23695000,0.015526835,0.021246864,-0.00020360947,0.0,0.0,-0.001,0
23715000,0.015752826,0.021349678,0.0003233552,0.0,0.0,-0.001,0
23735000,0.014494847,0.020561436,6.258488e-05,0.0,0.0,-0.001,0
23751000,0.014803029,0.02025503,-0.00013518333,0.0,0.0,-0.001,0
23775000,0.013745803,0.022425707,-0.0002591014,0.0,0.0,-0.001,0
23795000,0.0126372455,0.023511209,0.00011098385,0.0,0.0,-0.001,0
23815000,0.011066226,0.023361608,-7.969141e-05,0.0,0.0,-0.001,0
23835000,0.011208705,0.023699032,-0.00053948164,0.0,0.0,-0.001,0
23855000,0.011145485,0.024445537,3.46303e-05,0.0,0.0,-0.001,0
23875000,0.010516318,0.023252033,7.3850155e-05,0.0,0.0,-0.001,0
23891000,0.012020931,0.02331369,0.00036758184,0.0,0.0,-0.001,0
23915000,0.0142394975,0.022511156,-0.0004543662,0.0,0.0,-0.001,0
23935000,0.013350641,0.02266987,-0.00013142824,0.0,0.0,-0.001,0
23955000,0.012898449,0.023045246,0.00015228987,0.0,0.0,-0.001,0
23975000,0.013173365,0.022299763,2.1278858e-05,0.0,0.0,-0.001,0
23995000,0.013850142,0.023664385,-0.00025576353,0.0,0.0,-0.001,0
24015000,0.0134662585,0.024199683,-3.671646e-05,0.0,0.0,-0.001,0
24031000,0.012659847,0.024100084,0.00028789043,0.0,0.0,-0.001,0
24055000,0.012862656,0.025371222,-9.0539455e-05,0.0,0.0,-0.001,0
24075000,0.01170296,0.026168128,0.00024741888,0.0,0.0,-0.001,0
24091000,0.011602607,0.025191374,3.504753e-05,0.0,0.0,-0.001,0
24115000,0.011692688,0.025582591,-0.00019484758,0.0,0.0,-0.001,0
24135000,0.01153169,0.026697457,0.00033420324,0.0,0.0,-0.001,0
24155000,0.011079201,0.0276386,-0.0006304383,0.0,0.0,-0.001,0
24175000,0.012188394,0.027569607,0.00010597706,0.0,0.0,-0.001,0
24191000,0.010815853,0.027591836,0.00013893843,0.0,0.0,-0.001,0
