timestamp,gyro_rad[0],gyro_rad[1],gyro_rad[2],gyro_integral_dt,accelerometer_timestamp_relative,accelerometer_m_s2[0],accelerometer_m_s2[1],accelerometer_m_s2[2],accelerometer_integral_dt,accelerometer_clipping,gyro_clipping,accel_calibration_count,gyro_calibration_count
4435000,0.023968333,0.021305386,-0.02183796,4000,0,0.21667528,-0.025138956,-9.837775,4000,0,0,0,1
4439000,0.024501005,-0.0023969535,-0.008788627,4000,0,0.12689269,0.029927697,-9.872493,4000,0,0,0,1
4443000,-0.005326358,-0.012516829,-0.0018643198,4000,0,0.1448492,-0.12090702,-9.88207,4000,0,0,0,1
4447000,-0.031425294,-0.0034620946,-0.00239697,4000,0,0.18435356,-0.105344705,-9.854535,4000,0,0,0,1
4451000,-0.019973705,0.0029294542,-0.0037284796,4000,0,0.10893619,0.073023334,-9.886856,4000,0,0,0,1
4455000,-0.010652666,0.00053250586,-0.02103897,4000,0,0.1197101,0.119710274,-9.891646,4000,0,0,0,1
4459000,-0.003728406,0.0034620515,-0.023968466,4000,0,0.19752167,0.13407548,-9.752781,4000,0,0,0,1
4463000,0.0047938824,0.025033671,-0.006657939,4000,0,0.28491,0.16400301,-9.645043,4000,0,0,0,1
4467000,-0.00266318,0.03169164,-0.010652571,4000,0,0.21667528,0.074220434,-9.657013,4000,0,0,0,1
4471000,-0.0026632883,0.016511597,-0.017576853,4000,0,-0.10295069,-0.12689252,-9.707291,4000,0,0,0,1
4475000,-0.0061252597,0.006125303,-0.00426103,4000,0,-0.19632454,-0.2549823,-9.753977,4000,0,0,0,1
4479000,-0.027164223,0.016777957,2.1499185e-08,4000,0,0.043095633,-0.07661429,-9.816229,4000,0,0,0,1
4487000,0.011451485,0.025033617,-0.017577076,4000,0,0.0071826037,-0.065840386,-9.907209,4000,0,0,0,1
4491000,-0.0069242185,0.016778002,-0.011717789,4000,0,-0.034715924,-0.16519976,-9.849746,4000,0,0,0,1
4495000,-0.030093685,0.019174866,-0.006125146,4000,0,0.031124622,-0.11013311,-9.753977,4000,0,0,0,1
4499000,-0.029028468,0.006924243,-0.0034619928,4000,0,0.06105215,-0.12210413,-9.727643,4000,0,0,0,1
4503000,-0.0018642306,-0.012250558,-0.0015977741,4000,0,-0.027533323,-0.13766645,-9.673774,4000,0,0,0,1
4507000,0.0127832405,-0.018109519,-0.018642066,4000,0,0.008379707,0.049081307,-9.605539,4000,0,0,0,1
4515000,0.0061253267,-0.004260998,-0.024501082,4000,0,0.2837129,0.18555082,-10.01375,4000,0,0,0,1
4519000,-0.016511627,-0.00665773,-0.018642167,4000,0,0.1400608,0.021547988,-9.832989,4000,0,0,0,1
4527000,0.003195827,0.010386286,-0.0071905833,4000,0,-0.23343469,-0.13048384,-9.725246,4000,0,0,0,1
4531000,0.006125261,0.016777916,-0.014381075,4000,0,-0.26695353,-0.034715753,-9.868899,4000,0,0,0,1
4539000,0.013848495,0.009853656,-0.020506326,4000,0,0.033518832,-0.10175341,-9.913193,4000,0,0,0,1
4547000,0.0050601996,0.042876866,0.01917479,4000,0,-0.19153614,-0.06823458,-9.940725,4000,0,0,0,1
4551000,0.013049434,0.028495898,0.008788295,4000,0,-0.008379711,-0.13168092,-9.9862175,4000,0,0,0,1
4555000,0.019440979,0.0090548415,-0.0077233133,4000,0,0.016759414,-0.21667509,-9.945517,4000,0,0,0,1
4559000,0.023968449,-0.0015979551,-0.00053271506,4000,0,0.027533323,-0.34237072,-9.977838,4000,0,0,0,1
4563000,0.022104235,-0.002396911,0.0077231606,4000,0,0.117315896,-0.4118026,-9.914389,4000,0,0,0,1
4567000,0.0013315997,-0.0055925944,-0.0055926787,4000,0,0.013168108,-0.15083456,-9.879675,4000,0,0,0,1
4571000,-0.016245287,-0.017576825,-0.015979005,4000,0,0.008379707,0.1328784,-10.103531,4000,0,0,0,1
4575000,0.0007989249,-0.013049536,-0.0077230916,4000,0,-0.04429273,0.13646968,-10.152613,4000,0,0,0,1
4579000,0.017576806,0.0026631118,0.015979046,4000,0,-0.20470427,0.13287838,-9.888055,4000,0,0,0,1
4583000,0.01784315,0.009853657,0.022903228,4000,0,-0.03471592,0.19871894,-9.713276,4000,0,0,0,1
4587000,0.019174688,0.011718025,0.0053263293,4000,0,0.10654198,0.19153629,-9.653423,4000,0,0,0,1
4591000,0.009853701,0.006924208,0.004527381,4000,0,0.11133039,0.15442617,-9.591172,4000,0,0,0,1
4595000,-0.0069242097,0.010918913,0.011717961,4000,0,0.23463179,0.16041169,-9.62589,4000,0,0,0,1
4599000,-0.011984289,0.021571575,0.0058589494,4000,0,0.18315646,0.15562327,-9.71208,4000,0,0,0,1
4603000,-0.009054798,0.017576838,-0.0018642178,4000,0,-0.0023942017,0.089782745,-9.7324295,4000,0,0,0,1
4607000,-0.007989429,-0.005326288,0.00985376,4000,0,-0.04668694,-0.045489665,-9.787498,4000,0,0,0,1
4611000,-0.00772313,-0.024767362,0.024501136,4000,0,-0.07062895,-0.056263573,-9.7719345,4000,0,0,0,1
4615000,0.0002664592,-0.023435805,0.0058590174,4000,0,-0.062249243,0.0071827755,-9.706093,4000,0,0,0,1
4619000,0.012783293,-0.009054724,-0.012783077,4000,0,0.011971008,0.0011972701,-9.686939,4000,0,0,0,1
4623000,0.013049545,0.0031957952,-0.013315755,4000,0,-0.02274492,-0.046686772,-9.63427,4000,0,0,0,1
4627000,-0.00053265726,-0.002396786,-0.0130495,4000,0,-0.002394203,-0.1903389,-9.714474,4000,0,0,0,1
4631000,-0.023435866,-0.011185177,-0.0031958104,4000,0,0.14963764,-0.15682004,-9.880873,4000,0,0,0,1
4635000,-0.043409597,-0.0066577373,0.015446225,4000,0,0.100556485,0.059855223,-9.873688,4000,0,0,0,1
4639000,-0.028762132,-0.007989436,0.013582175,4000,0,-0.055066645,0.17717113,-9.8509445,4000,0,0,0,1
4643000,0.003728458,-0.00426109,-0.0050599556,4000,0,-0.019153617,0.19632472,-9.871296,4000,0,0,0,1
4647000,0.013315811,0.009321032,0.0079895165,4000,0,0.09457098,0.08260013,-9.745598,4000,0,0,0,1
4651000,-0.0029294123,-0.0010653614,0.019973716,4000,0,0.02633622,-0.0897824,-9.726444,4000,0,0,0,1
4655000,-0.011984143,-0.012250629,-0.005592631,4000,0,-0.13048403,-0.14125773,-9.834186,4000,0,0,0,1
4659000,0.0061253374,-0.0039948244,-0.01784314,4000,0,-0.10534488,-0.10893602,-9.779117,4000,0,0,0,1
4663000,0.0063916207,0.0037284063,-0.008788416,4000,0,-0.077811554,-0.01915345,-9.585188,4000,0,0,0,1
4667000,-0.010652599,0.014913729,0.0026632065,4000,0,-0.077811554,0.15801749,-9.472661,4000,0,0,0,1
4671000,-0.0007989215,0.016245315,0.008255746,4000,0,-0.0011971015,0.22385804,-9.6438465,4000,0,0,0,1
4679000,0.025832698,0.021038903,0.009587446,4000,0,0.008379711,0.04668711,-9.894039,4000,0,0,0,1
4683000,0.01731059,0.03968095,0.023702353,4000,0,0.051475346,-0.0933737,-9.9383335,4000,0,0,0,1
4687000,0.0047935713,0.024767403,0.005859036,4000,0,-0.04548984,-0.12210413,-9.900026,4000,0,0,0,1
4691000,-0.0013316724,-0.0058589377,-0.012516857,4000,0,-0.05985505,0.021547988,-9.800665,4000,0,0,0,1
4695000,-0.0026631707,-0.010120008,-0.016777914,4000,0,-0.06584056,0.050278414,-9.746798,4000,0,0,0,1
4699000,-0.003462097,-0.0002663005,-0.0042610695,4000,0,-0.15322894,-0.043095466,-9.764753,4000,0,0,0,1
4703000,-0.008255781,0.014114782,0.013315789,4000,0,-0.16879125,-0.01316794,-9.853338,4000,0,0,0,1
4707000,-0.020772697,0.024501035,0.015180049,4000,0,-0.067037664,0.04549001,-9.809044,4000,0,0,0,1
4711000,-0.025300164,0.013315625,-0.0077230525,4000,0,0.062249243,0.04668711,-9.727644,4000,0,0,0,1
4719000,-0.010386485,-0.022104247,-0.022903113,4000,0,-0.07422027,-0.09576791,-9.779118,4000,0,0,0,1
4723000,-0.0058589643,-0.014114756,-0.0133158,4000,0,-0.15083474,-0.10055631,-9.775528,4000,0,0,0,1
4727000,0.002663256,0.002929432,-0.01731054,4000,0,-0.07302317,-0.009576637,-9.813835,4000,0,0,0,1
4731000,0.003462156,0.0101200035,-0.0125168525,4000,0,0.13048403,-0.022744747,-9.805454,4000,0,0,0,1
4735000,0.00878849,0.015978934,-0.002663172,4000,0,0.12330139,-0.016759247,-9.750386,4000,0,0,0,1
4739000,0.024234753,0.021305287,-0.006924286,4000,0,-0.09457099,-0.014365043,-9.709686,4000,0,0,0,1
4743000,0.034621034,0.005592654,-0.011718112,4000,0,-0.23104046,0.009576977,-9.709686,4000,0,0,0,1
4747000,0.03249057,-0.0031960225,0.008788335,4000,0,-0.18914196,0.16639721,-9.69532,4000,0,0,0,1
4751000,0.017843122,0.013581979,0.018109666,4000,0,-0.01795651,0.19991603,-9.76116,4000,0,0,0,1
4755000,-0.0029296535,0.02956107,0.00053282146,4000,0,0.08738837,0.0047885757,-9.876082,4000,0,0,0,1
4759000,-0.0037283644,0.024234772,0.0066579175,4000,0,0.011971008,0.06943202,-9.909603,4000,0,0,0,1
4763000,0.010919103,0.012250593,0.020772558,4000,0,0.035913028,0.30765513,-9.945517,4000,0,0,0,1
4771000,0.014381027,0.0103864,-0.003728406,4000,0,0.03351883,0.11133056,-9.76116,4000,0,0,0,1
4775000,0.0015978481,0.018642228,-0.020772574,4000,0,-0.10534488,0.13886388,-9.856928,4000,0,0,0,1
4779000,-0.003728316,0.03355587,-0.019707354,4000,0,-0.05865795,0.032321908,-10.1454315,4000,0,0,0,1
4783000,-0.0034618734,0.026897958,0.0053263283,4000,0,0.027533323,-0.073022984,-10.032904,4000,0,0,0,1
4791000,0.03621899,0.009054748,-0.0063916603,4000,0,-0.20350718,-0.10654181,-9.611523,4000,0,0,0,1
4795000,0.029294802,0.011451516,0.0013316306,4000,0,-0.15562311,-0.10773892,-9.646238,4000,0,0,0,1
4799000,0.0082557555,0.010652756,-0.010918887,4000,0,-0.1364695,-0.18076208,-9.752781,4000,0,0,0,1
4803000,0.0034621716,0.016511587,0.0005326662,4000,0,-0.26096803,-0.17118528,-9.775528,4000,0,0,0,1
4807000,0.0063916426,0.010386319,0.010386306,4000,0,-0.39384615,-0.14365193,-9.6522255,4000,0,0,0,1
4811000,0.007723229,-0.005326322,0.012250504,4000,0,-0.44292736,-0.12689252,-9.616313,4000,0,0,0,1
4815000,0.022370504,0.0034621512,0.019441128,4000,0,-0.45011,0.021547984,-9.672577,4000,0,0,0,1
4819000,0.023968413,0.007456934,0.009853724,4000,0,-0.25737667,0.10414796,-9.8198185,4000,0,0,0,1
4823000,0.015979005,-0.0021305748,0.012250485,4000,0,0.05865795,0.07900883,-9.958684,4000,0,0,0,1
4827000,0.012250519,0.00079884613,0.02849584,4000,0,0.15203184,-0.00598533,-9.889252,4000,0,0,0,1
4831000,0.0018643185,-0.010386415,0.025566308,4000,0,0.06105215,-0.06344618,-9.821015,4000,0,0,0,1
4835000,-0.001065207,-0.012516878,0.014114744,4000,0,0.011971008,-0.027533151,-9.889252,4000,0,0,0,1
4839000,-0.0050601037,0.007989464,0.014381048,4000,0,0.0035913019,-0.087388195,-9.884462,4000,0,0,0,1
4843000,-0.0045273188,-0.0015978884,0.018375827,4000,0,-0.13287823,-0.07541718,-9.756374,4000,0,0,0,1
4847000,0.0023969708,-0.021837886,0.015180055,4000,0,-0.12928692,-0.03351866,-9.782708,4000,0,0,0,1
4851000,-0.004261006,-0.020240054,0.0069241724,4000,0,0.011971009,-0.10534471,-9.970654,4000,0,0,0,1
4855000,-0.0034620853,-0.021571612,0.0037284328,4000,0,0.034715924,-0.084993996,-9.998186,4000,0,0,0,1
4859000,-0.006924169,-0.027963206,-0.0021305475,4000,0,0.07182605,-0.101753406,-9.900026,4000,0,0,0,1
4863000,-0.0026631411,-0.017310552,-0.003462095,4000,0,-0.0107739065,-0.19512728,-9.822214,4000,0,0,0,1
4867000,0.02103891,0.005858942,0.012783292,4000,0,-0.079008654,-0.23702584,-9.793484,4000,0,0,0,1
4871000,0.01651159,0.009321046,0.012516891,4000,0,0.057460837,-0.15801714,-9.8198185,4000,0,0,0,1
4875000,-0.013049586,0.017044222,-0.0074567175,4000,0,0.07422026,-0.03112445,-9.84017,4000,0,0,0,1
4879000,-0.028495848,0.035420034,-0.019174753,4000,0,-0.039504327,-0.10055631,-9.853339,4000,0,0,0,1
4883000,-0.021039175,0.019707266,-0.027696816,4000,0,-0.09457098,-0.059854876,-9.783907,4000,0,0,0,1
4887000,-0.009054834,0.0047936384,-0.019441055,4000,0,-0.14724344,0.12928708,-9.615116,4000,0,0,0,1
4891000,-0.006125165,0.014913759,0.0055926037,4000,0,-0.26336223,0.096965335,-9.528925,4000,0,0,0,1
4895000,0.0026631327,0.020240033,0.0018641585,4000,0,-0.3244143,0.07182622,-9.582792,4000,0,0,0,1
4899000,0.02769672,0.027164282,-0.020772818,4000,0,-0.21906948,0.06105232,-9.661802,4000,0,0,0,1
4903000,0.019174686,0.02636543,-0.028495759,4000,0,0.014365211,0.0395045,-9.709686,4000,0,0,0,1
4907000,-0.018375997,0.0037287613,-0.025033532,4000,0,0.2238579,0.13886386,-9.722853,4000,0,0,0,1
4911000,-0.022104258,-0.00026620305,-0.011717881,4000,0,0.08140288,0.110133454,-9.66659,4000,0,0,0,1
4915000,-0.012783124,0.01278318,-0.006125367,4000,0,-0.15203184,0.015562478,-9.62589,4000,0,0,0,1
4919000,-0.016511612,0.020506326,-0.011984243,4000,0,-0.047884032,0.14245518,-9.701307,4000,0,0,0,1
4927000,-0.015979012,0.0005326263,-0.0069241147,4000,0,0.1161188,0.19991603,-9.710884,4000,0,0,0,1
4931000,-0.010919008,-0.019707445,-0.014647279,4000,0,0.16879125,0.01316828,-9.72884,4000,0,0,0,1
4935000,0.0021305718,-0.020240113,-0.02157152,4000,0,0.0,0.071826234,-9.886856,4000,0,0,0,1
4939000,0.010919128,-0.0069242753,-0.032224186,4000,0,-0.26096803,0.119710274,-9.931149,4000,0,0,0,1
4943000,0.020506345,-0.008255883,-0.038083192,4000,0,-0.19752167,0.12689288,-9.920377,4000,0,0,0,1
4947000,0.022636928,-0.0023969067,-0.033023153,4000,0,-0.035913024,0.120907374,-9.973047,4000,0,0,0,1
4951000,-0.0063914387,0.012783323,-0.01038624,4000,0,0.067037664,-0.01197084,-9.885658,4000,0,0,0,1
4955000,-0.027164241,-0.002396746,0.0023969663,4000,0,0.1400608,-0.14963746,-9.792285,4000,0,0,0,1
4959000,-0.013848434,-0.007989484,0.0013316419,4000,0,0.047884032,-0.123301215,-9.926363,4000,0,0,0,1
4963000,0.000798961,-0.017044244,-0.0018641324,4000,0,-0.08020575,-0.0885853,-9.9383335,4000,0,0,0,1
4967000,0.0005326898,-0.036485303,-0.014114762,4000,0,-0.1221043,-0.13287804,-9.765951,4000,0,0,0,1
4971000,-0.005592624,-0.035420015,-0.01491378,4000,0,-0.07062895,-0.19871859,-9.767147,4000,0,0,0,1
4975000,-0.0042610965,-0.033555828,-0.010918952,4000,0,0.021547817,-0.17597367,-9.876081,4000,0,0,0,1
4979000,0.016777929,-0.016777987,-0.0066576926,4000,0,-0.009576809,-0.0945708,-9.854535,4000,0,0,0,1
4983000,0.030892631,0.0023967286,0.008522304,4000,0,-0.067037664,-0.1280896,-9.837774,4000,0,0,0,1
4987000,0.022104207,0.011185329,0.0010653625,4000,0,-0.009576809,-0.07541719,-9.894039,4000,0,0,0,1
4991000,0.01704415,0.015979134,-0.021571556,4000,0,0.021547817,0.049081307,-9.720461,4000,0,0,0,1
4999000,-0.010918931,0.0053263726,0.002663181,4000,0,-0.0023942017,-0.2118867,-9.65103,4000,0,0,0,1
5003000,0.005858928,0.017576847,-0.0063916617,4000,0,-0.05985505,-0.14604616,-9.697714,4000,0,0,0,1
5007000,0.007989336,0.013049533,-0.029827429,4000,0,-0.04668694,-0.09217661,-9.560049,4000,0,0,0,1
5011000,-0.017576974,0.0039950097,-0.03462101,4000,0,-0.02873042,-0.26455918,-9.524134,4000,0,0,0,1
5015000,-0.032224305,-0.002662858,-0.011717851,4000,0,-0.06584056,-0.27533305,-9.756374,4000,0,0,0,1
5019000,-0.026098965,0.0039948607,0.001597831,4000,0,-0.13407533,-0.0945708,-9.902418,4000,0,0,0,1
5023000,-0.022370573,0.037816897,0.0018639143,4000,0,-0.12689269,-0.11013311,-9.883265,4000,0,0,0,1
5027000,-0.012516755,0.042610653,0.010386169,4000,0,0.08738837,-0.0945708,-9.89045,4000,0,0,0,1
5031000,0.010919084,-0.004793622,0.0074567166,4000,0,0.21547818,-0.022744745,-9.896433,4000,0,0,0,1
5035000,0.010919064,-0.03621894,-0.0071906513,4000,0,0.08738836,-0.14604613,-9.854535,4000,0,0,0,1
5039000,0.00053263275,-0.022636855,-0.0045274515,4000,0,0.023942016,-0.17118528,-9.752781,4000,0,0,0,1
5043000,0.006125243,0.011984217,0.006125319,4000,0,0.142455,-0.001196931,-9.680956,4000,0,0,0,1
5047000,0.022104215,0.021305326,0.004793645,4000,0,0.30166948,0.13048418,-9.624693,4000,0,0,0,1
5055000,0.015712658,-0.0021305454,0.0055926107,4000,0,0.18195936,0.073023334,-9.757571,4000,0,0,0,1
5059000,0.011984232,-0.0029294535,-0.000266323,4000,0,0.025139121,0.017956687,-9.941923,4000,0,0,0,1
5063000,0.002396838,-0.01065267,0.005858916,4000,0,-0.0035913028,-0.0933737,-9.847351,4000,0,0,0,1
5067000,-0.013848481,-0.0074568926,0.016245231,4000,0,0.023942016,-0.15682006,-9.731234,4000,0,0,0,1
5071000,-0.015179968,-0.018375807,0.019707443,4000,0,0.09816226,-0.11970992,-9.704897,4000,0,0,0,1
5075000,-0.0077230604,-0.022370571,0.006391654,4000,0,0.16639704,-0.0945708,-9.757571,4000,0,0,0,1
5079000,-0.003728269,0.006391521,-0.02290323,4000,0,0.096965164,-0.0071824333,-9.897633,4000,0,0,0,1
5083000,-0.014913606,0.022636937,-0.035952676,4000,0,-0.043095633,0.08020593,-9.9790325,4000,0,0,0,1
5091000,-0.00825587,-0.00026636344,-0.023968428,4000,0,0.0011971071,0.25378558,-9.823412,4000,0,0,0,1
5095000,-0.014381036,0.0042610923,-0.029561106,4000,0,0.15203184,0.088585645,-9.671379,4000,0,0,0,1
5099000,-0.015712636,0.003994816,-0.017044231,4000,0,0.059855048,-0.10414762,-9.570822,4000,0,0,0,1
5103000,-0.01704421,0.005326389,-0.00585896,4000,0,-0.13287823,-0.14245483,-9.6845455,4000,0,0,0,1
5107000,-0.0063915686,0.006924252,0.0034620818,4000,0,-0.1221043,-0.043095466,-9.858126,4000,0,0,0,1
5111000,0.002396872,0.0015979261,0.012516849,4000,0,0.0,0.1304842,-9.827001,4000,0,0,0,1
5115000,-0.014114695,-0.013848502,0.006391583,4000,0,0.015562311,0.21787255,-9.77313,4000,0,0,0,1
5119000,-0.018642012,-0.026631711,-0.01251682,4000,0,0.095768064,0.09457115,-9.871296,4000,0,0,0,1
5123000,0.009321055,-0.022903286,-0.009853473,4000,0,0.15562311,-0.096965,-9.874886,4000,0,0,0,1
5127000,0.011984122,-0.0061253454,0.011185351,4000,0,0.13287823,-0.03112445,-9.831791,4000,0,0,0,1
5131000,-0.020240076,0.0015977401,0.020239992,4000,0,0.07781156,0.22505514,-9.847352,4000,0,0,0,1
5135000,-0.026897904,-0.003728552,0.008255841,4000,0,-0.023942016,0.13766678,-9.829395,4000,0,0,0,1
5139000,-0.016777918,0.00053260283,0.0018641874,4000,0,-0.038307235,-0.16400266,-9.860521,4000,0,0,0,1
5143000,-0.01890845,0.008522113,0.0013315366,4000,0,-0.10654198,-0.11013312,-9.864112,4000,0,0,0,1
5147000,-0.013315854,0.0053262203,-0.015446332,4000,0,-0.23104048,0.06943203,-9.8988285,4000,0,0,0,1
5151000,-0.005858975,0.0018641702,-0.016511602,4000,0,-0.2346318,0.01675959,-9.959879,4000,0,0,0,1
5155000,-0.011451483,0.021039022,-0.0069242534,4000,0,-0.06105215,-0.0921766,-9.933542,4000,0,0,0,1
5159000,-0.019973591,0.054328535,-0.0010653309,4000,0,0.1221043,-0.021547647,-9.8281975,4000,0,0,0,1
5163000,-0.030892538,0.0585896,0.006391757,4000,0,0.17118546,0.13886386,-9.725247,4000,0,0,0,1
5167000,-0.022903264,0.03488737,8.864956e-08,4000,0,0.2418144,0.09457115,-9.798271,4000,0,0,0,1
5171000,-0.0018642902,0.007456801,-0.0066579385,4000,0,0.25977093,0.027533498,-9.93474,4000,0,0,0,1
5175000,-0.008788473,-0.0071905213,-0.009321039,4000,0,0.015562311,0.15562329,-9.940725,4000,0,0,0,1
5183000,-0.009320992,0.027430471,-0.023702273,4000,0,-0.16998835,0.05386972,-9.9515,4000,0,0,0,1
5187000,0.0034620012,0.02290306,-0.031691726,4000,0,-0.049081136,-0.2238577,-9.877279,4000,0,0,0,1
5195000,0.01704425,0.011185216,-0.020240042,4000,0,0.16759415,-0.27293885,-9.752781,4000,0,0,0,1
5199000,0.011185219,-0.00079894316,-0.014114801,4000,0,0.05626375,-0.22026642,-9.782708,4000,0,0,0,1
5203000,0.0037284389,0.0015979634,-0.02237055,4000,0,0.1209072,-0.08259979,-9.832989,4000,0,0,0,1
5207000,-0.010652538,0.015979076,-0.02450106,4000,0,0.088585466,-0.08379689,-9.830593,4000,0,0,0,1
5211000,-0.005592642,0.008255799,-0.013315805,4000,0,-0.16759415,-0.16400264,-9.871296,4000,0,0,0,1
5215000,0.002396882,-0.0010652471,0.015180015,4000,0,-0.2358289,-0.0909795,-9.861719,4000,0,0,0,1
5219000,0.0010652477,0.002663159,0.009587382,4000,0,-0.11013329,0.04189871,-9.825806,4000,0,0,0,1
5223000,-0.004261144,0.018908445,-0.028762134,4000,0,-0.0011970999,0.02154799,-9.932346,4000,0,0,0,1
5227000,-0.010386129,0.0316917,-0.016511584,4000,0,0.07541737,-0.09816209,-10.041284,4000,0,0,0,1
5235000,0.0045274138,0.0031958253,0.010386304,4000,0,0.07422027,0.08020593,-9.931149,4000,0,0,0,1
5239000,-0.022104282,0.010918889,-0.0039947024,4000,0,0.06464346,0.104147956,-9.856928,4000,0,0,0,1
5243000,-0.03834946,0.018908564,0.009054749,4000,0,-0.07541737,0.124498665,-9.689337,4000,0,0,0,1
5247000,-0.012516717,0.014381411,0.029560985,4000,0,-0.12689269,0.22505514,-9.726444,4000,0,0,0,1
5251000,0.008522251,0.0031960218,0.03462105,4000,0,-0.028730422,0.12569578,-9.835382,4000,0,0,0,1
5255000,0.008255807,0.0026631537,0.035952684,4000,0,0.06584056,-0.015562142,-9.844959,4000,0,0,0,1
5259000,0.00479382,-0.009054759,0.02423474,4000,0,0.12928692,-0.06344618,-9.842566,4000,0,0,0,1
5263000,0.010919139,-0.026631545,0.012783164,4000,0,0.13048401,-0.04788387,-9.91439,4000,0,0,0,1
5267000,0.028229594,-0.03408837,0.0066580297,4000,0,-0.004788406,0.0407016,-9.908405,4000,0,0,0,1
5271000,0.044741224,-0.03728414,-0.002396688,4000,0,-0.14245501,0.15442617,-9.810242,4000,0,0,0,1
5275000,0.041811544,-0.03222436,0.0050600446,4000,0,-0.17118546,0.15442619,-9.904812,4000,0,0,0,1
5279000,0.034088347,-0.020240167,0.0143811535,4000,0,-0.16280572,0.086191446,-10.02572,4000,0,0,0,1
5283000,0.035153612,0.011717971,0.0093214335,4000,0,-0.12449849,0.0323219,-9.879675,4000,0,0,0,1
5291000,0.011185204,-0.009853618,-0.01091911,4000,0,0.1388637,0.08260013,-9.74081,4000,0,0,0,1
5295000,0.03169162,-0.029827401,-0.03275689,4000,0,0.17836803,0.12928708,-9.788694,4000,0,0,0,1
5299000,0.0452739,-0.023702186,-0.042077746,4000,0,0.1209072,0.07182623,-9.751583,4000,0,0,0,1
5303000,0.009587489,0.0018642357,-0.010386224,4000,0,0.15442601,0.011971179,-9.77433,4000,0,0,0,1
5307000,-0.016777908,-0.00026629117,0.010386339,4000,0,0.20590138,-0.029927352,-9.794681,4000,0,0,0,1
5311000,0.0010652827,-0.0058588176,0.023968484,4000,0,0.18315646,-0.04668677,-9.791088,4000,0,0,0,1
5315000,0.014913598,0.00532643,0.032756913,4000,0,0.21188685,0.0059856744,-9.744401,4000,0,0,0,1
5319000,0.013315851,-0.0029293653,0.0066578644,4000,0,0.21787238,0.07661464,-9.727644,4000,0,0,0,1
5323000,0.022370601,-0.011984101,-0.01731058,4000,0,0.031124618,0.120907374,-9.777922,4000,0,0,0,1
5327000,0.03275683,-0.017310651,-0.011451593,4000,0,-0.13048403,0.13407546,-9.807848,4000,0,0,0,1
5331000,0.04207784,-0.020240251,0.0061252927,4000,0,-0.088585466,0.23223777,-9.835382,4000,0,0,0,1
5335000,0.040746372,-0.008522055,0.0015980515,4000,0,0.120907195,0.21667546,-9.859325,4000,0,0,0,1
5339000,0.00026632304,0.0013316205,-0.002929459,4000,0,0.22266078,-0.044292558,-9.775528,4000,0,0,0,1
5343000,-0.03408845,0.0071905665,0.021305306,4000,0,0.13048401,-0.101753406,-9.718066,4000,0,0,0,1
5347000,-0.021305306,0.011718078,0.02822943,4000,0,0.008379707,-0.12808964,-9.817424,4000,0,0,0,1
5351000,0.0018641183,0.020772861,0.025832513,4000,0,-0.16879125,-0.23104031,-9.988609,4000,0,0,0,1
5355000,0.005859004,0.030892694,0.045540042,4000,0,-0.20709848,-0.18076207,-10.040087,4000,0,0,0,1
5359000,-0.00612526,0.03382196,0.05086651,4000,0,0.02513912,-0.16879109,-9.810242,4000,0,0,0,1
5363000,0.003195761,0.02263699,0.031158907,4000,0,0.2789245,-0.14365195,-9.609129,4000,0,0,0,1
5367000,0.022370676,-0.0021303105,0.012783004,4000,0,0.20111297,-0.05147518,-9.597159,4000,0,0,0,1
5371000,0.013582177,-0.013582103,0.0050599137,4000,0,-0.077811554,-0.033518665,-9.616313,4000,0,0,0,1
5375000,0.011717929,-0.0031957594,-0.003195755,4000,0,-0.050278243,-0.038307063,-9.737221,4000,0,0,0,1
5379000,0.0045274035,0.011185339,-0.016777867,4000,0,0.035913028,0.014365383,-9.804258,4000,0,0,0,1
5387000,-0.0061251884,-0.0037283078,0.021305336,4000,0,-0.025139121,-0.084993996,-9.744401,4000,0,0,0,1
5391000,0.0023969621,-0.0189084,0.013582164,4000,0,-0.01436521,-0.17238238,-9.619903,4000,0,0,0,1
5395000,-0.004793665,-0.020772692,0.010918916,4000,0,0.027533323,-0.11970993,-9.542091,4000,0,0,0,1
5403000,-0.001597929,0.0039947326,0.0021305217,4000,0,0.1448492,-0.02992735,-9.91918,4000,0,0,0,1
5407000,-0.009321084,-0.0050600218,-0.018642113,4000,0,0.077811554,-0.026336048,-9.9108,4000,0,0,0,1
5411000,-0.018109523,-0.00852206,-0.018109504,4000,0,-0.0035913028,-0.057460673,-9.897633,4000,0,0,0,1
5415000,-0.0077231317,0.0061253193,0.00026625712,4000,0,0.07661447,-0.016759247,-9.674969,4000,0,0,0,1
5419000,0.007989509,0.014647422,0.01278312,4000,0,0.084994175,0.14484937,-9.42358,4000,0,0,0,1
5423000,0.008255788,0.0031958285,0.00026628465,4000,0,0.031124622,0.055066813,-9.513361,4000,0,0,0,1
5431000,0.015978985,0.0069242334,-0.011717879,4000,0,0.22026658,-0.14484905,-9.676167,4000,0,0,0,1
5435000,0.009587385,0.003994731,-0.0050600073,4000,0,0.19632453,0.06464362,-9.680956,4000,0,0,0,1
5443000,-0.031425335,0.013848253,0.018908534,4000,0,0.013168108,-0.020350548,-9.870098,4000,0,0,0,1
5447000,-0.047137976,0.010652471,0.011718017,4000,0,-0.047884032,-0.14724325,-9.852142,4000,0,0,0,1
5451000,-0.035153646,-0.0013313835,0.021305438,4000,0,0.058657944,-0.13407513,-9.892841,4000,0,0,0,1
5455000,-0.011185277,-0.001863962,0.028229525,4000,0,0.23104045,-0.15442584,-9.827002,4000,0,0,0,1
5459000,0.021837898,0.0013318594,0.019707402,4000,0,0.23463179,-0.1855505,-9.670183,4000,0,0,0,1
5463000,0.039947454,-0.005858664,-0.003994802,4000,0,0.1364695,-0.032321554,-9.731234,4000,0,0,0,1
5467000,0.03382219,-0.0026628831,-0.024234738,4000,0,0.062249243,0.13527258,-9.800665,4000,0,0,0,1
5471000,0.0045274426,0.0058591836,-0.023435751,4000,0,0.07422027,-0.05386937,-9.788694,4000,0,0,0,1
5475000,-0.006924233,0.0026632422,-0.017576847,4000,0,0.10175359,-0.23582871,-9.864112,4000,0,0,0,1
5479000,0.0066579143,0.0055925427,-0.025300048,4000,0,0.077811554,-0.03112445,-9.8988285,4000,0,0,0,1
5483000,0.012783172,0.006924185,-0.032756887,4000,0,0.14484921,0.1532291,-9.834185,4000,0,0,0,1
5487000,0.016511463,-0.007456931,-0.023702202,4000,0,0.104147784,0.13287838,-9.756373,4000,0,0,0,1
5491000,0.012250474,-0.010919021,-0.006924249,4000,0,-0.07062895,0.105345055,-9.694122,4000,0,0,0,1
5495000,0.0055926084,-0.012783189,0.00026628407,4000,0,-0.040701427,0.06464363,-9.651029,4000,0,0,0,1
5499000,0.01837583,-0.01890844,-0.0037283832,4000,0,0.019153617,-0.0071824337,-9.818621,4000,0,0,0,1
5503000,0.029827468,-0.0077231377,-0.01091882,4000,0,-0.017956512,0.063446514,-10.028114,4000,0,0,0,1
5511000,0.0074569187,0.015712637,-0.0034620243,4000,0,-0.04548984,0.026336394,-9.913193,4000,0,0,0,1
5515000,-0.009321007,0.01837581,0.006657998,4000,0,-0.01436521,0.0023943766,-9.9934,4000,0,0,0,1
5519000,-0.038882095,0.0077231205,0.012517072,4000,0,-0.03232173,0.016759586,-9.871296,4000,0,0,0,1
5523000,-0.050600044,0.0045273774,0.016511673,4000,0,0.008379707,-0.019153448,-9.702503,4000,0,0,0,1
5527000,-0.0125169875,0.021305116,-0.0063919285,4000,0,0.029927526,-0.069431685,-9.658209,4000,0,0,0,1
5531000,0.036218937,0.019440942,-0.013848779,4000,0,0.019153617,-0.07182589,-9.651029,4000,0,0,0,1
5535000,0.044741187,0.010918706,0.0039945845,4000,0,0.05985505,-0.057460673,-9.618706,4000,0,0,0,1
5539000,0.024501054,0.016777975,-0.0018640513,4000,0,0.1604115,-0.17597368,-9.683351,4000,0,0,0,1
5543000,0.0055925804,0.010120106,-0.01171786,4000,0,0.18435356,-0.22146352,-9.770737,4000,0,0,0,1
5547000,0.0039947424,-0.0015979159,0.0018641963,4000,0,0.041898537,0.02274509,-9.694122,4000,0,0,0,1
5551000,0.010652638,0.0010652532,0.013315814,4000,0,-0.041898537,0.07541753,-9.7240505,4000,0,0,0,1
5555000,-0.0039947606,0.0042610327,0.0021305457,4000,0,0.05267244,-0.06584038,-9.886856,4000,0,0,0,1
5559000,-0.017310552,0.005592625,-0.001065247,4000,0,0.067037664,-0.119709924,-9.861719,4000,0,0,0,1
5563000,-0.0077231396,0.00825588,0.013315773,4000,0,-0.02873042,-0.12090703,-9.799467,4000,0,0,0,1
5567000,-0.0050599976,0.009054772,0.01784317,4000,0,0.06464346,-0.070628785,-9.768345,4000,0,0,0,1
5571000,-0.015180113,0.02370207,0.015712656,4000,0,0.14604634,0.0047885734,-9.733627,4000,0,0,0,1
5575000,-0.016778,0.038615827,0.014913641,4000,0,0.029927526,0.028730594,-9.78989,4000,0,0,0,1
5579000,0.0061252844,0.027696973,0.011717678,4000,0,-0.01436521,-0.15801714,-9.862916,4000,0,0,0,1
5583000,0.025566442,0.0045274505,0.011717685,4000,0,-0.0047884043,-0.24061713,-9.868902,4000,0,0,0,1
5587000,0.026365353,-0.009321067,0.012250424,4000,0,0.0,-0.064643286,-9.798271,4000,0,0,0,1
5591000,0.023435839,-0.009587351,0.00745684,4000,0,0.03232173,-0.0011969294,-9.77433,4000,0,0,0,1
5595000,0.010386362,-0.005592565,-0.006125281,4000,0,0.10295069,0.028730592,-9.763554,4000,0,0,0,1
5599000,-0.005059988,-0.014114657,-0.025300091,4000,0,0.22026658,0.09337404,-9.697714,4000,0,0,0,1
5603000,-0.0018641672,-0.018642183,-0.04314319,4000,0,0.043095633,0.046687108,-9.65821,4000,0,0,0,1
5607000,0.0058593,0.0053262124,-0.04314318,4000,0,-0.16400284,-0.033518665,-9.594765,4000,0,0,0,1
5611000,0.008788564,0.010918863,-0.01411475,4000,0,-0.12330139,-0.0814027,-9.532515,4000,0,0,0,1
5619000,0.03488738,0.00026630363,0.011984334,4000,0,-0.29328978,0.055066817,-9.800665,4000,0,0,0,1
5623000,0.0162452,0.02130505,0.026365545,4000,0,-0.30286658,-0.070628785,-9.704897,4000,0,0,0,1
5627000,-0.041811652,0.016777454,0.017577253,4000,0,-0.26695353,-0.16998819,-9.616313,4000,0,0,0,1
5631000,-0.039947584,0.01517961,-0.012516846,4000,0,-0.21188685,-0.20111282,-9.765951,4000,0,0,0,1
5635000,0.0063915737,0.021837616,-0.02077298,4000,0,-0.14604634,-0.14963746,-9.791088,4000,0,0,0,1
5643000,-0.014647337,-0.01491372,0.019973734,4000,0,-0.2358289,0.18794501,-9.721657,4000,0,0,0,1
5647000,0.00053266005,-0.014114686,0.013315877,4000,0,-0.34237093,0.105345055,-9.764753,4000,0,0,0,1
5651000,0.008788437,-0.010119976,0.008788472,4000,0,-0.25139117,0.022745091,-9.811439,4000,0,0,0,1
5655000,0.011451618,-0.024234774,0.014114722,4000,0,-0.1197101,-0.052672267,-9.725247,4000,0,0,0,1
5659000,0.014114829,-0.021837868,0.0037284559,4000,0,-0.15083474,-0.11013311,-9.607931,4000,0,0,0,1
5663000,0.006658093,-0.0029293487,-0.025566317,4000,0,-0.13287823,0.019153783,-9.600748,4000,0,0,0,1
5667000,-0.010652711,-0.010918806,-0.029028496,4000,0,-0.044292733,0.06943203,-9.664197,4000,0,0,0,1
5671000,-0.02663171,-0.011451351,-0.0039947997,4000,0,0.017956514,-0.0011969312,-9.734824,4000,0,0,0,1
5675000,-0.023702158,0.010120126,0.009320885,4000,0,0.095768064,0.028730594,-9.788694,4000,0,0,0,1
5679000,0.003728379,0.013848441,-0.0010653865,4000,0,0.043095633,0.043095805,-9.886856,4000,0,0,0,1
5683000,0.025299937,-0.0069242017,-0.020240152,4000,0,-0.071826056,0.0023943752,-9.885658,4000,0,0,0,1
5687000,0.022104204,-0.0154462345,-0.02956117,4000,0,-0.08020575,-0.14604615,-9.837774,4000,0,0,0,1
5691000,0.019973928,0.0053263614,-0.03195779,4000,0,0.011971008,-0.24540551,-9.853339,4000,0,0,0,1
5699000,0.00079896406,0.017576922,-0.017044174,4000,0,0.07062895,0.09457115,-9.736021,4000,0,0,0,1
5703000,-0.0031958572,-0.002396824,-0.008522098,4000,0,0.10893619,0.18435372,-9.788693,4000,0,0,0,1
5707000,-0.017044228,0.001597941,-0.00452739,4000,0,0.1376666,0.18555081,-9.799467,4000,0,0,0,1
5711000,-0.015712626,0.01917473,-0.009321164,4000,0,0.017956514,0.058658123,-9.816229,4000,0,0,0,1
5715000,0.0117179165,0.0229031,-0.0101202065,4000,0,-0.1209072,-0.049080964,-9.809044,4000,0,0,0,1
5723000,0.0029294428,-0.01145158,-0.002130656,4000,0,0.084994175,-0.12928672,-10.01375,4000,0,0,0,1
5727000,-0.016777912,-0.018908432,-0.0042611407,4000,0,0.17238253,-0.057460666,-9.937136,4000,0,0,0,1
5731000,0.016778057,-0.0042612148,-0.023702007,4000,0,0.14844054,-0.11252732,-9.65462,4000,0,0,0,1
5735000,0.023702221,0.0061252364,-0.027164176,4000,0,0.017956514,-0.17238238,-9.504981,4000,0,0,0,1
5739000,0.0015979434,0.0077232444,-0.011451535,4000,0,0.014365211,-0.09696501,-9.568429,4000,0,0,0,1
5743000,0.017310582,0.011984162,-0.0053263605,4000,0,0.2238579,-0.06584038,-9.721657,4000,0,0,0,1
5747000,0.03888214,0.016777918,-0.012250599,4000,0,0.25258827,-0.18315628,-9.77433,4000,0,0,0,1
5751000,0.02237047,0.0039948937,-0.0186422,4000,0,0.09337388,-0.14604615,-9.726444,4000,0,0,0,1
5755000,-0.0031959182,-0.018109411,-0.009054881,4000,0,-0.040701427,0.0011972747,-9.914389,4000,0,0,0,1
5759000,-0.017843299,-0.025832605,0.0063915066,4000,0,-0.052672435,0.025139296,-10.079591,4000,0,0,0,1
5763000,-0.029028485,-0.0061253076,0.004260845,4000,0,0.01436521,-0.016759243,-9.975443,4000,0,0,0,1
5767000,-0.032756906,0.033289365,-0.010919349,4000,0,0.01316811,-0.026336048,-9.896433,4000,0,0,0,1
5771000,-0.022104235,0.04953471,-0.015979266,4000,0,-0.08619127,-0.032321554,-9.831791,4000,0,0,0,1
5775000,0.0071906317,0.022104194,-0.0013318616,4000,0,-0.19033906,-0.15921426,-9.768345,4000,0,0,0,1
5779000,0.024234781,-0.008522132,0.0023966462,4000,0,-0.08619127,-0.27653015,-9.71208,4000,0,0,0,1
5783000,0.010652641,-0.010652679,0.00505995,4000,0,0.118512996,-0.22146353,-9.707291,4000,0,0,0,1
5787000,-0.0015979655,0.005858894,0.016511615,4000,0,0.10773909,-0.0933737,-9.797075,4000,0,0,0,1
5791000,-0.007456981,0.021571565,-0.0053263186,4000,0,0.056263745,-0.010773735,-9.911995,4000,0,0,0,1
5799000,-0.006391659,0.0061252536,-0.019973695,4000,0,-0.01197101,0.152032,-9.93594,4000,0,0,0,1
5803000,-0.0031958458,-0.0034621186,-0.014114742,4000,0,-0.15562311,0.06584072,-9.782708,4000,0,0,0,1
5807000,-0.0045274454,-0.01304946,0.008255809,4000,0,-0.25378537,-0.07302299,-9.63427,4000,0,0,0,1
5811000,-0.012783217,-0.016511608,0.019973679,4000,0,-0.23104046,0.020350883,-9.562441,4000,0,0,0,1
5819000,-0.018908467,-0.0066578584,0.01411475,4000,0,-0.07182605,0.09816245,-9.718066,4000,0,0,0,1
5827000,0.0034622843,-0.028762132,-0.0026630617,4000,0,0.05746084,-0.099359214,-9.849746,4000,0,0,0,1
5831000,-0.0042610615,-0.029028453,-0.00239692,4000,0,0.05267244,-0.032321557,-9.832989,4000,0,0,0,1
5835000,-0.019707548,-0.021837888,0.014114596,4000,0,0.020350713,-0.17597368,-9.787498,4000,0,0,0,1
5839000,-0.0026633176,-0.0037282817,0.02396846,4000,0,-0.02633622,-0.28610694,-9.670183,4000,0,0,0,1
5847000,0.004527302,0.022903048,0.017843377,4000,0,0.1221043,0.05746101,-9.5564575,4000,0,0,0,1
5851000,-0.03169158,0.0031955927,0.008256046,4000,0,0.2262521,-0.015562146,-9.637859,4000,0,0,0,1
5859000,-0.02849581,0.010386381,0.0013315075,4000,0,0.023942016,0.20829573,-9.706093,4000,0,0,0,1
5863000,-0.0047936444,-0.01038622,0.011718026,4000,0,0.01436521,0.22505514,-9.714474,4000,0,0,0,1
5867000,0.018109575,-0.030093633,0.012516968,4000,0,-0.039504327,0.12928708,-9.795878,4000,0,0,0,1
5871000,0.0010653316,-0.03781694,0.009054531,4000,0,-0.08619127,0.09337404,-9.917982,4000,0,0,0,1
5875000,-0.011185158,-0.022104274,-0.0042612073,4000,0,-0.13048403,0.1340755,-9.93953,4000,0,0,0,1
5879000,-0.0085220095,0.02237053,-0.010120159,4000,0,-0.13168113,0.15682039,-9.859323,4000,0,0,0,1
5883000,0.0005326969,0.02929476,-0.0045274612,4000,0,-0.08140285,0.22744934,-9.708489,4000,0,0,0,1
5887000,0.013582165,-0.014114778,0.0066577676,4000,0,0.050278246,0.22146386,-9.781511,4000,0,0,0,1
5891000,0.0023968483,-0.031159049,0.014114625,4000,0,0.13527243,0.06943203,-9.93474,4000,0,0,0,1
5895000,-0.029294832,-0.017843328,0.013315488,4000,0,0.1376666,-0.044292558,-9.793484,4000,0,0,0,1
5899000,-0.037017915,-0.013582242,0.0045272857,4000,0,0.07661447,-0.0933737,-9.731234,4000,0,0,0,1
5903000,-0.009054708,0.00026618788,-0.009321109,4000,0,-0.035913028,-0.027533151,-9.807847,4000,0,0,0,1
5907000,0.0066579576,0.01731055,0.0074567995,4000,0,-0.08738837,0.04908131,-9.801862,4000,0,0,0,1
5915000,0.03275667,0.03408867,0.007989478,4000,0,0.102950685,-0.27054465,-9.90601,4000,0,0,0,1
5919000,0.020506423,0.03621889,0.0154465,4000,0,0.10654197,-0.2573765,-9.895236,4000,0,0,0,1
5923000,0.022903271,0.016511623,0.013848276,4000,0,0.037110135,-0.13048382,-9.844959,4000,0,0,0,1
5927000,0.027430493,-0.0018639761,-0.014381236,4000,0,-0.01795651,-0.1939302,-9.716867,4000,0,0,0,1
5931000,0.010652652,-0.00079884066,-0.017310549,4000,0,-0.17597382,-0.24061714,-9.6845455,4000,0,0,0,1
5935000,-0.0002662475,0.01145163,-0.009587339,4000,0,-0.084994175,-0.052672267,-9.798271,4000,0,0,0,1
5939000,-0.00026629172,0.014647388,-0.0058589554,4000,0,0.08020575,0.013168283,-9.878479,4000,0,0,0,1
5943000,-0.00053263357,0.006657904,-0.0029294756,4000,0,0.07302317,-0.07900849,-9.855732,4000,0,0,0,1
5947000,0.015978973,-0.00053264754,0.0021304935,4000,0,0.0035913012,0.05506682,-9.793484,4000,0,0,0,1
5951000,0.01784317,0.010918917,0.010919023,4000,0,-0.1113304,0.17597403,-9.849746,4000,0,0,0,1
5955000,0.00213041,0.035686348,0.0029296826,4000,0,-0.20231009,0.08738854,-9.892841,4000,0,0,0,1
5963000,0.034088265,0.0135821,-0.021039315,4000,0,-0.008379713,0.12808998,-9.895236,4000,0,0,0,1
5967000,0.019174661,-0.00026620817,-0.021305379,4000,0,0.09457098,0.023942186,-9.722853,4000,0,0,0,1
5971000,0.009587389,0.0010652597,-0.009853689,4000,0,-0.102950685,-0.12210413,-9.624693,4000,0,0,0,1
5975000,0.017843148,-0.01065271,0.0015978562,4000,0,-0.17956513,-0.21906932,-9.7324295,4000,0,0,0,1
5979000,0.014381087,-0.0077231405,-0.003195789,4000,0,-0.02274492,-0.12928672,-9.827001,4000,0,0,0,1
5983000,-0.013582108,0.016245294,0.00079899136,4000,0,-0.005985506,-0.0059853317,-9.880873,4000,0,0,0,1
5987000,-0.029561074,0.012783181,0.0029295795,4000,0,-0.18195936,-0.07661429,-9.903616,4000,0,0,0,1
5991000,-0.014114771,-0.0031958492,-0.004260966,4000,0,-0.21428105,-0.101753406,-9.93474,4000,0,0,0,1
5995000,0.016777923,0.0069241966,0.0002663016,4000,0,-0.10773909,1.729552e-07,-9.909603,4000,0,0,0,1
6003000,0.006391467,0.023435973,-0.01571248,4000,0,-0.02633622,-0.13048382,-9.973047,4000,0,0,0,1
6007000,-0.024501244,0.0045275535,-0.023169303,4000,0,0.0011971008,-0.033518653,-9.953894,4000,0,0,0,1
6011000,-0.02343582,0.0034621672,-0.015180013,4000,0,-0.0023942017,0.12569577,-9.811439,4000,0,0,0,1
6015000,-0.021837834,0.017310677,0.0021304192,4000,0,-0.08020575,-0.084994,-9.753977,4000,0,0,0,1
6019000,-0.038349543,0.026897905,0.0002663421,4000,0,-0.064643465,-0.26815048,-9.841368,4000,0,0,0,1
6023000,-0.033023153,0.015446409,0.005859055,4000,0,0.037110135,-0.17717075,-9.959879,4000,0,0,0,1
6027000,0.00026642106,-0.0021303121,0.019707417,4000,0,-0.033518832,-0.17357945,-9.932346,4000,0,0,0,1
6031000,0.031425353,-0.00798928,0.008255823,4000,0,-0.1628057,-0.2214635,-9.823412,4000,0,0,0,1
6035000,0.026099024,-0.0069240616,-0.008255805,4000,0,-0.1436521,-0.13646935,-9.768345,4000,0,0,0,1
6039000,-0.0015978889,0.0002663484,-0.0031957955,4000,0,0.03232173,0.010774079,-9.78989,4000,0,0,0,1
6043000,-0.007723145,0.021305297,-0.0007989588,4000,0,0.19153613,0.053869717,-9.889252,4000,0,0,0,1
6051000,-0.028229581,-0.0114515,-0.0061251265,4000,0,0.044292726,-0.0861911,-9.660606,4000,0,0,0,1
6059000,-0.013848467,0.002662952,-0.014647398,4000,0,-0.30765498,-0.0059853354,-9.671379,4000,0,0,0,1
6063000,0.008521951,-0.029028624,-0.026365168,4000,0,-0.24779987,-0.010773742,-9.595963,4000,0,0,0,1
6067000,-0.004261193,-0.037816796,-0.020506494,4000,0,-0.04070143,0.0071827723,-9.526528,4000,0,0,0,1
6071000,0.002130552,-0.032490615,-0.019441007,4000,0,0.12330139,0.051475514,-9.641452,4000,0,0,0,1
6075000,0.027430542,-0.024767568,-0.012782895,4000,0,-0.062249236,0.038307402,-9.738417,4000,0,0,0,1
6079000,0.026365291,-0.017044272,-0.0079894215,4000,0,-0.18195936,0.104147956,-9.6522255,4000,0,0,0,1
6083000,0.007989577,-0.015446147,-0.023702225,4000,0,-0.009576807,0.19033921,-9.600748,4000,0,0,0,1
6087000,-0.00639156,-0.011185166,-0.02237062,4000,0,0.05267244,0.14006096,-9.637859,4000,0,0,0,1
6091000,-0.012783172,0.0031959012,0.005592583,4000,0,-0.005985504,0.06464362,-9.663,4000,0,0,0,1
6095000,-0.015978983,0.012783176,0.0071904985,4000,0,-0.077811554,-0.0071824337,-9.817425,4000,0,0,0,1
6099000,-0.007989528,-0.0055927304,-0.013582059,4000,0,-0.10893619,-0.0095766345,-9.907209,4000,0,0,0,1
6103000,0.016777799,-0.02769696,-0.0031956893,4000,0,0.0011970999,0.089782745,-9.805455,4000,0,0,0,1
6107000,0.0069240155,-0.01651172,0.020239998,4000,0,0.084994175,0.09457115,-9.682154,4000,0,0,0,1
6111000,-0.025566526,0.013315599,0.015446229,4000,0,0.1197101,-0.005985336,-9.640253,4000,0,0,0,1
6115000,-0.030360078,0.01757681,0.011451579,4000,0,0.18435356,0.023942186,-9.740809,4000,0,0,0,1
6119000,-0.025299937,-0.006657873,0.012517074,4000,0,0.096965164,0.10773926,-9.751583,4000,0,0,0,1
6123000,-0.009853623,-0.01358223,-0.0077230753,4000,0,-0.084994175,0.17717111,-9.633072,4000,0,0,0,1
6127000,0.0015979585,0.0047936495,-0.010918968,4000,0,-0.100556485,0.2681508,-9.671379,4000,0,0,0,1
6131000,-0.019973647,0.015446403,0.0055926796,4000,0,0.08619127,0.25258848,-9.733627,4000,0,0,0,1
6135000,-0.034887392,0.010120005,0.008788545,4000,0,0.19033906,0.1951276,-9.725246,4000,0,0,0,1
6139000,-0.011984195,0.006125409,0.0149136735,4000,0,0.12330139,0.1711856,-9.679759,4000,0,0,0,1
6143000,-0.0013315786,0.00798956,0.020506313,4000,0,0.027533324,0.075417526,-9.531319,4000,0,0,0,1
6147000,-0.013049564,0.018375732,0.018908473,4000,0,0.0023942017,-0.0814027,-9.558852,4000,0,0,0,1
6151000,-0.0071905674,0.033555917,0.029294675,4000,0,0.05267244,-0.24899684,-9.793484,4000,0,0,0,1
6155000,0.003994847,0.028229631,0.03408835,4000,0,-0.0035913028,-0.31124607,-9.843762,4000,0,0,0,1
6159000,-0.0005325098,0.00532629,0.019441089,4000,0,-0.09337388,-0.18195917,-9.847351,4000,0,0,0,1
6167000,-1.7423732e-08,0.0018642836,0.019973705,4000,0,0.09217678,-0.13766645,-9.792285,4000,0,0,0,1
6171000,0.037017975,-0.002130283,0.020506319,4000,0,0.14125791,-0.28371271,-9.786302,4000,0,0,0,1
6175000,0.047404397,-0.01810914,-0.0029296672,4000,0,0.17238253,-0.2059012,-9.886856,4000,0,0,0,1
6179000,0.009321095,-0.034620937,-0.010653138,4000,0,0.14365211,-0.041898366,-9.847351,4000,0,0,0,1
6187000,-0.0093209725,0.017044187,-0.012516989,4000,0,0.050278243,-0.0933737,-9.838972,4000,0,0,0,1
6195000,-0.004527559,-0.028495828,-0.03568634,4000,0,-0.10055649,0.17836823,-9.825806,4000,0,0,0,1
6203000,-0.023702167,-0.01251671,-0.009853812,4000,0,0.07541737,0.20470443,-9.855732,4000,0,0,0,1
6211000,0.0010652388,0.002929589,0.015978951,4000,0,0.095768064,-0.051475175,-9.840169,4000,0,0,0,1
6215000,0.009321034,0.007190583,0.0071905293,4000,0,0.053869545,-0.014365041,-9.78989,4000,0,0,0,1
6219000,-0.013315796,0.0066578384,0.010652698,4000,0,0.058657948,0.01197118,-9.832989,4000,0,0,0,1
6227000,-0.029561063,-0.009320967,0.019973803,4000,0,0.0035913019,0.031124793,-9.835382,4000,0,0,0,1
6235000,0.004261209,-0.014647422,-0.017843114,4000,0,-0.06344634,0.017956683,-9.70849,4000,0,0,0,1
6239000,0.0053263847,0.010918928,0.00053267437,4000,0,-0.062249243,-0.015562142,-9.737221,4000,0,0,0,1
6243000,0.0061253468,0.013582085,0.021305291,4000,0,0.067037664,0.033519,-9.704897,4000,0,0,0,1
6247000,0.00878837,0.009853757,0.0015978767,4000,0,0.14365211,0.21667545,-9.71567,4000,0,0,0,1
6251000,0.0037283944,0.01331583,-0.007456825,4000,0,0.14724344,0.20350733,-9.786301,4000,0,0,0,1
6259000,-0.03169153,-0.014647458,0.031957995,4000,0,0.18076226,-0.20709832,-9.747993,4000,0,0,0,1
6263000,-0.015179823,-0.013582399,-0.010918893,4000,0,0.0,-0.011970844,-9.651029,4000,0,0,0,1
6267000,0.014647563,-0.009055036,-0.046072584,4000,0,-0.10773909,0.10414796,-9.835382,4000,0,0,0,1
6271000,0.021038955,-0.0074570198,-0.031691592,4000,0,0.041898537,0.033519,-10.104729,4000,0,0,0,1
6275000,0.003462027,-0.012516756,-0.019973792,4000,0,0.1388637,0.011971185,-10.104729,4000,0,0,0,1
6279000,-0.022636937,-0.02370196,-0.02157173,4000,0,0.089782566,0.08140303,-9.937136,4000,0,0,0,1
6283000,-0.02556644,-0.020239897,-0.007190585,4000,0,0.06105215,0.020350892,-9.773131,4000,0,0,0,1
6291000,-0.023435818,-0.0007989668,0.0042610667,4000,0,0.089782566,-0.17238238,-9.688137,4000,0,0,0,1
6295000,-0.014913679,-0.016777901,0.0042611845,4000,0,0.19273324,-0.16041134,-9.759963,4000,0,0,0,1
6299000,0.011717915,-0.017044198,0.0037285758,4000,0,0.2238579,-0.1280896,-9.855731,4000,0,0,0,1
6303000,0.014913758,-0.0021304737,-0.009320988,4000,0,0.15442601,-0.05865778,-9.889252,4000,0,0,0,1
6307000,0.008788455,0.0045274096,-0.01251683,4000,0,0.1173159,-0.06464328,-9.773131,4000,0,0,0,1
6311000,0.002929424,-0.014381096,0.0042610113,4000,0,0.08619127,-0.0897824,-9.75757,4000,0,0,0,1
6315000,-0.00026634653,-0.02716426,0.014381042,4000,0,0.101753585,0.0011972722,-9.880873,4000,0,0,0,1
6323000,-0.0069241826,-0.013848464,0.0029294472,4000,0,-0.1101333,0.08379724,-9.78989,4000,0,0,0,1
6327000,0.0050600474,-0.0026631753,-0.00825577,4000,0,-0.24779987,-0.045489665,-9.949107,4000,0,0,0,1
6331000,0.0018642372,0.0069242227,-0.005592625,4000,0,-0.117315896,-0.13407513,-9.944317,4000,0,0,0,1
6335000,0.00079900725,0.02876214,0.0021305454,4000,0,-0.050278243,-0.05386937,-9.824609,4000,0,0,0,1
6339000,0.015978994,0.03382216,0.0053261793,4000,0,-0.14724344,0.059855223,-9.897632,4000,0,0,0,1
6343000,0.016245445,0.0015978478,0.014647214,4000,0,-0.13048401,0.09816244,-9.9945965,4000,0,0,0,1
6347000,0.0039947275,0.0026631902,-0.0018642003,4000,0,0.11252749,0.027533494,-9.959879,4000,0,0,0,1
6355000,-0.037017845,0.033023465,-0.01890817,4000,0,-0.070628956,-0.07302299,-9.770737,4000,0,0,0,1
6363000,0.0034620808,0.020240104,0.011717783,4000,0,0.051475342,0.02154799,-9.93953,4000,0,0,0,1
6367000,0.002396671,0.034887426,-0.0055926144,4000,0,0.0,0.06823493,-9.801862,4000,0,0,0,1
6371000,0.002929281,0.030892683,-0.02183793,4000,0,-0.16400284,0.028730592,-9.686939,4000,0,0,0,1
6375000,0.01438109,0.028229425,-0.018109618,4000,0,-0.21068975,0.005985674,-9.689336,4000,0,0,0,1
6379000,0.017843392,0.026365163,0.0053262822,4000,0,-0.07302316,-0.043095466,-9.794682,4000,0,0,0,1
6383000,0.0093212,0.023968348,0.020240083,4000,0,-0.0011970999,-0.123301215,-9.78989,4000,0,0,0,1
6387000,0.00079889654,0.00958738,0.0015979197,4000,0,-0.19273323,-0.088585295,-9.752781,4000,0,0,0,1
6395000,-0.027430527,0.0010653627,-0.006658019,4000,0,-0.04070143,0.08619145,-10.096348,4000,0,0,0,1
6399000,-0.021571582,0.011717885,-0.007989583,4000,0,0.019153617,0.008379881,-10.023327,4000,0,0,0,1
6403000,-0.011984323,-0.0101201115,-0.018109377,4000,0,-0.005985504,0.0143653825,-9.871296,4000,0,0,0,1
6407000,-0.00798949,-0.013049528,-0.021571582,4000,0,0.0,0.033519,-9.709686,4000,0,0,0,1
6411000,0.0066579552,-0.0034622042,-0.017576825,4000,0,-0.02274492,-0.040701255,-9.749191,4000,0,0,0,1
6415000,0.0031958069,0.0007989457,-0.00719053,4000,0,-0.05506665,-0.07422009,-9.7803135,4000,0,0,0,1
6419000,-0.012250541,0.00026633972,0.005326326,4000,0,-0.0011971034,-0.03351866,-9.745598,4000,0,0,0,1
6423000,-0.019707384,-0.00426106,0.008255819,4000,0,0.034715924,-0.016759243,-9.8988285,4000,0,0,0,1
6427000,-0.018908437,-0.008522112,0.008788462,4000,0,-0.06823475,-0.010773734,-10.020933,4000,0,0,0,1
6435000,0.009054699,6.84223e-08,0.01331584,4000,0,-0.08140285,-0.0059853313,-9.889252,4000,0,0,0,1
6443000,0.0074568144,0.004261097,-0.006657921,4000,0,0.022744918,-0.04429256,-9.7396145,4000,0,0,0,1
6447000,0.008255734,-0.012783128,-0.026099026,4000,0,0.023942016,-0.10414762,-9.668983,4000,0,0,0,1
6451000,0.0037284398,-0.010119979,-0.023968467,4000,0,-0.1197101,-0.16759399,-9.734823,4000,0,0,0,1
6455000,0.0069241673,-0.0053263814,0.0029294943,4000,0,-0.25977093,-0.10295051,-9.661802,4000,0,0,0,1
6463000,0.008788554,-0.007989288,-0.033289533,4000,0,-0.2394202,0.059855223,-9.824609,4000,0,0,0,1
6467000,0.01810945,-0.011984334,-0.031691603,4000,0,-0.2430115,-0.056263577,-9.775528,4000,0,0,0,1
6471000,0.023968203,-0.016778281,0.018642122,4000,0,-0.31483752,-0.0885853,-9.6522255,4000,0,0,0,1
6475000,0.0042610667,-0.01118534,0.010918896,4000,0,-0.27174193,-0.015562142,-9.67856,4000,0,0,0,1
6479000,-0.0023967063,-0.0143810455,-0.023169534,4000,0,-0.052672435,-0.021547649,-9.764753,4000,0,0,0,1
6483000,-0.01784326,-0.018908318,-0.01384851,4000,0,0.09816226,-0.04548967,-9.752781,4000,0,0,0,1
6487000,-0.028762186,-0.0053261723,0.0029293275,4000,0,0.053869545,0.074220434,-9.745598,4000,0,0,0,1
6491000,-0.009853721,0.014913738,0.004527214,4000,0,0.06344634,0.1472436,-9.800665,4000,0,0,0,1
6495000,-0.0031957985,0.008255801,0.0015978856,4000,0,0.062249243,0.122104466,-9.6043415,4000,0,0,0,1
6499000,-0.01837574,-0.01704422,0.023435893,4000,0,-0.12449849,0.14365228,-9.484631,4000,0,0,0,1
6507000,-0.016245253,-0.017044235,0.02077268,4000,0,-0.16400285,-0.038307063,-9.879675,4000,0,0,0,1
6515000,0.008255922,-0.018642081,-0.0010651932,4000,0,-0.06344634,-0.06105198,-9.892841,4000,0,0,0,1
6519000,0.025300194,-0.013582058,-0.026631495,4000,0,0.101753585,-0.102950506,-9.821015,4000,0,0,0,1
6523000,0.021039099,0.00505997,-0.017843042,4000,0,0.11252749,-0.1855505,-9.801862,4000,0,0,0,1
6531000,0.010120143,-0.014913731,0.027430503,4000,0,0.100556485,-0.032321557,-9.610326,4000,0,0,0,1
6535000,0.008522164,-0.023169538,0.033289477,4000,0,0.08140285,-0.0885853,-9.563639,4000,0,0,0,1
6543000,-0.00905484,0.015179957,-0.0023969035,4000,0,0.017956514,-0.10773892,-9.61272,4000,0,0,0,1
6547000,0.006391552,-0.0045274,-0.0063916063,4000,0,-0.023942016,-0.027533155,-9.599552,4000,0,0,0,1
6551000,-0.0026631693,-0.011451564,-0.01091899,4000,0,-0.0023942022,-0.034715757,-9.664197,4000,0,0,0,1
6555000,-0.014114642,0.00026634202,-0.029028513,4000,0,-0.033518832,-0.07422009,-9.793484,4000,0,0,0,1
6559000,-0.024501044,0.004261167,-0.027430583,4000,0,-0.06703766,-0.021547645,-9.842566,4000,0,0,0,1
6563000,-0.02370232,-0.02077241,0.004261261,4000,0,-0.09097968,0.020350887,-9.77433,4000,0,0,0,1
6567000,0.0018641755,-0.02636521,0.0109191835,4000,0,-0.05746084,-0.06105198,-9.713276,4000,0,0,0,1
6571000,0.021038994,0.0013316589,-0.0023966592,4000,0,0.10654198,-0.22146352,-9.758768,4000,0,0,0,1
6579000,0.01384832,0.0077232826,-0.026365325,4000,0,0.041898537,0.11013346,-9.594765,4000,0,0,0,1
6587000,-0.011451551,0.009054784,-0.014114769,4000,0,0.18674776,0.18076244,-9.878476,4000,0,0,0,1
6591000,0.004261104,0.015712596,-0.009321136,4000,0,0.26096806,0.015562482,-9.77433,4000,0,0,0,1
6595000,-0.015446243,0.027430607,0.0015980167,4000,0,0.26575646,0.08499434,-9.743204,4000,0,0,0,1
6599000,-0.027164273,0.02956107,-0.0013314842,4000,0,0.07661447,0.1532291,-9.831791,4000,0,0,0,1
6607000,-0.010386456,0.04314313,-0.028762229,4000,0,0.009576809,0.13886388,-9.913193,4000,0,0,0,1
6611000,0.0013311539,0.005059881,-0.033023234,4000,0,-0.05147534,0.1304842,-9.915586,4000,0,0,0,1
6615000,0.006391365,-0.015446391,-0.03142532,4000,0,-0.08140285,0.14365229,-9.767147,4000,0,0,0,1
6623000,-0.02689779,0.024501208,-0.018908486,4000,0,-0.02274492,1.7165979e-07,-9.835382,4000,0,0,0,1
6627000,-0.017843284,0.01944094,-0.02769691,4000,0,-0.089782566,-0.04070126,-9.78989,4000,0,0,0,1
6631000,-0.0055926945,0.01890829,-0.035420127,4000,0,-0.12569559,0.023942187,-9.746797,4000,0,0,0,1
6635000,-0.006391597,0.005326377,-0.011451563,4000,0,-0.118512996,0.14125806,-9.7001095,4000,0,0,0,1
6643000,0.014114736,-0.007989408,0.013049556,4000,0,-0.053869545,-0.023941847,-9.800665,4000,0,0,0,1
6651000,-0.002396781,-0.022903204,0.0018640643,4000,0,0.10893619,0.05267261,-9.913193,4000,0,0,0,1
6655000,-0.021837924,-0.0061252834,0.00079878623,4000,0,0.18914196,0.06943203,-9.829395,4000,0,0,0,1
6659000,-0.02876215,-0.017843148,0.006125341,4000,0,0.142455,0.07062913,-9.896433,4000,0,0,0,1
6663000,-0.012783093,-0.028762206,-0.0037282265,4000,0,-0.04429273,0.1616088,-9.90601,4000,0,0,0,1
6671000,0.004793713,0.003728414,-0.0029294558,4000,0,0.10534488,-0.07661429,-9.7240505,4000,0,0,0,1
6679000,-0.004793613,-0.0154463705,0.0330232,4000,0,0.19752167,0.033519,-9.900026,4000,0,0,0,1
6683000,-0.013315826,-0.009853804,0.024767347,4000,0,0.11013329,0.005985676,-9.824608,4000,0,0,0,1
6687000,-1.6478074e-07,0.01731058,0.0066578267,4000,0,0.04668694,-0.04668677,-9.721657,4000,0,0,0,1
6691000,0.024234632,0.01677797,-0.016778054,4000,0,0.057460845,0.008379875,-9.676167,4000,0,0,0,1
6695000,0.034887254,-0.009054783,-0.019973977,4000,0,0.01197101,0.092176944,-9.671379,4000,0,0,0,1
6703000,-0.024501372,-0.045806583,0.035685893,4000,0,-0.15442601,0.055066817,-9.653423,4000,0,0,0,1
6707000,-0.022370785,-0.023968447,0.033555683,4000,0,-0.10295069,0.06823493,-9.720461,4000,0,0,0,1
6711000,0.0050600804,-0.0013315796,-0.007456802,4000,0,0.03830723,0.07422043,-9.8281975,4000,0,0,0,1
6715000,0.013049474,-0.012516836,-0.03249058,4000,0,0.12928692,0.10773926,-9.813835,4000,0,0,0,1
6723000,-0.020506276,0.007723276,-0.005060119,4000,0,0.041898537,0.0035914718,-9.676167,4000,0,0,0,1
6727000,-0.03595267,0.013582157,-0.003728426,4000,0,-0.0047884034,0.17717111,-9.762358,4000,0,0,0,1
6731000,-0.025832657,-0.0023967775,0.0029296235,4000,0,-0.10773909,0.14125806,-9.801861,4000,0,0,0,1
6739000,-0.01331584,0.023702145,0.01810946,4000,0,-0.104147784,-0.2202664,-9.835382,4000,0,0,0,1
6747000,0.01464759,0.011718158,0.035686195,4000,0,-0.22984336,-0.13886353,-9.909603,4000,0,0,0,1
6751000,0.02476764,-0.009320933,0.033289377,4000,0,-0.12928692,-0.15682006,-9.812637,4000,0,0,0,1
6755000,0.025566544,-0.021305125,0.014114659,4000,0,0.034715924,-0.059854884,-9.593569,4000,0,0,0,1
6763000,-0.00079897756,-0.010652645,0.0007989209,4000,0,0.084994175,-0.029927356,-9.72884,4000,0,0,0,1
6767000,0.003195814,0.01171791,-0.0066578956,4000,0,0.09696517,-0.05865778,-9.719263,4000,0,0,0,1
6775000,-0.0058587906,0.03621903,-0.004793666,4000,0,-0.1376666,0.019153787,-9.804258,4000,0,0,0,1
6783000,-0.02370222,0.012250543,-0.009054525,4000,0,0.26096803,-0.023941848,-9.747993,4000,0,0,0,1
6787000,-0.0042610806,-0.012783128,0.004261177,4000,0,0.101753585,0.04189871,-9.758768,4000,0,0,0,1
6791000,0.011451512,-0.004527329,0.021039028,4000,0,-0.11252749,0.00239437,-9.661802,4000,0,0,0,1
6795000,0.015978912,-2.5805612e-08,0.0359527,4000,0,-0.142455,-0.044292565,-9.670182,4000,0,0,0,1
6799000,0.010919056,-0.007989483,0.024234725,4000,0,0.011971012,0.045490008,-9.686939,4000,0,0,0,1
6803000,-0.005592524,-0.015979035,0.0055925646,4000,0,0.21068975,0.19273342,-9.611523,4000,0,0,0,1
6807000,-0.0146473935,-0.010120033,0.004527316,4000,0,0.15801731,0.1604117,-9.674969,4000,0,0,0,1
6811000,-0.005060052,0.008788473,0.009587321,4000,0,0.005985504,-0.050278068,-9.818621,4000,0,0,0,1
6815000,0.018908482,0.0018642995,0.015179961,4000,0,-0.033518832,-0.01556214,-9.853339,4000,0,0,0,1
6819000,0.026365401,-0.019441014,0.011451454,4000,0,-0.10773909,0.22984354,-9.816229,4000,0,0,0,1
6823000,0.0063915816,-0.011717954,0.007723106,4000,0,-0.12689269,0.20590155,-9.836577,4000,0,0,0,1
6831000,0.009853647,0.01358215,-0.004261084,4000,0,0.08020576,0.11492186,-9.753978,4000,0,0,0,1
6835000,0.009587327,0.03515379,-0.0226368,4000,0,0.29927528,0.09337404,-9.715671,4000,0,0,0,1
6843000,0.011185082,-0.002663256,-0.015180148,4000,0,0.088585466,-0.215478,-9.763555,4000,0,0,0,1
6847000,0.01970729,-0.025300026,-0.028495904,4000,0,0.06344634,-0.022744749,-9.69532,4000,0,0,0,1
6851000,0.0034622585,-0.012250367,-0.031425357,4000,0,0.084994175,0.07900883,-9.664197,4000,0,0,0,1
6859000,0.02583266,0.0005324948,0.016777927,4000,0,0.05865795,-0.23822294,-9.7324295,4000,0,0,0,1
6863000,0.0013315915,-0.0018642424,0.004261042,4000,0,-0.011971008,-0.04189837,-9.870098,4000,0,0,0,1
6867000,-0.01358211,-0.0010652755,-0.017843189,4000,0,0.05626375,0.270545,-9.9383335,4000,0,0,0,1
6871000,-0.023435764,0.007456856,-0.030093765,4000,0,0.14125791,0.18435374,-9.923965,4000,0,0,0,1
6875000,-0.026897885,0.010120102,-0.023169516,4000,0,0.099359386,0.06224942,-9.967064,4000,0,0,0,1
6879000,-0.016245227,0.013848434,-0.014647457,4000,0,0.12928693,0.044292904,-9.9467125,4000,0,0,0,1
6883000,-0.013315704,0.020506412,0.0005325826,4000,0,0.18076226,-0.08259979,-9.762358,4000,0,0,0,1
6887000,-0.00026625796,0.019441117,0.009054664,4000,0,-0.03232173,-0.07422009,-9.603146,4000,0,0,0,1
6891000,0.015978837,0.016511647,-0.012250647,4000,0,-0.16400284,-0.07062879,-9.58399,4000,0,0,0,1
6895000,0.009587364,0.033023305,-0.027430438,4000,0,-0.100556485,-0.18076208,-9.795878,4000,0,0,0,1
6899000,0.0077234115,0.046338987,-0.01624522,4000,0,-0.12689269,-0.14844035,-9.998186,4000,0,0,0,1
6903000,0.023702374,0.027696732,0.0058586607,4000,0,-0.14724344,0.06584072,-9.889252,4000,0,0,0,1
6907000,0.046072654,0.0117180105,-0.0013319135,4000,0,-0.20949265,0.3148377,-9.755177,4000,0,0,0,1
6915000,0.010918847,-0.029294668,-0.011185673,4000,0,-0.023942018,-0.124498345,-9.810242,4000,0,0,0,1
6919000,-0.005326305,-0.03994734,-0.01704443,4000,0,-0.062249243,-0.22984321,-9.885659,4000,0,0,0,1
6923000,0.0061251298,-0.035420094,-0.0045272294,4000,0,-0.100556485,-0.009576639,-9.806652,4000,0,0,0,1
6927000,0.013581941,-0.020240074,0.012783295,4000,0,-0.10295069,0.17717111,-9.645043,4000,0,0,0,1
6931000,0.003195892,-0.016777888,-0.0039947983,4000,0,-0.2430115,0.1675943,-9.567232,4000,0,0,0,1
6935000,-0.001331494,-0.01997369,-0.020240057,4000,0,-0.26216513,0.0383074,-9.672577,4000,0,0,0,1
6939000,0.0045272796,-0.011451624,0.002663196,4000,0,-0.1197101,0.02154799,-9.911995,4000,0,0,0,1
6943000,0.00026623826,-0.0018642443,0.020772656,4000,0,-0.077811554,-0.020350538,-10.023327,4000,0,0,0,1
6947000,-0.01518004,0.002130423,0.01118527,4000,0,-0.02513912,-0.06584038,-9.941923,4000,0,0,0,1
6951000,-0.026365248,-0.008522105,0.021571668,4000,0,0.004788405,0.07541753,-9.743204,4000,0,0,0,1
6955000,-0.022370543,-0.019707164,0.044474903,4000,0,-0.1376666,0.15921459,-9.767147,4000,0,0,0,1
6959000,-0.007457065,-0.00026618122,0.033023153,4000,0,-0.1388637,0.11611897,-9.916785,4000,0,0,0,1
6963000,-0.0013318771,0.026897926,0.0039946754,4000,0,-0.010773908,0.119710274,-9.944317,4000,0,0,0,1
6967000,-0.0061254604,0.022104222,-0.017843137,4000,0,-0.01316811,0.19273344,-9.93594,4000,0,0,0,1
6971000,-0.016778054,-0.0013315163,-0.01757674,4000,0,-0.053869545,0.11372476,-9.786302,4000,0,0,0,1
6975000,-0.009054809,-0.011185291,-0.011984168,4000,0,-0.08619127,-0.059854884,-9.67976,4000,0,0,0,1
6979000,0.004527394,-0.017310638,-0.023702065,4000,0,-0.07302317,-0.039504156,-9.785105,4000,0,0,0,1
6987000,0.007723337,0.0053263092,-0.028495785,4000,0,-0.020350715,0.07781173,-9.817424,4000,0,0,0,1
6991000,0.0013315275,0.00053270505,-0.03275688,4000,0,-0.037110135,0.011971178,-9.718066,4000,0,0,0,1
6995000,-0.005859059,-0.009320995,-0.014114757,4000,0,-0.05267244,0.010774077,-9.664197,4000,0,0,0,1
6999000,-0.0034621062,0.005326353,0.006924198,4000,0,-0.033518832,0.116118975,-9.63427,4000,0,0,0,1
7003000,0.0037284286,0.02157165,0.02956106,4000,0,-0.0011971011,0.16160879,-9.641453,4000,0,0,0,1
7007000,0.01677799,0.018642247,0.036218904,4000,0,-0.04548984,0.052672606,-9.806652,4000,0,0,0,1
7011000,0.025033774,0.006924393,0.02290307,4000,0,-0.053869545,0.028730594,-9.925163,4000,0,0,0,1
7015000,0.006924187,0.0045274193,0.001065286,4000,0,-0.009576809,0.092176944,-9.831791,4000,0,0,0,1
7019000,-0.0045273863,0.0029294926,-0.0071905213,4000,0,0.1125275,0.04549001,-9.803061,4000,0,0,0,1
7023000,0.006125286,0.0034621058,0.007190524,4000,0,0.2346318,0.10773926,-9.873688,4000,0,0,0,1
7027000,-0.0034620888,-0.005858977,0.0063915793,4000,0,0.1448492,0.18435374,-10.040087,4000,0,0,0,1
7031000,-0.027430516,-0.018375877,-0.0037284582,4000,0,0.035913024,0.08020594,-10.200497,4000,0,0,0,1
7039000,0.0021305208,-0.022636985,-0.0138482535,4000,0,0.101753585,-0.027533153,-9.736021,4000,0,0,0,1
7043000,0.009853668,-0.035686392,-0.017843131,4000,0,0.039504327,-0.14963746,-9.765951,4000,0,0,0,1
7047000,0.0034620988,-0.021038966,-0.009587408,4000,0,-0.025139121,-0.29089534,-9.785105,4000,0,0,0,1
7051000,0.0037283995,-1.6283092e-08,0.003728452,4000,0,0.023942016,-0.16639687,-9.740809,4000,0,0,0,1
7055000,0.01438107,0.0023968595,0.0031957966,4000,0,0.06344634,0.017956687,-9.824608,4000,0,0,0,1
7059000,0.01997373,-0.013582135,0.006924139,4000,0,0.03232173,0.12689286,-9.787498,4000,0,0,0,1
7063000,0.014381037,-0.00692426,0.011185297,4000,0,-0.04668694,0.20949282,-9.64983,4000,0,0,0,1
7067000,0.012516791,0.013582134,0.0074569467,4000,0,-0.077811554,0.15921459,-9.680956,4000,0,0,0,1
7071000,0.013582134,0.009853697,0.007723147,4000,0,-0.051475342,0.08020593,-9.792285,4000,0,0,0,1
7075000,0.014647447,-0.021571573,0.0010651186,4000,0,-0.08020575,0.047884203,-9.824609,4000,0,0,0,1
7079000,0.012516889,-0.021837905,-0.0031958106,4000,0,-0.002394203,0.092176944,-9.843762,4000,0,0,0,1
7083000,-0.0039947145,0.0055926554,-0.002929483,4000,0,0.12928692,0.051475517,-9.822214,4000,0,0,0,1
7087000,-0.015180016,-0.0042610387,0.0039947764,4000,0,0.043095633,-0.101753406,-9.852142,4000,0,0,0,1
7091000,-0.0010652823,-0.0042609763,0.01651162,4000,0,-0.12569559,-0.11731573,-9.854535,4000,0,0,0,1
7095000,0.006924093,0.019174807,0.015180022,4000,0,-0.10654198,-0.15203167,-9.720461,4000,0,0,0,1
7099000,-0.01225066,0.026365232,0.0026633006,4000,0,0.08020575,-0.1927331,-9.722853,4000,0,0,0,1
7103000,-0.020240042,0.021305276,0.00026640738,4000,0,0.18794486,-0.15682006,-9.7240505,4000,0,0,0,1
7107000,-0.011984206,0.004261077,0.002929534,4000,0,0.142455,-0.12569542,-9.664197,4000,0,0,0,1
7115000,-0.038615845,-0.010119933,-0.01890847,4000,0,0.16400284,-0.040701255,-9.886856,4000,0,0,0,1
7119000,-0.027430706,-0.009320573,0.024767429,4000,0,0.10893619,-0.06105198,-9.8198185,4000,0,0,0,1
7123000,0.008788338,-0.0034616748,0.03968116,4000,0,0.058657948,0.0035914727,-9.7240505,4000,0,0,0,1
7131000,0.0013315115,0.011185364,-0.0074567352,4000,0,0.0011971011,-0.043095466,-9.836577,4000,0,0,0,1
7135000,-0.026631678,-0.0050599338,-0.0149136055,4000,0,-0.01436521,0.0035914741,-9.809044,4000,0,0,0,1
7139000,-0.0071905917,-0.013582149,-0.0069241123,4000,0,0.07182605,0.06224941,-9.704897,4000,0,0,0,1
7143000,0.0069242185,0.015712654,0.008255795,4000,0,0.16519994,-0.03351866,-9.694122,4000,0,0,0,1
7147000,-0.006391547,0.017843124,0.01704431,4000,0,0.08738836,-0.13287804,-9.670182,4000,0,0,0,1
