timestamp,timestamp_sample,time_last_fuse,device_id,observation[0],observation[1],observation[2],observation_variance[0],observation_variance[1],observation_variance[2],innovation[0],innovation[1],innovation[2],innovation_filtered[0],innovation_filtered[1],innovation_filtered[2],innovation_variance[0],innovation_variance[1],innovation_variance[2],test_ratio[0],test_ratio[1],test_ratio[2],test_ratio_filtered[0],test_ratio_filtered[1],test_ratio_filtered[2],estimator_instance,innovation_rejected,fused
4275000,4246000,0,0,0.013951082,-0.21516953,0.4289993,0.0025000002,0.0025000002,0.0025000002,-0.013951082,0.21516953,-0.4289993,-0.013951082,0.21516953,-0.4289993,0.0075000003,0.0075000003,0.0075000003,0.002883447,0.68589526,2.7265244,0.002883447,0.68589526,2.7265244,0,1,0
4475000,4317000,0,0,0.012479588,-0.21561667,0.42951864,0.0025000002,0.0025000002,0.0025000002,-0.012479588,0.21561667,-0.42951864,-0.013768111,0.21522513,-0.4290639,0.0075000008,0.0075000008,0.0075000003,0.0023072609,0.6887488,2.7331295,0.0022380175,0.6862501,2.0476532,0,1,0
4539000,4387000,0,0,0.016791075,-0.21681193,0.43037003,0.0025000002,0.0025000002,0.0025000002,-0.016791075,0.21681193,-0.43037003,-0.014139352,0.21542,-0.42922428,0.0075000003,0.0075000008,0.0075,0.004176892,0.696406,2.7439759,0.0014502216,0.6874973,1.4592075,0,1,0
4611000,4454636,0,0,0.011570923,-0.21600126,0.42854628,0.0025000002,0.0025000002,0.0025000002,-0.011570923,0.21600126,-0.42854628,-0.013833314,0.21548925,-0.4291435,0.007500001,0.0075000008,0.0075000003,0.0019834999,0.69120795,2.720769,0.0010410806,0.68793947,0.96114737,0,1,0
4683000,4525000,0,0,0.0037635555,-0.21648842,0.4324953,0.0025000002,0.0025000002,0.0025000002,-0.0037635555,0.21648842,-0.4324953,-0.01259104,0.21561252,-0.429557,0.0075000003,0.0075,0.0075000003,0.00020984223,0.6943295,2.7711432,0.0008867582,0.6887278,0.50070655,0,1,0
4747000,4592200,0,0,0.010774803,-0.21790414,0.42783356,0.0025000002,0.0025000002,0.0025000002,-0.010774803,0.21790414,-0.42783356,-0.012375858,0.21588401,-0.42935282,0.0075000008,0.0075000003,0.0075000003,0.0017199463,0.7034401,2.7117267,0.0005779244,0.6904709,0.12010798,0,1,0
4819000,4663000,0,0,0.009761758,-0.215967,0.43045494,0.0025000002,0.0025000002,0.0025000002,-0.009761758,0.215967,-0.43045494,-0.012051614,0.21589431,-0.42948952,0.0075000003,0.0075000003,0.0075000008,0.0014117322,0.6909888,2.745058,0.0003311345,0.6905351,-0.235277,0,1,0
4883000,4729666,0,0,0.010909845,-0.21575677,0.42884073,0.0025000002,0.0025000002,0.0025000002,-0.010909845,0.21575677,-0.42884073,-0.011917289,0.21587813,-0.4294132,0.0075000008,0.0075000003,0.0075000008,0.0017633289,0.6896442,2.7245088,8.4729225e-05,0.69043034,-0.52812517,0,1,0
4955000,4801000,0,0,0.0095986,-0.21359527,0.42859185,0.0025000002,0.0025000002,0.0025000002,-0.0095986,0.21359527,-0.42859185,-0.011627789,0.2155931,-0.42931065,0.0075000008,0.0075000008,0.0075000003,0.0013649348,0.67589533,2.7213476,-9.626882e-05,0.68861556,-0.80196035,0,1,0
5027000,4872333,0,0,0.009572063,-0.21829835,0.4264456,0.0025000002,0.0025000002,0.0025000002,-0.009572063,0.21829835,-0.4264456,-0.011371124,0.21593086,-0.42895293,0.0075000008,0.0075000003,0.0075000003,0.001357398,0.70598763,2.6941607,-0.0002537254,0.6907845,-1.0382085,0,1,0
5099000,4943000,0,0,0.01080786,-0.21745877,0.42956632,0.0025000002,0.0025000002,0.0025000002,-0.01080786,0.21745877,-0.42956632,-0.011301373,0.21612006,-0.4290289,0.0075000003,0.0075000003,0.0075,0.001730516,0.70056766,2.733737,-0.00043659972,0.691996,-1.2481697,0,1,0
5163000,5010000,0,0,0.012250412,-0.21578541,0.4320097,0.0025000002,0.0025000002,0.0025000002,-0.012250412,0.21578541,-0.4320097,-0.011413517,0.21608052,-0.42938113,0.0075000008,0.0075000008,0.0075000008,0.0022232975,0.68982726,2.7649238,-0.00064772624,0.69173974,-1.4273981,0,1,0
5235000,5081400,0,0,0.0115963435,-0.21453379,0.42901888,0.0025000002,0.0025000002,0.0025000002,-0.0115963435,0.21453379,-0.42901888,-0.011436363,0.21588725,-0.42933586,0.0075000008,0.0075000003,0.0075000003,0.0019922245,0.6818481,2.7267733,-0.0008157297,0.6905037,-1.5897632,0,1,0
5307000,5153000,0,0,0.0076342523,-0.21633966,0.42942154,0.0025000002,0.0025000002,0.0025000002,-0.0076342523,0.21633966,-0.42942154,-0.010960101,0.21594392,-0.4293466,0.0075000003,0.0075000003,0.0075000008,0.00086343416,0.6933755,2.731894,-0.0008217053,0.69086343,-1.7328292,0,1,0
5379000,5224600,0,0,0.008114073,-0.21669789,0.42623702,0.0025000002,0.0025000002,0.0025000002,-0.008114073,0.21669789,-0.42623702,-0.010603601,0.21603836,-0.42895707,0.0075000003,0.0075000003,0.0075000008,0.00097538054,0.69567364,2.6915255,-0.00084095506,0.691466,-1.8529178,0,1,0
5451000,5295500,0,0,0.009907311,-0.2172062,0.42882845,0.0025000002,0.0025000002,0.0025000002,-0.009907311,0.2172062,-0.42882845,-0.010517129,0.2161834,-0.4289411,0.0075000003,0.0075000008,0.0075000003,0.0014541452,0.6989411,2.724353,-0.00091710704,0.6923943,-1.9611412,0,1,0
5523000,5367800,0,0,0.011770721,-0.21623595,0.42969188,0.0025000002,0.0025000002,0.0025000002,-0.011770721,0.21623595,-0.42969188,-0.010675498,0.21619004,-0.42903596,0.0075000008,0.0075000003,0.0075000008,0.0020525903,0.6927109,2.7353346,-0.0010605552,0.6924343,-2.0589468,0,1,0
5595000,5439000,0,0,0.009371699,-0.21716179,0.42773646,0.0025000002,0.0025000002,0.0025000002,-0.009371699,0.21716179,-0.42773646,-0.01051298,0.21631117,-0.428874,0.0075000008,0.0075000008,0.0075000003,0.0013011664,0.69865537,2.710496,-0.0010905474,0.69320977,-2.1401625,0,1,0
5667000,5510200,0,0,0.01117337,-0.21713255,0.42783722,0.0025000002,0.0025000002,0.0025000002,-0.01117337,0.21713255,-0.42783722,-0.010595297,0.21641356,-0.42874476,0.0075000008,0.0075000008,0.0075000003,0.0018495434,0.69846725,2.711773,-0.0011851562,0.6938651,-2.2114136,0,1,0
5739000,5582000,0,0,0.010831021,-0.21524303,0.4297354,0.0025000002,0.0025000002,0.0025000002,-0.010831021,0.21524303,-0.4297354,-0.010624897,0.21626657,-0.42886916,0.0075000008,0.0075000003,0.0075000008,0.0017379407,0.6863639,2.7358885,-0.0012545685,0.6929232,-2.277271,0,1,0
5811000,5653400,0,0,0.013316511,-0.21663423,0.4292625,0.0025000002,0.0025000002,0.0025000002,-0.013316511,0.21663423,-0.4292625,-0.010961231,0.21631251,-0.4289183,0.0075000003,0.0075,0.0075000008,0.0026271031,0.69526505,2.7298706,-0.0014260752,0.69321585,-2.333826,0,1,0
5883000,5725000,0,0,0.011093318,-0.21603498,0.4289777,0.0025000002,0.0025000002,0.0025000002,-0.011093318,0.21603498,-0.4289777,-0.010977777,0.21627775,-0.42892575,0.0075000003,0.0075000008,0.0075000003,0.0018231365,0.6914238,2.7262497,-0.001475812,0.6929914,-2.382982,0,1,0
5955000,5795800,0,0,0.011326311,-0.2139896,0.4322838,0.0025000002,0.0025000002,0.0025000002,-0.011326311,0.2139896,-0.4322838,-0.011021008,0.21599394,-0.42934227,0.0075000003,0.0075000003,0.0075000008,0.0019005232,0.67839324,2.7684333,-0.0015284917,0.69118065,-2.430792,0,1,0
6027000,5868000,0,0,0.0076824017,-0.21429586,0.4299731,0.0025000002,0.0025000002,0.0025000002,-0.0076824017,0.21429586,-0.4299731,-0.010599744,0.21577968,-0.42942187,0.0075000008,0.0075000003,0.007500001,0.0008743598,0.68033653,2.738916,-0.0014459536,0.68981236,-2.469671,0,1,0
6091000,5939000,0,0,0.007502836,-0.21918765,0.429929,0.0025000002,0.0025000002,0.0025000002,-0.007502836,0.21918765,-0.429929,-0.010214664,0.21620344,-0.42948493,0.0075000003,0.0075000008,0.007500001,0.0008339637,0.7117514,2.7383542,-0.0013698568,0.69254035,-2.50308,0,1,0
6163000,6011000,0,0,0.01108777,-0.21717659,0.42713636,0.0025000002,0.0025000002,0.0025000002,-0.01108777,0.21717659,-0.42713636,-0.010324566,0.21632592,-0.4291893,0.0075000003,0.0075000003,0.007500001,0.001821313,0.6987506,2.7028954,-0.0014266834,0.69332206,-2.5282314,0,1,0
6235000,6082200,0,0,0.009028042,-0.21299879,0.42939702,0.0025000002,0.0025000002,0.0025000002,-0.009028042,0.21299879,-0.42939702,-0.010162954,0.2159112,-0.4292152,0.0075,0.0075000003,0.0075,0.0012074895,0.6721257,2.7315824,-0.001399361,0.69067997,-2.553579,0,1,0
6307000,6154000,0,0,0.010300393,-0.21702261,0.42746165,0.0025000002,0.0025000002,0.0025000002,-0.010300393,0.21702261,-0.42746165,-0.010180213,0.21605076,-0.428995,0.0075000008,0.007500001,0.0075000008,0.0015718235,0.6977601,2.7070138,-0.0014210168,0.69156903,-2.5728457,0,1,0
6379000,6225400,6227000,0,0.010042251,-0.21349578,0.42809272,0.0025000002,0.0025000002,0.0025000002,0.0,0.0,0.0,0.0,0.0,0.0,0.0025000002,0.0025000002,0.0025000002,0.0,0.0,0.0,0.0,0.0,0.0,0,0,1
6451000,6297000,6299000,0,0.009021245,-0.21625283,0.42861965,0.0025000002,0.0025000002,0.0025000002,0.001641932,-0.0009520352,0.0019816756,0.00020567235,-0.00011588882,0.00024820707,0.011866269,0.0076127322,0.0075271064,2.5243735e-05,1.2486853e-05,5.7958372e-05,3.1620912e-06,-1.5641333e-06,7.2600055e-06,0,0,1
6523000,6367800,6371000,0,0.009519245,-0.21326481,0.43026897,0.0025000002,0.0025000002,0.0025000002,-0.00033415266,-0.0033557862,-0.0010153651,0.00013871437,-0.0005178731,9.267188e-05,0.004460831,0.0041805175,0.0041698446,2.781196e-06,0.00029947574,2.6953621e-05,2.424907e-06,-3.851603e-05,3.0162691e-06,0,0,1
6595000,6440000,6443000,0,0.011174678,-0.21427365,0.42966074,0.0025000002,0.0025000002,0.0025000002,-0.001869292,-0.0011644214,-7.325411e-05,-0.000114655224,-0.00059988827,7.200286e-05,0.003593322,0.0035056365,0.0035012378,0.00010804773,4.3228723e-05,1.6058286e-07,-1.1514494e-05,-3.9110677e-05,2.615415e-06,0,0,1
6667000,6511800,6515000,0,0.007818301,-0.2152611,0.42595688,0.0025000002,0.0025000002,0.0025000002,0.0024274234,5.2824616e-05,0.0035945773,0.00020454948,-0.0005174773,0.0005144647,0.003259381,0.0032177416,0.0032150415,0.00020086922,1.0990129e-07,0.0004468221,1.5154188e-05,-3.418581e-05,5.8393733e-05,0,0,1
6739000,6582500,6587000,0,0.010256942,-0.21780172,0.42891124,0.0025000002,0.0025000002,0.0025000002,-0.00039244324,0.0025639832,-0.00016781688,0.00013059226,-0.00013580555,0.00042944233,0.003082061,0.0030578172,0.0030560617,5.5522623e-06,0.00023877503,1.0737006e-06,1.2589012e-05,-3.7061545e-07,5.102673e-05,0,0,1
6811000,6654200,6659000,0,0.011381298,-0.21521766,0.42797795,0.0025000002,0.0025000002,0.0025000002,-0.0014763194,-0.00076787174,0.0006495416,-7.093925e-05,-0.0002153689,0.00045704082,0.0029732788,0.0029566337,0.0029550383,8.1448394e-05,2.2293192e-05,1.5861806e-05,7.9527035e-07,-3.1200448e-06,4.6616507e-05,0,0,1
6883000,6726000,6731000,0,0.008754662,-0.21562307,0.43054864,0.0025000002,0.0025000002,0.0025000002,0.0016393563,-0.00039295852,-0.0021017492,0.0001438198,-0.0002373177,0.00013595153,0.0028986179,0.0028867708,0.0028851393,0.000103018014,5.8592436e-06,0.00016984383,1.3631216e-05,-3.4640016e-06,1.943593e-05,0,0,1
6955000,6797400,6803000,0,0.011216597,-0.21793106,0.42717925,0.0025000002,0.0025000002,0.0025000002,-0.0013294953,0.0019537508,0.0015503466,-4.0280152e-05,3.6155194e-05,0.00031226955,0.00284466,0.0028356996,0.0028339203,6.904e-05,0.00014918197,9.38309e-05,3.300931e-06,1.5610067e-05,2.8732047e-05,0,0,1
7027000,6869000,6875000,0,0.009563755,-0.21785943,0.42913902,0.0025000002,0.0025000002,0.0025000002,0.00057126733,0.0017189682,-0.0005606413,3.6323763e-05,0.00024709926,0.00020277384,0.002804064,0.0027968134,0.002794795,1.2931484e-05,0.00011755467,1.2550672e-05,4.5072775e-06,2.8379895e-05,2.3560875e-05,0,0,1
7099000,6940600,6947000,0,0.009960364,-0.21660788,0.4320332,0.0025000002,0.0025000002,0.0025000002,0.0002035776,0.00047542155,-0.0033038557,5.727438e-05,0.0002757597,-0.00023650809,0.0027723366,0.0027662714,0.002763944,1.6610071e-06,9.0970525e-06,0.00043887558,4.150747e-06,2.596448e-05,-3.436503e-05,0,0,1
7171000,7012000,7019000,0,0.009326514,-0.21780697,0.42923892,0.0025000002,0.0025000002,0.0025000002,0.0007911583,0.0014898926,-0.0002643168,0.00014897776,0.00042765378,-0.00023999266,0.0027463117,0.0027411797,0.0027388763,2.5324123e-05,9.015162e-05,2.8358963e-06,6.796493e-06,3.3985063e-05,-3.0425268e-05,0,0,1
7235000,7083000,7083000,0,0.010446912,-0.21499117,0.42845988,0.0025000002,0.0025000002,0.0025000002,-0.00011011821,-0.0013778508,0.0005683303,0.00011676092,0.00020311981,-0.00013940262,0.0027253747,0.002720841,0.0027182698,4.9436716e-07,7.755694e-05,1.32329415e-05,5.8899236e-06,2.0115567e-05,-2.4996663e-05,0,0,1
7307000,7155000,7155000,0,0.012357036,-0.2150921,0.4287299,0.0025000002,0.0025000002,0.0025000002,-0.002102342,-0.0014744997,9.915233e-05,-0.00016256666,-8.620016e-06,-0.00010954935,0.0027080113,0.002703986,0.0027010245,0.00018134841,8.9890185e-05,3.9318542e-07,-1.7678536e-05,6.2686895e-06,-2.1800739e-05,0,0,1
7379000,7226200,7227000,0,0.008473237,-0.21446748,0.42833003,0.0025000002,0.0025000002,0.0025000002,0.0021519035,-0.0021286607,0.0004157126,0.00012593172,-0.00027226214,-4.3610962e-05,0.0026934242,0.0026897644,0.0026863676,0.00019102856,0.00018630497,7.276659e-06,8.336774e-06,-1.7735587e-05,-1.8176246e-05,0,0,1
7451000,7298000,7299000,0,0.011737255,-0.2143323,0.429902,0.0025000002,0.0025000002,0.0025000002,-0.0014412318,-0.0020767301,-0.001159966,-7.085448e-05,-0.0004992967,-0.00018385073,0.00268103,0.00267764,0.002673761,8.608421e-05,0.00017958383,5.5961555e-05,-3.519518e-06,-3.8058613e-05,-2.2920885e-05,0,0,1
7523000,7369400,7371000,0,0.007707558,-0.21628074,0.4295567,0.0025000002,0.0025000002,0.0025000002,0.0030324182,-0.00029182434,-0.000897944,0.00031691883,-0.00047255025,-0.0002726792,0.002669938,0.0026667411,0.0026627057,0.0003826789,3.3902425e-06,3.340538e-05,4.473839e-05,-3.3726585e-05,-2.4230989e-05,0,0,1
7595000,7441000,7443000,0,0.009044728,-0.21397893,0.43244505,0.0025000002,0.0025000002,0.0025000002,0.0014296249,-0.0027047247,-0.0037956834,0.00045629905,-0.0007517403,-0.00071370916,0.0026607884,0.002657651,0.0026531087,8.53476e-05,0.00030509627,0.0006026842,4.9825197e-05,-6.7719004e-05,-9.668944e-05,0,0,1
7667000,7512600,7515000,0,0.010243282,-0.21265225,0.4342676,0.0025000002,0.0025000002,0.0025000002,0.0001722576,-0.004169032,-0.0055507123,0.00042071933,-0.0011797496,-0.0013194534,0.0026528072,0.0026497312,0.0026446509,1.242821e-06,0.00072869763,0.0012938972,4.3739652e-05,-0.00015051477,-0.00024665456,0,0,1
7739000,7584000,7587000,0,0.010431943,-0.21902737,0.43052503,0.0025000002,0.0025000002,0.0025000002,-0.00017371017,0.0024899393,-0.0014726818,0.00034644164,-0.0007212532,-0.0013387243,0.002645829,0.002642794,0.002637123,1.267203e-06,0.00026056936,9.150227e-05,3.8115766e-05,-9.914723e-05,-0.0002272673,0,0,1
7811000,7655800,7659000,0,0.007844834,-0.21300589,0.43016863,0.0025000002,0.0025000002,0.0025000002,0.0023725918,-0.0039423555,-0.0011857748,0.000600862,-0.0011249055,-0.0013189284,0.002639825,0.0026366862,0.0026304165,0.00023693455,0.00065280043,5.8923575e-05,6.308112e-05,-0.00016866857,-0.00020612865,0,0,1
7883000,7727000,7731000,0,0.01265239,-0.21634944,0.4280128,0.0025000002,0.0025000002,0.0025000002,-0.0023466097,-0.00062932074,0.0009109378,0.0002334601,-0.0010639753,-0.0010413666,0.0026344804,0.0026313064,0.0026243986,0.00023224387,1.70857e-05,3.4891003e-05,2.6268903e-05,-0.00014977378,-0.00017608558,0,0,1
7955000,7798200,7803000,0,0.01291931,-0.2149186,0.4292844,0.0025000002,0.0025000002,0.0025000002,-0.0022531569,-0.002089858,-0.00043931603,-7.649633e-05,-0.0011926779,-0.00096670206,0.0026294123,0.0026260966,0.0026188456,0.00021452684,0.00018596686,8.302809e-06,-3.7462505e-06,-0.00015428524,-0.00015517148,0,0,1
8027000,7870000,7875000,0,0.009018362,-0.21619079,0.4267518,0.0025000002,0.0025000002,0.0025000002,0.0019474911,-0.0008505732,0.0020439923,0.00017765252,-0.0011489704,-0.0005882635,0.0026252684,0.002621839,0.002613922,0.00016052208,3.023144e-05,0.00017813338,1.6880658e-05,-0.00013870801,-0.00011331892,0,0,1
8099000,7940600,7947000,0,0.009698949,-0.21318737,0.4288602,0.0025000002,0.0025000002,0.0025000002,0.0015990215,-0.003582254,-4.324317e-05,0.00035351765,-0.0014494122,-0.00052038993,0.0026216423,0.00261807,0.0026094415,0.0001083659,0.0005430799,6.7108026e-08,2.8200073e-05,-0.00018874071,-9.9306344e-05,0,0,1
8163000,8007571,8011000,0,0.011456637,-0.21838136,0.42949563,0.0025000002,0.0025000002,0.0025000002,-1.3817858e-05,0.0016973019,-0.00071159005,0.00031012774,-0.001077726,-0.0005430473,0.00261816,0.0026145163,0.0026053085,8.102943e-09,0.00012242331,2.1632737e-05,2.4868104e-05,-0.00015198582,-9.0131485e-05,0,0,1
8235000,8079000,8083000,0,0.011308197,-0.21772408,0.4286937,0.0025000002,0.0025000002,0.0025000002,0.00031079154,0.0008715093,6.121397e-05,0.00031021071,-0.0008339406,-0.00046750696,0.0026153994,0.0026115708,0.0026015928,4.103532e-06,3.2392058e-05,1.6034348e-07,2.227252e-05,-0.00012893847,-7.884495e-05,0,0,1
8307000,8149857,8155000,0,0.010351373,-0.21725504,0.4266575,0.0025000002,0.0025000002,0.0025000002,0.0017057558,0.0001527965,0.0019716918,0.00048343124,-0.000710681,-0.0001643668,0.0026124448,0.0026083626,0.0025980286,0.00012374968,1.0782335e-06,0.0001667753,3.4868262e-05,-0.000112800284,-4.83576e-05,0,0,1
8371000,8216600,8219000,0,0.010027939,-0.2182496,0.4313315,0.0025000002,0.0025000002,0.0025000002,0.0021067234,0.0010263026,-0.0028366148,0.0006745997,-0.0005051901,-0.00047864547,0.002609997,0.0026057852,0.0025948342,0.00018894373,4.56098e-05,0.00034368128,5.30131e-05,-9.4144976e-05,-8.313666e-05,0,0,1
8443000,8288000,8291000,0,0.003940089,-0.21532488,0.42933297,0.0025000002,0.0025000002,0.0025000002,0.0080116615,-0.0020290315,-0.00078472495,0.0015914114,-0.00069173577,-0.0005148481,0.0026081386,0.0026037397,0.002591944,0.0027344627,0.0001703691,2.530893e-05,0.00038807697,-0.000103669656,-7.591073e-05,0,0,1
8515000,8359800,8363000,0,0.012670169,-0.21577087,0.42841157,0.0025000002,0.0025000002,0.0025000002,-0.0008388767,-0.0017471015,3.9994717e-05,0.001286244,-0.0008246763,-0.0004452716,0.0026065349,0.0026019602,0.002589304,2.9997856e-05,0.0001308461,6.60892e-08,0.00033557997,-0.00010708216,-6.637044e-05,0,0,1
8587000,8431000,8435000,0,0.009977536,-0.21601908,0.42743903,0.0025000002,0.0025000002,0.0025000002,0.0019113908,-0.001595512,0.000931859,0.0013641685,-0.0009197887,-0.00027299533,0.002605162,0.0026004189,0.0025868572,0.00015581946,0.000107712236,3.7695776e-05,0.00031317284,-0.0001071607,-5.3398602e-05,0,0,1
8659000,8502200,8507000,0,0.008879903,-0.21493757,0.42716476,0.0025000002,0.0025000002,0.0025000002,0.0030524773,-0.0027783513,0.0010949075,0.001574616,-0.0011498664,-0.00010141234,0.0026040238,0.0025991115,0.002584608,0.0003975735,0.00032697315,5.2351843e-05,0.00032369338,-0.00013456028,-4.0216826e-05,0,0,1
8731000,8574000,8579000,0,0.0091171,-0.21521212,0.4315971,0.0025000002,0.0025000002,0.0025000002,0.0027312262,-0.002370447,-0.0033456385,0.0017198496,-0.0013015918,-0.00050784065,0.0026020762,0.0025968868,0.0025821899,0.00031853182,0.00023793853,0.00047948863,0.00032304524,-0.00014754132,-9.537548e-05,0,0,1
8803000,8645400,8651000,0,0.008813078,-0.21863352,0.4264104,0.0025000002,0.0025000002,0.0025000002,0.0031145236,0.0010742545,0.0019146204,0.0018941229,-0.0010029307,-0.00020433663,0.0026012638,0.002595911,0.0025802448,0.0004143395,5.0717677e-05,0.00015891892,0.00033445304,-0.00012276761,-6.35998e-05,0,0,1
8875000,8717000,8723000,0,0.009324092,-0.21750814,0.428979,0.0025000002,0.0025000002,0.0025000002,0.0024230708,-0.00031030178,-0.0008248687,0.0019603802,-0.00091475004,-0.00028131728,0.0026006417,0.0025951054,0.002578457,0.00025084717,3.826896e-06,2.8897284e-05,0.00032398038,-0.00010786881,-5.925288e-05,0,0,1
8947000,8788600,8795000,0,0.011214732,-0.2150063,0.42699185,0.0025000002,0.0025000002,0.0025000002,0.00040298235,-0.0028642267,0.0011534989,0.0017652968,-0.0011587058,-0.000101112746,0.0026001807,0.0025944924,0.002576794,6.9394655e-06,0.0003508704,5.7753266e-05,0.00028426707,-0.00013830778,-4.459641e-05,0,0,1
9019000,8860000,8867000,0,0.008911779,-0.21509185,0.4283964,0.0025000002,0.0025000002,0.0025000002,0.0026438744,-0.0027129948,-0.00028765202,0.0018750805,-0.0013513168,-0.00012322809,0.0025998624,0.002594055,0.0025752538,0.00029873682,0.00031229007,3.3368767e-06,0.00028607514,-0.00016004794,-3.9440773e-05,0,0,1
9083000,8931000,8931000,0,0.00738941,-0.21689646,0.42618972,0.0025000002,0.0025000002,0.0025000002,0.0042389813,-0.0009024441,0.0018908978,0.0021690156,-0.0012929187,0.00012868084,0.0025993367,0.0025934884,0.0025737665,0.0007681004,3.3303466e-05,0.00015629058,0.00034601174,-0.00014428812,-1.5102896e-05,0,0,1
9155000,9003000,9003000,0,0.009348931,-0.21415746,0.42894772,0.0025000002,0.0025000002,0.0025000002,0.0021870336,-0.0035631359,-0.00089105964,0.0021712836,-0.001577269,1.5090482e-06,0.0025974694,0.002591323,0.0025718852,0.00020460582,0.0005409704,3.358041e-05,0.0003282124,-0.00019422015,-1.7428738e-05,0,0,1
9227000,9074200,9075000,0,0.008371037,-0.21830542,0.43025264,0.0025000002,0.0025000002,0.0025000002,0.0028555205,0.0005738586,-0.0022134185,0.0022565736,-0.0013072863,-0.00027372304,0.0025974438,0.0025912023,0.0025706436,0.00034880437,1.4859177e-05,0.00021044881,0.00033077918,-0.00016815844,-4.148866e-05,0,0,1
9299000,9146000,9147000,0,0.009316723,-0.21740268,0.4282893,0.0025000002,0.0025000002,0.0025000002,0.0018112586,-0.0003581196,-0.00020363927,0.002200656,-0.0011869107,-0.00026424922,0.0025975683,0.0025912393,0.002569503,0.00014033029,5.212127e-06,1.7000372e-06,0.00030686482,-0.00014769753,-3.6492467e-05,0,0,1
9371000,9217400,9219000,0,0.010498406,-0.21757399,0.43059182,0.0025000002,0.0025000002,0.0025000002,0.0008526914,-0.00017797947,-0.0025081038,0.0020322194,-0.0010602752,-0.0005443082,0.0025977981,0.0025914079,0.002568458,3.1098243e-05,1.2903047e-06,0.00027157433,0.00027240606,-0.00012940304,-6.586742e-05,0,0,1
9443000,9289000,9291000,0,0.009332826,-0.21458218,0.42862427,0.0025000002,0.0025000002,0.0025000002,0.0019921968,-0.0031028688,-0.00045406818,0.0020272061,-0.0013147962,-0.00053167855,0.0025981474,0.0025917343,0.0025674892,0.00016972983,0.00040992702,8.5117035e-06,0.00025954458,-0.00016454214,-5.8682905e-05,0,0,1
9515000,9360600,9363000,0,0.0066187712,-0.22039185,0.4299942,0.0025000002,0.0025000002,0.0025000002,0.004686823,0.002853766,-0.0017660558,0.002360356,-0.0007894691,-0.0006852007,0.0025956572,0.002588898,0.0025656985,0.0009403018,0.00035574732,0.00013373572,0.00034481788,-9.9369434e-05,-6.80842e-05,0,0,1
9587000,9432000,9435000,0,0.008752829,-0.21526311,0.4320605,0.0025000002,0.0025000002,0.0025000002,0.0026726318,-0.0022163987,-0.0037439167,0.0023993768,-0.00096595683,-0.0010660501,0.0025960382,0.0025892525,0.0025648323,0.00030572058,0.00020805374,0.00060373044,0.00033993242,-0.00011295022,-0.00013501654,0,0,1
9659000,9503800,9507000,0,0.0086666,-0.21686418,0.4283819,0.0025000002,0.0025000002,0.0025000002,0.0027230177,-0.0003155172,0.00014781952,0.0024400158,-0.00088240585,-0.00091260514,0.0025964922,0.0025897548,0.002564016,0.000317301,3.8762755e-06,1.0540023e-06,0.00033709063,-9.925398e-05,-0.00011793038,0,0,1
9731000,9575000,9579000,0,0.00965915,-0.21384527,0.42740804,0.0025000002,0.0025000002,0.0025000002,0.0010990588,-0.0032315701,0.001177311,0.0022728657,-0.0011744718,-0.000650958,0.0025970466,0.0025903669,0.0025632854,5.167965e-05,0.00044627275,6.1020844e-05,0.0003015142,-0.00014250982,-9.5624135e-05,0,0,1
9803000,9646200,9651000,0,0.008507389,-0.21900372,0.428565,0.0025000002,0.0025000002,0.0025000002,0.0023464006,0.0016471446,-0.00017523766,0.0022820318,-0.00082112866,-0.00059125316,0.0025976698,0.0025910623,0.0025626766,0.00023549295,0.000118200296,1.2824108e-06,0.00029328465,-0.00011001234,-8.3864456e-05,0,0,1
9875000,9718000,9723000,0,0.010346628,-0.21684729,0.42706117,0.0025000002,0.0025000002,0.0025000002,0.0005162599,-0.0003118515,0.0014446378,0.0020603067,-0.0007568188,-0.0003353401,0.0025984042,0.0025919483,0.0025620805,1.1396924e-05,4.0925956e-06,9.0780726e-05,0.00025788846,-9.671217e-05,-6.193454e-05,0,0,1
9947000,9789400,9795000,0,0.007945501,-0.21390294,0.42613623,0.0025000002,0.0025000002,0.0025000002,0.002374602,-0.0028861165,0.002534479,0.00209958,-0.0010212995,2.4748326e-05,0.0025950272,0.0025881727,0.0025602384,0.00024143333,0.00035446047,0.0002814099,0.00025583227,-0.00012891943,-1.90315e-05,0,0,1
10019000,9861000,9867000,0,0.009560084,-0.21950433,0.43063992,0.0025000002,0.0025000002,0.0025000002,0.00051418983,0.0027530342,-0.002013117,0.0019009901,-0.0005481709,-0.00023103697,0.0025956365,0.0025889243,0.0025596984,1.1317763e-05,0.0003259444,0.00017664696,0.0002252038,-7.194209e-05,-3.8774793e-05,0,0,1
10091000,9932600,9939000,0,0.009006694,-0.21762729,0.4297042,0.0025000002,0.0025000002,0.0025000002,0.0012774003,0.00075761974,-0.0010810494,0.0018228778,-0.00038373837,-0.0003372747,0.0025963373,0.0025897976,0.0025592274,6.9831345e-05,2.507809e-05,5.056383e-05,0.00020574147,-5.9789112e-05,-4.0251518e-05,0,0,1
10163000,10003500,10011000,0,0.009628399,-0.21520793,0.4294468,0.0025000002,0.0025000002,0.0025000002,0.00040256427,-0.0019288957,-0.00093242526,0.0016464893,-0.00057535863,-0.0004104963,0.0025971103,0.0025907662,0.002558837,6.9332605e-06,0.00015920891,3.7305643e-05,0.0001810515,-7.213604e-05,-3.9885672e-05,0,0,1
10227000,10075000,10075000,0,0.010179224,-0.21557839,0.42657527,0.0025000002,0.0025000002,0.0025000002,-1.085017e-05,-0.0015724301,0.0019281805,0.0014391406,-0.0007001062,-0.000117422285,0.0025975478,0.0025915469,0.0025583894,5.0357833e-09,0.00010601585,0.00016212546,0.00015839963,-7.637472e-05,-1.4612187e-05,0,0,1
10299000,10147000,10147000,0,0.009127493,-0.21614952,0.4303501,0.0025000002,0.0025000002,0.0025000002,0.0011636228,-0.0010458678,-0.0019211471,0.00140446,-0.0007428351,-0.0003437121,0.0025984347,0.0025927636,0.0025580884,5.7898877e-05,4.6313304e-05,0.00015932505,0.00014574919,-7.259077e-05,-3.282779e-05,0,0,1
10371000,10218200,10219000,0,0.011000126,-0.21627975,0.42747346,0.0025000002,0.0025000002,0.0025000002,-0.0012472628,-0.00050103664,0.0012055933,0.0010739232,-0.00071347173,-0.00015084124,0.0025942172,0.002587942,0.002556116,6.662958e-05,1.1048054e-05,6.297305e-05,0.00011927621,-6.491948e-05,-2.088623e-05,0,0,1
10443000,10290000,10291000,0,0.010926701,-0.21393073,0.43085873,0.0025000002,0.0025000002,0.0025000002,-0.0013138182,-0.0027614832,-0.0021618903,0.0007740983,-0.0009714586,-0.00040297327,0.0025949138,0.0025889634,0.0025557824,7.391032e-05,0.00032883574,0.00020261359,9.5018084e-05,-9.805902e-05,-4.370544e-05,0,0,1
10515000,10361400,10363000,0,0.007343127,-0.21543947,0.42917356,0.0025000002,0.0025000002,0.0025000002,0.0025039285,-0.0012034178,-0.00043982267,0.0009902514,-0.0009988832,-0.00040640828,0.0025956589,0.0025900959,0.002555501,0.00026838222,6.0844755e-05,8.057095e-06,0.00011668102,-9.340887e-05,-3.9250957e-05,0,0,1
10587000,10432500,10435000,0,0.009967172,-0.21653505,0.42800328,0.0025000002,0.0025000002,0.0025000002,-1.2778357e-05,0.00027503073,0.00092217326,0.00086537766,-0.00084029115,-0.0002411011,0.002596468,0.0025913808,0.0025552276,6.987544e-09,3.2422404e-06,3.691891e-05,0.00010215376,-8.1376136e-05,-2.9768069e-05,0,0,1
10659000,10504600,10507000,0,0.0073582022,-0.21657406,0.430554,0.0025000002,0.0025000002,0.0025000002,0.0022699898,0.00030077994,-0.0016406476,0.0010423965,-0.00069506466,-0.0004168541,0.00259733,0.0025927264,0.0025550511,0.0002204338,4.1731814e-06,0.000116353294,0.000117060226,-7.059462e-05,-4.0680137e-05,0,0,1
10731000,10576000,10579000,0,0.01051589,-0.21451245,0.43079814,0.0025000002,0.0025000002,0.0025000002,-0.001589431,-0.0017033219,-0.0018163621,0.00071353326,-0.00082192884,-0.00059168204,0.0025923057,0.0025865603,0.0025528995,0.00010828158,0.0001256614,0.00014353637,8.890236e-05,-7.747556e-05,-5.3532665e-05,0,0,1
10803000,10647800,10651000,0,0.008621117,-0.21413758,0.4272611,0.0025000002,0.0025000002,0.0025000002,0.00046756116,-0.0024101287,0.001562953,0.00068264693,-0.0010210973,-0.0003202647,0.0025929098,0.0025875594,0.0025527156,9.368001e-06,0.0002490054,0.00010727126,7.891536e-05,-9.901429e-05,-3.3340773e-05,0,0,1
10875000,10719000,10723000,0,0.0082465,-0.217583,0.42977387,0.0025000002,0.0025000002,0.0025000002,0.0013662294,0.0013614297,-0.0008315742,0.0007678554,-0.0007233647,-0.00038405214,0.0025935443,0.002588739,0.0025524842,7.996705e-05,8.026017e-05,3.0134559e-05,7.904645e-05,-7.6667755e-05,-3.294112e-05,0,0,1
10947000,10790200,10795000,0,0.010215933,-0.21744657,0.4284906,0.0025000002,0.0025000002,0.0025000002,-0.0005980326,0.0013440847,0.0005353987,0.0005975977,-0.0004659865,-0.00027005945,0.002594245,0.0025899978,0.002552324,1.5317793e-05,7.71985e-05,1.2250133e-05,6.728396e-05,-5.7488352e-05,-2.7308037e-05,0,0,1
11019000,10862000,10867000,0,0.008708506,-0.21475527,0.42950997,0.0025000002,0.0025000002,0.0025000002,0.00038867912,-0.001125142,-0.00036403537,0.00057136413,-0.0005485415,-0.00028135878,0.0025949879,0.0025913746,0.0025522022,6.4685146e-06,5.4116495e-05,5.643995e-06,5.9647464e-05,-5.7064954e-05,-2.4587718e-05,0,0,1
11091000,10933400,10939000,0,0.007939358,-0.21936098,0.43192512,0.0025000002,0.0025000002,0.0025000002,0.001171622,0.0032797158,-0.0028716624,0.0006463701,-6.953752e-05,-0.00060590054,0.0025957574,0.002592787,0.0025521608,5.8758185e-05,0.0004624041,0.00036078264,5.953634e-05,7.845945e-06,-6.659737e-05,0,0,1
11163000,11004500,11011000,0,0.01025041,-0.21690312,0.42985052,0.0025000002,0.0025000002,0.0025000002,-0.0016275744,0.0013172925,-0.00047582388,0.00036327177,0.000102358434,-0.0005904707,0.0025903978,0.0025858886,0.002549836,0.0001136247,7.387247e-05,1.0122669e-05,3.7978385e-05,1.606602e-05,-5.9566464e-05,0,0,1
11235000,11076600,11083000,0,0.008311009,-0.21786986,0.42853475,0.0025000002,0.0025000002,0.0025000002,0.0004977976,0.0022704005,0.00084906816,0.00038022565,0.00037582254,-0.0004096494,0.0025908928,0.0025869661,0.0025496997,1.0627073e-05,0.00022175847,3.1067066e-05,3.4531382e-05,4.1988806e-05,-4.81442e-05,0,0,1
11307000,11148000,11155000,0,0.011070457,-0.21637473,0.4299846,0.0025000002,0.0025000002,0.0025000002,-0.0021984247,0.0005905926,-0.0006954968,5.8007165e-05,0.00040163466,-0.00044607147,0.0025914232,0.0025881028,0.002549621,0.00020722506,1.4561619e-05,2.1424157e-05,4.3224045e-06,3.8561608e-05,-4.4805365e-05,0,0,1
11379000,11219800,11227000,0,0.009087068,-0.21579142,0.43080422,0.0025000002,0.0025000002,0.0025000002,-0.00041099216,0.00018192828,-0.0014087856,-8.843235e-07,0.0003738537,-0.0005671137,0.0025919874,0.0025893906,0.0025495351,7.240885e-06,1.3963756e-06,8.6652275e-05,2.8704208e-06,3.389483e-05,-5.0060014e-05,0,0,1
11443000,11290500,11291000,0,0.008342366,-0.21611668,0.42952818,0.0025000002,0.0025000002,0.0025000002,7.5105054e-05,0.00031918287,-0.00020036101,8.529464e-06,0.00036711583,-0.000521777,0.0025922642,0.002590429,0.0025494664,2.4177788e-07,4.377587e-06,1.7635126e-06,2.5447766e-06,3.0238147e-05,-4.40769e-05,0,0,1
11515000,11362200,11363000,0,0.009390493,-0.21597777,0.4272429,0.0025000002,0.0025000002,0.0025000002,-0.0010929252,0.000535354,0.002271086,-0.00012960995,0.00038779387,-0.00017186871,0.0025868402,0.0025826662,0.0025470203,5.1306077e-05,1.2175915e-05,0.00022444798,-4.2089514e-06,2.7972865e-05,-1.0399737e-05,0,0,1
11587000,11434000,11435000,0,0.007314774,-0.21692267,0.42898867,0.0025000002,0.0025000002,0.0025000002,0.0016134956,0.001319781,0.00040590763,8.9269015e-05,0.0005054496,-9.940798e-05,0.002587167,0.0025835936,0.0025469135,0.0001118069,7.547827e-05,7.1629265e-06,1.0358972e-05,3.3938042e-05,-8.194422e-06,0,0,1
11659000,11505400,11507000,0,0.010331578,-0.21451977,0.4289314,0.0025000002,0.0025000002,0.0025000002,-0.0015272424,-0.00077328086,0.0006197095,-0.000112724185,0.00034507137,-9.595533e-06,0.0025875422,0.0025846735,0.0025467984,0.000100158075,2.6022033e-05,1.6735949e-05,-3.450824e-06,2.6445656e-05,-5.079216e-06,0,0,1
11731000,11577000,11579000,0,0.009336286,-0.21600784,0.42853335,0.0025000002,0.0025000002,0.0025000002,-0.00054168457,0.0007133037,0.001008004,-0.0001664568,0.0003909887,0.00011753672,0.0025879275,0.0025857806,0.0025467419,1.2597905e-05,2.17615e-05,4.40979e-05,-4.5966094e-06,2.5858906e-05,1.0808276e-06,0,0,1
11803000,11648600,11651000,0,0.009711362,-0.21379673,0.4294996,0.0025000002,0.0025000002,0.0025000002,-0.0007320633,-0.0015687793,-1.2427568e-05,-0.00023730603,0.00014522547,0.0001016407,0.00258833,0.002586952,0.002546721,2.3005681e-05,0.000106003994,3.8267336e-09,-6.902574e-06,9.34144e-06,9.449612e-07,0,0,1
11875000,11720000,11723000,0,0.009246485,-0.21491441,0.42635658,0.0025000002,0.0025000002,0.0025000002,-0.0003767242,-0.00029984117,0.0032025576,-0.0002547272,8.946762e-05,0.0004891537,0.0025887536,0.0025882388,0.0025467088,6.091354e-06,3.8892763e-06,0.00044758598,-6.8012073e-06,7.68818e-06,5.6755547e-05,0,0,1
11947000,11791800,11795000,0,0.008897039,-0.21403201,0.42976585,0.0025000002,0.0025000002,0.0025000002,-0.00019771265,-0.0013975501,-0.00035732985,-0.00024756798,-9.731714e-05,0.00038320714,0.0025836448,0.0025801377,0.0025443337,1.6811001e-06,8.417028e-05,5.4908296e-06,-6.1582837e-06,-3.8463386e-06,4.893937e-05,0,0,1
12019000,11863000,11867000,0,0.0084454175,-0.21563332,0.42879632,0.0025000002,0.0025000002,0.0025000002,0.0004977837,0.00027167797,0.0006405413,-0.00015466,-5.117301e-05,0.00041527709,0.0025838574,0.0025810269,0.0025442487,1.06554135e-05,3.2054313e-06,1.7916005e-05,-4.062459e-06,-2.9673365e-06,4.5072313e-05,0,0,1
12091000,11934200,11939000,0,0.010806384,-0.2185854,0.4287601,0.0025000002,0.0025000002,0.0025000002,-0.0020027363,0.0032667816,0.0007018447,-0.00038502243,0.00036177872,0.0004497339,0.0025840912,0.0025819787,0.0025441977,0.00017246351,0.0004578248,2.0896468e-05,-2.5053625e-05,5.4470336e-05,4.2058797e-05,0,0,1
12163000,12006000,12011000,0,0.010032577,-0.21810378,0.42787102,0.0025000002,0.0025000002,0.0025000002,-0.0015345488,0.003124848,0.0017803013,-0.0005293666,0.0007082353,0.00061560876,0.0025843447,0.0025830492,0.0025441376,0.0001012438,0.00041896856,0.00013694452,-3.46207e-05,0.00010023979,5.3973446e-05,0,0,1
12235000,12077400,12083000,0,0.00946482,-0.21782242,0.43072224,0.0025000002,0.0025000002,0.0025000002,-0.0007970234,0.0029628873,-0.0010167956,-0.00056281197,0.0009897157,0.00041055516,0.0025845994,0.0025841498,0.0025441137,2.730904e-05,0.00037694525,4.5922912e-05,-3.3707063e-05,0.00013481587,4.149077e-05,0,0,1
12307000,12149000,12155000,0,0.009464243,-0.21918438,0.42726985,0.0025000002,0.0025000002,0.0025000002,-0.0010680802,0.0043474585,0.002483517,-0.0006261031,0.0014100411,0.0006690109,0.0025799433,0.0025758003,0.0025417046,4.9130944e-05,0.00081447937,0.00026754904,-3.5639096e-05,0.00021995216,6.980737e-05,0,0,1
12379000,12220600,12227000,0,0.00943892,-0.21490136,0.42819116,0.0025000002,0.0025000002,0.0025000002,-0.00106482,2.156198e-05,0.001529187,-0.0006810578,0.0012358417,0.0007766236,0.0025800462,0.0025765207,0.0025416226,4.882951e-05,1.617182e-08,0.00010208776,-3.729136e-05,0.00019240244,7.385089e-05,0,0,1
12451000,12292000,12299000,0,0.011019864,-0.21721411,0.42708734,0.0025000002,0.0025000002,0.0025000002,-0.0027535295,0.002305016,0.0026075542,-0.00094002613,0.0013687353,0.0010044612,0.0025801542,0.0025772953,0.002541564,0.00032650607,0.00022793398,0.0002955362,-7.343055e-05,0.00019684233,0.00010155186,0,0,1
12523000,12363800,12371000,0,0.011045921,-0.21556525,0.4278359,0.0025000002,0.0025000002,0.0025000002,-0.003065653,0.0005738139,0.0018032491,-0.0012069377,0.0012681297,0.001104236,0.0025802744,0.002578116,0.0025415346,0.0004047041,1.3881559e-05,0.00014150357,-0.00011502803,0.00017386825,0.00010656853,0,0,1
12587000,12435000,12435000,0,0.009579238,-0.21649028,0.4284078,0.0025000002,0.0025000002,0.0025000002,-0.0018438835,0.0015058666,0.0012250841,-0.001286333,0.0012972932,0.0011186429,0.0025801654,0.0025788115,0.0025414694,0.00014641209,9.721482e-05,6.505528e-05,-0.00011894005,0.00016431342,0.00010139391,0,0,1
12659000,12506200,12507000,0,0.009017001,-0.21823142,0.42669907,0.0025000002,0.0025000002,0.0025000002,-0.001228377,0.0031356066,0.0028760433,-0.0012791088,0.0015261219,0.0013366115,0.0025802995,0.0025797363,0.0025414755,6.497566e-05,0.00042278675,0.0003594503,-0.0001122134,0.00019653208,0.0001335606,0,0,1
12731000,12578000,12579000,0,0.0076830434,-0.21624483,0.4291239,0.0025000002,0.0025000002,0.0025000002,-8.5253836e-05,0.0012616962,0.00049093366,-0.0011291984,0.0014929037,0.0012301152,0.0025763393,0.0025717572,0.002539184,3.134601e-07,6.876336e-05,1.0442482e-05,-9.81623e-05,0.00018048837,0.00011810086,0,0,1
12803000,12649400,12651000,0,0.009819481,-0.21391225,0.4290572,0.0025000002,0.0025000002,0.0025000002,-0.0023581304,-0.00093364716,0.0006261468,-0.0012827611,0.0011892009,0.0011546501,0.002576368,0.002572408,0.0025391004,0.0002398199,3.7968617e-05,1.7159224e-05,-0.0001158633,0.0001531908,0.000105487576,0,0,1
12875000,12720500,12723000,0,0.009444166,-0.21466832,0.42774516,0.0025000002,0.0025000002,0.0025000002,-0.002068375,-0.00025857985,0.0018888116,-0.0013805673,0.0010085276,0.001245924,0.0025763926,0.0025730678,0.0025390526,0.00018450325,2.9648895e-06,0.0001559598,-0.00012440875,0.00013374996,0.000111771194,0,0,1
12947000,12792600,12795000,0,0.008580859,-0.21841173,0.4280784,0.0025000002,0.0025000002,0.0025000002,-0.0007601288,0.0033529848,0.0014674664,-0.0013023753,0.0013038276,0.0012728778,0.0025764077,0.0025737563,0.0025390193,2.4918236e-05,0.00048497014,9.3259936e-05,-0.000111870264,0.00017801316,0.000109438275,0,0,1
13019000,12864000,12867000,0,0.009979177,-0.21613246,0.42951515,0.0025000002,0.0025000002,0.0025000002,-0.0023248836,0.0014072508,0.00019937754,-0.0014301442,0.0013162526,0.0011381262,0.0025764524,0.0025745723,0.0025389693,0.0002330976,8.498273e-05,1.6554081e-06,-0.00012701837,0.00016638842,9.5970136e-05,0,0,1
13091000,12935000,12939000,0,0.009099263,-0.21904866,0.42717862,0.0025000002,0.0025000002,0.0025000002,-0.0015583686,0.0041274875,0.002451986,-0.0014460881,0.0016654821,0.0013001831,0.0025764992,0.0025753607,0.0025389786,0.0001047292,0.0007340656,0.0002608602,-0.00012424686,0.00023697526,0.00011647311,0,0,1
13163000,13006500,13011000,0,0.008429598,-0.21803713,0.43219644,0.0025000002,0.0025000002,0.0025000002,-0.0011869457,0.0031405836,-0.0025562048,-0.001413667,0.0018498289,0.0008169364,0.0025731819,0.0025677802,0.0025368414,6.0834333e-05,0.0004263571,0.00028759133,-0.00011631336,0.0002606687,6.592087e-05,0,0,1
13235000,13078200,13083000,0,0.012193871,-0.21677795,0.43151703,0.0025000002,0.0025000002,0.0025000002,-0.0050896606,0.0018149763,-0.0018668175,-0.0018746933,0.0018445661,0.00047955618,0.0025731556,0.0025683092,0.0025367874,0.0011185852,0.00014139782,0.00015368804,-0.00024201372,0.00024571028,3.8378523e-05,0,0,1
13307000,13149500,13155000,0,0.009175694,-0.21703836,0.43022695,0.0025000002,0.0025000002,0.0025000002,-0.0017858744,0.0022022426,-0.00048702955,-0.0018636085,0.0018888867,0.00035826984,0.0025731141,0.0025688992,0.0025367124,0.00013772103,0.00020928282,1.0614532e-05,-0.00022899767,0.00024116402,3.226404e-05,0,0,1
13379000,13221400,13227000,0,0.0071845106,-0.21697329,0.42899323,0.0025000002,0.0025000002,0.0025000002,0.0004494457,0.0021797419,0.00078076124,-0.0015728084,0.0019255334,0.00041088133,0.0025730778,0.0025695239,0.0025366556,8.722863e-06,0.00020557425,2.6428455e-05,-0.00019911113,0.00023668962,3.1530384e-05,0,0,1
13451000,13293000,13299000,0,0.008604674,-0.2174412,0.42949113,0.0025000002,0.0025000002,0.0025000002,-0.001088145,0.0027008504,0.000315696,-0.0015120982,0.0020224596,0.00039818912,0.002573053,0.002570182,0.0025366289,5.1130766e-05,0.00031499393,4.1975654e-06,-0.00018057476,0.0002464982,2.810661e-05,0,0,1
13523000,13364600,13371000,0,0.010753113,-0.21494587,0.42918968,0.0025000002,0.0025000002,0.0025000002,-0.003317597,0.00019863248,0.00062021613,-0.0017382593,0.0017935107,0.0004257694,0.0025702987,0.002562873,0.0025345923,0.0004757964,1.643564e-06,1.6763179e-05,-0.00021755493,0.00021582712,2.6685704e-05,0,0,1
13595000,13436000,13443000,0,0.009287458,-0.21775046,0.42757428,0.0025000002,0.0025000002,0.0025000002,-0.0017540758,0.0031052977,0.0022854805,-0.0017402357,0.001957162,0.0006574071,0.0025702144,0.0025632977,0.0025345075,0.00013301017,0.00041741892,0.00022780472,-0.00020699053,0.00024101727,5.181678e-05,0,0,1
13667000,13507800,13515000,0,0.011216223,-0.21417825,0.43274266,0.0025000002,0.0025000002,0.0025000002,-0.0038023675,-0.0004118234,-0.0028662086,-0.0019991742,0.0016591141,0.00021480923,0.0025701409,0.0025637508,0.0025344419,0.0006250413,7.5155617e-06,0.00036045298,-0.00025948448,0.00020980941,4.8730726e-08,0,0,1
13731000,13579000,13579000,0,0.010657034,-0.21966796,0.4272837,0.0025000002,0.0025000002,0.0025000002,-0.003259779,0.0050512403,0.002616167,-0.0021563084,0.0020814426,0.0005128253,0.0025698899,0.0025641022,0.0025343637,0.00045942992,0.0011038978,0.00029766595,-0.00028440767,0.0003212574,3.7146674e-05,0,0,1
13803000,13650200,13651000,0,0.012977461,-0.21612826,0.4311822,0.0025000002,0.0025000002,0.0025000002,-0.005557755,0.0016095191,-0.0012402833,-0.002580298,0.0020217581,0.00029358745,0.0025698212,0.002564624,0.002534312,0.0013355293,0.000111275,6.806923e-05,-0.00041542982,0.00029508313,2.4031528e-05,0,0,1
13875000,13722000,13723000,0,0.009020533,-0.21557087,0.42983615,0.0025000002,0.0025000002,0.0025000002,-0.0016425558,0.0009987056,9.992719e-05,-0.0024625473,0.0018930348,0.00026892836,0.002569761,0.0025651595,0.0025342896,0.00011665546,4.3024316e-05,4.1430184e-07,-0.0003779132,0.0002634325,2.1065951e-05,0,0,1
13947000,13793400,13795000,0,0.012167933,-0.21517852,0.42603216,0.0025000002,0.0025000002,0.0025000002,-0.0045907507,0.00043778121,0.0038186014,-0.0027284797,0.001710595,0.0007121894,0.0025675413,0.0025584805,0.0025324258,0.0009120265,8.142575e-06,0.0006390076,-0.000444654,0.00023153244,9.828162e-05,0,0,1
14019000,13865000,13867000,0,0.008186108,-0.21546,0.4263724,0.0025000002,0.0025000002,0.0025000002,-0.00031889605,0.0007738918,0.0034686625,-0.0024266494,0.0015932189,0.0010573097,0.0025674284,0.0025588255,0.0025323408,4.4010617e-06,2.5983525e-05,0.0005275277,-0.00038950687,0.00020578489,0.00015205002,0,0,1
14091000,13935800,13939000,0,0.00882047,-0.21957378,0.4317026,0.0025000002,0.0025000002,0.0025000002,-0.00077751337,0.005028665,-0.0018161833,-0.0022220965,0.0020192352,0.0006998739,0.0025673225,0.0025592092,0.002532263,2.6163316e-05,0.0010975194,0.00014604774,-0.00034443903,0.00031639246,0.00011507504,0,0,1
14163000,14008000,14011000,0,0.00996399,-0.21396826,0.42845246,0.0025000002,0.0025000002,0.0025000002,-0.0020830652,-0.00042030215,0.0015465915,-0.0022045537,0.0017111268,0.0008066955,0.0025672386,0.0025596279,0.0025322037,0.0001878006,7.752011e-06,0.00010494122,-0.00032467445,0.00027549203,0.000113796355,0,0,1
14235000,14079800,14083000,0,0.009459865,-0.21700917,0.4306186,0.0025000002,0.0025000002,0.0025000002,-0.0018136565,0.0024827272,-0.00069507957,-0.0021554693,0.0018077672,0.00061750336,0.0025671336,0.0025600411,0.0025321674,0.0001423702,0.00026710174,2.1501135e-05,-0.0003017828,0.00027443847,9.680727e-05,0,0,1
14307000,14150500,14155000,0,0.010108265,-0.21517709,0.42923862,0.0025000002,0.0025000002,0.0025000002,-0.0026224256,0.0006952584,0.0007247031,-0.0022133172,0.0016696542,0.0006305742,0.002565356,0.0025538192,0.0025304307,0.00029786275,2.0888567e-05,2.2954231e-05,-0.00030129717,0.00024302796,8.765814e-05,0,0,1
14379000,14222200,14227000,0,0.009195561,-0.21756203,0.42946798,0.0025000002,0.0025000002,0.0025000002,-0.0021587666,0.0031573176,0.00054198503,-0.0022064757,0.0018559856,0.00061883865,0.0025652426,0.002554107,0.0025303503,0.00020185542,0.0004331304,1.2662947e-05,-0.00028882566,0.00026686973,7.825258e-05,0,0,1
14451000,14294000,14299000,0,0.011723704,-0.21565099,0.42776155,0.0025000002,0.0025000002,0.0025000002,-0.0046123182,0.0016141385,0.0024381578,-0.0025085735,0.0018250977,0.00084683066,0.0025651192,0.0025544392,0.0025302519,0.0009214854,0.000112749345,0.00026027273,-0.00036826773,0.00024751708,0.00010110856,0,0,1
14523000,14365400,14371000,0,0.011035602,-0.21809292,0.431737,0.0025000002,0.0025000002,0.0025000002,-0.004185634,0.003902018,-0.0016200244,-0.0027181327,0.0020841442,0.00053769397,0.0025649986,0.002554719,0.0025302009,0.00075891457,0.0006609088,0.00011626681,-0.0004170815,0.00029917297,7.3946154e-05,0,0,1
14595000,14437000,14443000,0,0.009458338,-0.21578398,0.4308021,0.0025000002,0.0025000002,0.0025000002,-0.0023787073,0.001669988,-0.0006214082,-0.0026756155,0.0020319915,0.0003920952,0.0025648754,0.00255505,0.0025301313,0.00024511688,0.000120960845,1.7135873e-05,-0.0003955408,0.0002768497,6.2537e-05,0,0,1
14667000,14508600,14515000,0,0.0051546446,-0.21462487,0.43018904,0.0025000002,0.0025000002,0.0025000002,0.00214449,0.00077044964,0.00012981892,-0.0020718374,0.0018742125,0.0003591763,0.002564745,0.0025554397,0.0025300563,0.000199233,2.5940644e-05,7.341883e-07,-0.00032103798,0.00024542023,5.4795433e-05,0,0,1
14739000,14580000,14587000,0,0.0103674065,-0.21576351,0.42927092,0.0025000002,0.0025000002,0.0025000002,-0.0030803937,0.0021933615,0.0011924803,-0.0021978628,0.001913796,0.0004628733,0.0025633469,0.0025499298,0.0025285124,0.00041130363,0.00020917534,6.212893e-05,-0.00033231723,0.00024089121,5.57118e-05,0,0,1
14811000,14651800,14659000,0,0.010419831,-0.21397339,0.43050238,0.0025000002,0.0025000002,0.0025000002,-0.0032667893,0.0007748008,0.00014585257,-0.0023320862,0.0017704522,0.00042284565,0.0025632088,0.0025501915,0.0025284206,0.00046261077,2.5982836e-05,9.125442e-07,-0.00034867798,0.00021390551,4.8830745e-05,0,0,1
14875000,14723000,14723000,0,0.009332151,-0.216635,0.43220386,0.0025000002,0.0025000002,0.0025000002,-0.0021260083,0.0035417676,-0.0014978349,-0.0023063987,0.0019910336,0.00018278733,0.002562915,0.0025503533,0.0025283226,0.00019595359,0.00054598233,9.9279445e-05,-0.0003296409,0.00025529883,3.0368832e-05,0,0,1
14947000,14794200,14795000,0,0.012511745,-0.21399358,0.42872697,0.0025000002,0.0025000002,0.0025000002,-0.0052395402,0.001224339,0.0021628141,-0.0026720143,0.0018949378,0.00042923578,0.0025627827,0.0025506413,0.002528244,0.0011902332,6.4849286e-05,0.00020503066,-0.0004369136,0.00023155933,5.2140404e-05,0,0,1
15019000,14866000,14867000,0,0.012696513,-0.21540084,0.43183485,0.0025000002,0.0025000002,0.0025000002,-0.005577265,0.0029150844,-0.00081190467,-0.003036822,0.0020224645,0.00027268974,0.0025626435,0.002550929,0.002528177,0.001348689,0.00036898142,2.93694e-05,-0.0005514038,0.0002488152,4.1905347e-05,0,0,1
15091000,14937400,14939000,0,0.008970427,-0.21658735,0.42778516,0.0025000002,0.0025000002,0.0025000002,-0.0015799556,0.004055202,0.0032322705,-0.0028547775,0.0022763035,0.000641719,0.0025625064,0.002551197,0.0025281184,0.00010823863,0.0007157425,0.00045738893,-0.0004960275,0.0003071607,9.3822615e-05,0,0,1
15163000,15009000,15011000,0,0.011330748,-0.21654722,0.42950055,0.0025000002,0.0025000002,0.0025000002,-0.003726304,0.0034800023,0.0012367368,-0.0029639471,0.002426742,0.00071566825,0.0025613622,0.002546221,0.0025267827,0.0006023419,0.00052764727,6.67527e-05,-0.00050934474,0.00033477938,9.043177e-05,0,0,1
15235000,15080600,15083000,0,0.010562377,-0.2148056,0.43052822,0.0025000002,0.0025000002,0.0025000002,-0.0027969887,0.0018797964,0.00027939677,-0.0029430336,0.0023579749,0.00066066824,0.0025612193,0.0025464117,0.0025267007,0.00033938463,0.0001538535,3.3642066e-06,-0.0004880551,0.00031211617,7.9525475e-05,0,0,1
15307000,15152000,15155000,0,0.010423787,-0.21659459,0.4301716,0.0025000002,0.0025000002,0.0025000002,-0.0026028948,0.0033688992,0.0004938245,-0.002900531,0.0024840487,0.000639235,0.0025610789,0.0025465616,0.0025266355,0.0002939326,0.0004946163,1.0521841e-05,-0.0004637983,0.0003349207,7.090304e-05,0,0,1
15379000,15223800,15227000,0,0.00954988,-0.21646026,0.4289503,0.0025000002,0.0025000002,0.0025000002,-0.0017967122,0.0032583177,0.0017381907,-0.0027619263,0.0025810983,0.0007766596,0.002560943,0.0025467635,0.0025265692,0.00014006016,0.00046279244,0.00013217771,-0.00042314702,0.00035097735,7.859721e-05,0,0,1
15451000,15295000,15299000,0,0.008883771,-0.21780737,0.42950138,0.0025000002,0.0025000002,0.0025000002,-0.0011510063,0.0041968822,0.0009852946,-0.0025611254,0.0027823914,0.0008019372,0.0025608079,0.0025469325,0.002526522,5.748254e-05,0.00076807576,4.2189517e-05,-0.000377567,0.0004029686,7.4059e-05,0,0,1
15523000,15366200,15371000,0,0.012161666,-0.21587348,0.4278215,0.0025000002,0.0025000002,0.0025000002,-0.004488156,0.0020364225,0.0025586188,-0.0028013296,0.0026890163,0.0010205498,0.0025598975,0.0025424752,0.0025253026,0.00087432086,0.00018067594,0.00028739937,-0.00043948728,0.00037525987,0.00010065184,0,0,1
15595000,15437500,15443000,0,0.010809505,-0.21720922,0.42973745,0.0025000002,0.0025000002,0.0025000002,-0.0031468412,0.003331393,0.00061294436,-0.0028444505,0.0027689098,0.0009691647,0.0025597552,0.0025426054,0.0025252257,0.00042984186,0.00048434112,1.6309516e-05,-0.00043828352,0.00038887354,9.0125664e-05,0,0,1
15667000,15509400,15515000,0,0.012588066,-0.21694438,0.43126664,0.0025000002,0.0025000002,0.0025000002,-0.0048363744,0.0028710663,-0.0010074079,-0.0030948778,0.0027813131,0.00072014984,0.002559616,0.002542734,0.002525158,0.0010153658,0.00035932218,4.502226e-05,-0.00051083503,0.00038515832,7.3134695e-05,0,0,1
15739000,15581000,15587000,0,0.010774611,-0.21551904,0.43099508,0.0025000002,0.0025000002,0.0025000002,-0.0033651083,0.0014333129,-0.00071775913,-0.0031287274,0.0026121605,0.0005397498,0.0025594777,0.0025429167,0.0025250912,0.00049159135,8.9466455e-05,2.2813052e-05,-0.00050842453,0.00034811924,6.111605e-05,0,0,1
15811000,15652600,15659000,0,0.011640904,-0.21599197,0.4307242,0.0025000002,0.0025000002,0.0025000002,-0.0041635274,0.0021396726,-0.0003194213,-0.003258349,0.0025525964,0.00043171382,0.0025593392,0.0025431016,0.0025250204,0.00075257965,0.00019946152,4.5832135e-06,-0.000539008,0.00032949803,5.2886404e-05,0,0,1
15883000,15724000,15731000,0,0.008525661,-0.21585411,0.4288623,0.0025000002,0.0025000002,0.0025000002,-0.0009922545,0.0018948764,0.0014997125,-0.0029751863,0.002470315,0.00056483736,0.0025592023,0.0025432662,0.0025249657,4.274635e-05,0.00015673954,9.862681e-05,-0.000476997,0.00030791078,5.8601952e-05,0,0,1
15955000,15795800,15803000,0,0.011254913,-0.22001515,0.42898822,0.0025000002,0.0025000002,0.0025000002,-0.0034083892,0.0053234547,0.0010009706,-0.003029583,0.0028282842,0.00061886257,0.0025584502,0.002539301,0.0025239012,0.00050452055,0.0012389311,4.3592056e-05,-0.00048045308,0.0004248175,5.6717185e-05,0,0,1
16019000,15867000,15867000,0,0.008626897,-0.21731617,0.4278171,0.0025000002,0.0025000002,0.0025000002,-0.00076197984,0.00238505,0.002062291,-0.0027469266,0.0027729676,0.000798461,0.0025581901,0.0025393458,0.0025238246,2.5218058e-05,0.0002487903,0.00018676899,-0.0004237081,0.00040287574,7.2928124e-05,0,0,1
16091000,15938200,15939000,0,0.0087153455,-0.21903852,0.42666444,0.0025000002,0.0025000002,0.0025000002,-0.0004203449,0.0042091906,0.0032537282,-0.0024569186,0.002951956,0.0011039367,0.0025580486,0.00253948,0.0025237512,7.67468e-06,0.0007750848,0.0004647826,-0.00037184957,0.00044927155,0.000121772726,0,0,1
16163000,16010000,16011000,0,0.008200294,-0.21721248,0.42912322,0.0025000002,0.0025000002,0.0025000002,0.00040293636,0.0024058968,0.0007902384,-0.002097811,0.0028834217,0.0010642199,0.0025579133,0.0025396121,0.0025236863,7.0525243e-06,0.00025330327,2.7313807e-05,-0.00032427144,0.00042466412,0.00010991167,0,0,1
16235000,16081400,16083000,0,0.012438994,-0.21687822,0.4284799,0.0025000002,0.0025000002,0.0025000002,-0.003630654,0.0022239536,0.0015075803,-0.0022893494,0.0028006805,0.0011192475,0.0025577801,0.0025397574,0.0025236206,0.00057261664,0.00021585583,9.967306e-05,-0.00035530372,0.0003985722,0.000108632295,0,0,1
16307000,16153000,16155000,0,0.008579128,-0.21707666,0.429938,0.0025000002,0.0025000002,0.0025000002,0.0005733983,0.0019123852,-0.00021514297,-0.0019307547,0.0026894556,0.00095187855,0.0025571838,0.0025362347,0.0025226637,1.4285924e-05,0.00016028133,2.0721345e-06,-0.00030900803,0.00036872333,9.476519e-05,0,0,1
16379000,16224600,16227000,0,0.01153861,-0.21518746,0.43001062,0.0025000002,0.0025000002,0.0025000002,-0.0024672123,-0.00032493472,-0.0004556775,-0.0019979528,0.0023116553,0.00077557727,0.0025570425,0.002536313,0.0025226052,0.0002645042,4.673332e-06,9.14188e-06,-0.00030343336,0.00032195076,8.1749546e-05,0,0,1
16451000,16295500,16299000,0,0.009640908,-0.21579677,0.43006298,0.0025000002,0.0025000002,0.0025000002,-0.00060914917,0.00038063526,-0.00045514107,-0.0018254775,0.002071787,0.00062268204,0.0025569086,0.0025364133,0.0025225314,1.6124623e-05,6.3319485e-06,9.141618e-06,-0.00026775253,0.0002827541,7.0461785e-05,0,0,1
16523000,16367800,16371000,0,0.009217966,-0.21280181,0.4262413,0.0025000002,0.0025000002,0.0025000002,-0.00010818243,-0.0025083274,0.0034200847,-0.0016085275,0.0014931591,0.0009764079,0.002556766,0.0025365292,0.0025224632,5.086043e-07,0.000275624,0.00051601237,-0.00023399098,0.00021221288,0.00012674923,0,0,1
16595000,16439000,16443000,0,0.00824957,-0.21655968,0.4285701,0.0025000002,0.0025000002,0.0025000002,0.00020616464,0.0012010485,0.0010513067,-0.0013823264,0.0014567643,0.0009855884,0.0025566095,0.002536658,0.0025223999,1.847232e-06,6.3199535e-05,4.857072e-05,-0.00020459379,0.00019363839,0.000117004296,0,0,1
16667000,16510200,16515000,0,0.012522844,-0.21374476,0.43269506,0.0025000002,0.0025000002,0.0025000002,-0.004154765,-0.0019114763,-0.00322932,-0.0017279105,0.001036549,0.0004603995,0.0025564707,0.0025367616,0.002522355,0.00075025624,0.00016052545,0.00045893228,-0.00027261054,0.00014949191,4.5213885e-05,0,0,1
16739000,16582000,16587000,0,0.008454939,-0.21681704,0.42822,0.0025000002,0.0025000002,0.0025000002,0.00026684767,0.00097613037,0.0011660457,-0.001477432,0.0010289798,0.00054890173,0.0025559901,0.0025336936,0.0025214958,3.0954595e-06,4.1796793e-05,5.9829134e-05,-0.00023799058,0.00013596882,4.70491e-05,0,0,1
16811000,16653400,16659000,0,0.009654904,-0.21615635,0.43285617,0.0025000002,0.0025000002,0.0025000002,-0.0009301701,0.00035881996,-0.003453821,-0.0014090482,0.0009451665,4.8684597e-05,0.0025558474,0.0025337778,0.002521426,3.7613812e-05,5.6277477e-06,0.0005257974,-0.00021295225,0.000119681885,-2.4531655e-05,0,0,1
16883000,16725000,16731000,0,0.009454339,-0.21747248,0.42988414,0.0025000002,0.0025000002,0.0025000002,-0.0005731184,0.0015486628,-0.0005224645,-0.0013043376,0.0010207155,-2.3053384e-05,0.0025557016,0.002533867,0.0025213698,1.4280257e-05,0.00010511861,1.2100821e-05,-0.00018806611,0.00011785766,-2.2974538e-05,0,0,1
16955000,16796600,16803000,0,0.009450474,-0.21356511,0.42874274,0.0025000002,0.0025000002,0.0025000002,-0.0003989661,-0.002333343,0.00063338876,-0.0011909286,0.00060054555,5.9453923e-05,0.0025555657,0.0025339536,0.0025213086,6.920579e-06,0.00023878786,1.780464e-05,-0.00016537539,7.318338e-05,-1.7866441e-05,0,0,1
17027000,16868000,16875000,0,0.009272185,-0.21804646,0.42912638,0.0025000002,0.0025000002,0.0025000002,-0.0001431471,0.0022654086,0.00029990077,-0.0010600018,0.0008085682,8.920763e-05,0.002555418,0.0025340565,0.0025212457,8.90965e-07,0.00022500713,3.9022493e-06,-0.00014482203,9.21547e-05,-1.5146307e-05,0,0,1
17099000,16939800,16947000,0,0.0094508175,-0.21951154,0.43129155,0.0025000002,0.0025000002,0.0025000002,-0.0006432557,0.0034234673,-0.002006799,-0.0010076717,0.0011368615,-0.00017443977,0.0025552718,0.002534157,0.0025212022,1.799234e-05,0.0005137414,0.00017812668,-0.00012889622,0.00014509266,-3.561149e-05,0,0,1
17163000,17010500,17011000,0,0.009188225,-0.21522069,0.4273255,0.0025000002,0.0025000002,0.0025000002,-0.00030269843,-0.0010514706,0.0018854141,-0.0009203375,0.0008657401,8.085047e-05,0.0025547433,0.0025314444,0.002520433,3.9850206e-06,4.8545146e-05,0.00015685755,-0.000113421855,0.00012110424,-1.1767857e-05,0,0,1
17235000,17082200,17083000,0,0.00980331,-0.21784635,0.42945465,0.0025000002,0.0025000002,0.0025000002,-0.0007859629,0.0018087327,-0.00014150143,-0.0009034849,0.000983946,5.275791e-05,0.0025546094,0.0025315108,0.0025203605,2.6868109e-05,0.00014351489,9.0334436e-07,-0.00010256668,0.00012391488,-1.040528e-05,0,0,1
17307000,17154000,17155000,0,0.008826894,-0.21918738,0.42904013,0.0025000002,0.0025000002,0.0025000002,0.00026411997,0.0033141077,0.0003632307,-0.0007568706,0.0012765597,9.1357346e-05,0.0025544716,0.0025315888,0.002520293,3.0343026e-06,0.00048210018,5.7185985e-06,-8.930654e-05,0.00016889164,-8.38063e-06,0,0,1
17379000,17225400,17227000,0,0.01084124,-0.21463929,0.4321204,0.0025000002,0.0025000002,0.0025000002,-0.0013372041,-0.001258254,-0.002734512,-0.0008293869,0.00095970975,-0.00026160758,0.0025543275,0.002531677,0.0025202439,7.778151e-05,6.958065e-05,0.0003293885,-8.7866414e-05,0.00013909304,-4.8492573e-05,0,0,1
17451000,17297000,17299000,0,0.007939297,-0.21619682,0.43007115,0.0025000002,0.0025000002,0.0025000002,0.0019137423,0.00038746,-0.0006322861,-0.0004857759,0.0008881783,-0.00030808014,0.002554186,0.0025317655,0.0025201929,0.00015932058,6.6292905e-06,1.7644028e-05,-5.6903176e-05,0.0001225003,-4.462841e-05,0,0,1
17523000,17368600,17371000,0,0.009006282,-0.2149009,0.42836347,0.0025000002,0.0025000002,0.0025000002,0.00042030195,-0.0011422336,0.0009704232,-0.00037227842,0.00063387316,-0.00014781622,0.002553824,0.0025293778,0.0025195056,7.685804e-06,5.7289675e-05,4.1609437e-05,-4.8812606e-05,9.997938e-05,-3.382605e-05,0,0,1
17595000,17440000,17443000,0,0.009886335,-0.21636878,0.43025783,0.0025000002,0.0025000002,0.0025000002,-0.0005082038,0.00039239228,-0.0008981824,-0.00038926315,0.0006036589,-0.00024160862,0.0025536718,0.0025294393,0.002519442,1.1237462e-05,6.7525907e-06,3.559692e-05,-4.4117358e-05,8.833011e-05,-3.404733e-05,0,0,1
17667000,17511800,17515000,0,0.0119814025,-0.2141294,0.4327379,0.0025000002,0.0025000002,0.0025000002,-0.0025970717,-0.00183703,-0.0033687353,-0.00066649413,0.00029698823,-0.00063409045,0.0025535333,0.0025294928,0.0025193805,0.0002934836,0.00014849062,0.0005000542,-7.5429874e-05,5.8592912e-05,-9.256307e-05,0,0,1
17739000,17583000,17587000,0,0.010244432,-0.2162569,0.42917776,0.0025000002,0.0025000002,0.0025000002,-0.0009960386,-0.00013586879,-3.5464764e-06,-0.0007075718,0.00024295867,-0.00055547344,0.0025533827,0.0025295517,0.0025193407,4.3171178e-05,8.1797464e-07,5.061175e-10,-7.140883e-05,5.1187355e-05,-8.102516e-05,0,0,1
17811000,17653400,17659000,0,0.0072320215,-0.21634014,0.42889127,0.0025000002,0.0025000002,0.0025000002,0.0014274116,5.543232e-05,0.00035053492,-0.00044406753,0.00021991793,-0.00044364983,0.0025532371,0.002529626,0.0025192753,8.8667555e-05,1.391079e-07,5.4198813e-06,-5.1651856e-05,4.488687e-05,-7.035593e-05,0,0,1
17875000,17720714,17723000,0,0.008586841,-0.21592034,0.42817673,0.0025000002,0.0025000002,0.0025000002,-3.8878225e-05,-0.0003361851,0.0010786653,-0.00039599027,0.00015393127,-0.00026298297,0.0025529813,0.002529677,0.0025192136,6.578437e-08,4.9649207e-06,5.13486e-05,-4.553097e-05,3.8971764e-05,-5.5915218e-05,0,0,1
17947000,17791666,17795000,0,0.0095648235,-0.21791135,0.42832848,0.0025000002,0.0025000002,0.0025000002,-0.0010735183,0.0013087094,0.00074633956,-0.00048018643,0.00029735686,-0.00013769636,0.002552673,0.00252757,0.0025186185,5.0162736e-05,7.521815e-05,2.4498724e-05,-4.6106557e-05,4.3476088e-05,-4.5922206e-05,0,0,1
18011000,17858333,17859000,0,0.010669235,-0.21575074,0.4316494,0.0025000002,0.0025000002,0.0025000002,-0.0023720413,-0.00080381334,-0.0025488138,-0.00070275855,0.00016764707,-0.00042129835,0.0025524271,0.0025275971,0.0025185521,0.00024493376,2.8498798e-05,0.00028649071,-6.94981e-05,3.5008416e-05,-7.422451e-05,0,0,1
18083000,17929285,17931000,0,0.009645541,-0.21455526,0.42803594,0.0025000002,0.0025000002,0.0025000002,-0.0013888224,-0.0020100772,0.0010725856,-0.00078801543,-0.000103079234,-0.00023545418,0.0025522935,0.0025276463,0.0025184979,8.396926e-05,0.00017775377,5.0907598e-05,-7.1296425e-05,8.568537e-06,-5.8674388e-05,0,0,1
18155000,18001000,18003000,0,0.011031248,-0.2146276,0.42919314,0.0025000002,0.0025000002,0.0025000002,-0.0032050519,-0.0024576932,-0.00035351515,-0.0010912046,-0.0003986648,-0.00025005048,0.0025520378,0.0025261638,0.0025180725,0.00044723987,0.000266066,5.4616416e-06,-0.00011845416,-2.5881176e-05,-5.199947e-05,0,0,1
