timestamp,timestamp_sample,device_id,bias,bias_var,innov,innov_var,innov_test_ratio
5771000,5619000,6620172,0.018239256,0.0010815117,-0.12564087,13.251121,0.00013236304
5835000,5681666,6620172,0.018240266,0.0021627566,0.006144289,13.176758,3.183407e-07
5899000,5744333,6620172,0.01826033,0.0032435546,0.08109445,13.112998,5.572342e-05
6027000,5871000,6620172,0.018254178,0.00540298,-0.0141098,12.685335,1.7438023e-06
6091000,5933666,6620172,0.018273884,0.0064812624,0.03850852,12.671904,1.3002572e-05
6155000,5996333,6620172,0.018276714,0.007558345,0.0047363695,12.659441,1.9689475e-07
6211000,6059000,6620172,0.018254615,0.008499026,-0.032864116,12.647712,9.488323e-06
6275000,6123000,6620172,0.01822724,0.009573364,-0.0361074,12.636932,1.1463263e-05
6339000,6185666,6620172,0.018233098,0.010645903,0.0068887267,12.528736,4.208508e-07
6403000,6248333,6620172,0.018178532,0.011716522,-0.05827216,12.524212,3.0125157e-05
6467000,6311000,6620172,0.018231325,0.012785041,0.05164569,12.519957,2.3671337e-05
6595000,6437666,6620172,0.01824673,0.014915057,0.013599334,12.512198,1.6423252e-06
6659000,6500333,6620172,0.018204039,0.0159762,-0.03338345,12.508677,9.899394e-06
6715000,6563000,6620172,0.018292015,0.016899616,0.064773254,12.459335,3.7415717e-05
6779000,6625666,6620172,0.01833076,0.017955262,0.026843483,12.457742,6.426816e-06
6843000,6689666,6620172,0.018293139,0.019007768,-0.024617381,12.456283,5.4057095e-06
6907000,6752333,6620172,0.018232523,0.020056967,-0.037580248,12.454957,1.2598955e-05
6971000,6815000,6620172,0.018203232,0.021102687,-0.01725596,12.453765,2.6566545e-06
7035000,6879000,6620172,0.018199889,0.022144767,-0.0018763281,12.452707,3.1413137e-08
7099000,6941666,6620172,0.018152848,0.023183042,-0.025218932,12.451643,5.6752397e-06
7163000,7004333,6620172,0.018066676,0.024217255,-0.044123307,12.424424,1.7410744e-05
7219000,7067000,6620172,0.018103577,0.02511269,0.018218724,12.424102,2.9684409e-06
7283000,7131000,6620172,0.018034074,0.026139064,-0.032965638,12.4241085,9.718858e-06
7347000,7193666,6620172,0.01807814,0.027161026,0.020112898,12.424227,3.6177407e-06
7411000,7256333,6620172,0.018083248,0.028178427,0.0022465661,12.424462,4.5135504e-08
7475000,7319000,6620172,0.018168947,0.029191121,0.03639063,12.424816,1.1842588e-05
7539000,7383000,6620172,0.018138614,0.030198855,-0.012431642,12.406684,1.3840722e-06
7603000,7445666,6620172,0.018358396,0.031201594,0.087177545,12.407478,6.805863e-05
7667000,7508333,6620172,0.018352158,0.03219919,-0.002397703,12.408388,5.1479333e-08
7723000,7571000,6620172,0.018498039,0.03305704,0.05461537,12.40911,2.6708323e-05
7787000,7635000,6620172,0.018545039,0.034044717,0.017085457,12.410247,2.6135467e-06
7851000,7697666,6620172,0.01842225,0.03502689,-0.043386348,12.411509,1.685152e-05
7915000,7759000,6620172,0.01860493,0.03600331,0.062723994,12.397982,3.525932e-05
7979000,7823000,6620172,0.01882128,0.03697398,0.07233745,12.39948,4.6890018e-05
8043000,7887000,6620172,0.018756032,0.037938785,-0.021262687,12.401105,4.0507307e-06
8107000,7949666,6620172,0.01912216,0.03889761,0.116375804,12.402859,0.000121328005
8171000,8012333,6620172,0.019193899,0.039850347,0.022259677,12.404746,4.438205e-06
8227000,8075000,6620172,0.019331388,0.04066258,0.04181074,12.406358,1.5656291e-05
8291000,8137666,6620172,0.019412242,0.041603733,0.02403409,12.408505,5.1724155e-06
8355000,8201666,6620172,0.019664101,0.042538345,0.07314757,12.397115,4.795531e-05
8419000,8264333,6620172,0.019528685,0.04346648,-0.038493447,12.399349,1.3277986e-05
8483000,8327000,6620172,0.019685563,0.044388045,0.043673217,12.401723,1.7088574e-05
8547000,8391000,6620172,0.019472674,0.045302954,-0.058076676,12.40424,3.0212792e-05
8611000,8453666,6620172,0.019652247,0.046211127,0.04803221,12.406902,2.0661377e-05
8675000,8516333,6620172,0.019822167,0.047112484,0.044587255,12.409714,1.7799885e-05
8731000,8579000,6620172,0.019968195,0.047872584,0.03767295,12.398414,1.2718932e-05
8795000,8643000,6620172,0.020233672,0.04876092,0.06725104,12.401165,4.05222e-05
8859000,8705666,6620172,0.020583648,0.049642228,0.08709665,12.404061,6.795109e-05
8923000,8768333,6620172,0.020445224,0.05051644,-0.033858795,12.407105,1.0266679e-05
8987000,8831000,6620172,0.020452082,0.0513835,0.0016495027,12.410298,2.4360226e-08
9051000,8895000,6620172,0.02056595,0.052243344,0.026941717,12.413644,6.4969386e-06
9115000,8957666,6620172,0.020497339,0.053095657,-0.015957795,12.402514,2.2813583e-06
9179000,9020333,6620172,0.020764066,0.053940646,0.06107615,12.405701,3.341023e-05
9235000,9083000,6620172,0.02058056,0.05464425,-0.041485503,12.40847,1.541104e-05
9299000,9147000,6620172,0.020615995,0.055475645,0.00789234,12.411929,5.5760904e-07
9363000,9209666,6620172,0.020360403,0.056299593,-0.05610794,12.415536,2.817349e-05
9427000,9272333,6620172,0.020807775,0.057116058,0.0968271,12.4192915,8.387924e-05
9491000,9335000,6620172,0.020889431,0.057925012,0.01743075,12.423196,2.7174174e-06
9555000,9399000,6620172,0.020713795,0.058726057,-0.036941677,12.410886,1.2217657e-05
9619000,9461666,6620172,0.020930098,0.05951952,0.044898998,12.414522,1.804267e-05
9683000,9524333,6620172,0.020786708,0.060305372,-0.029383468,12.418298,7.725054e-06
9739000,9587000,6620172,0.02088059,0.06094972,0.019038731,12.421558,3.2423316e-06
9803000,9651000,6620172,0.02154389,0.061721634,0.13286696,12.425597,0.00015786076
9867000,9713666,6620172,0.021098122,0.0624859,-0.0882248,12.429774,6.9578586e-05
9931000,9776333,6620172,-0.019897461,0.06324205,0.0,12.416444,0.0
11251000,11099000,6620172,-0.15773219,0.06385742,-0.021118164,12.44718,3.981061e-06
11315000,11163000,6620172,-0.1579643,0.06460033,-0.0445078,12.451735,1.7676648e-05
11379000,11225666,6620172,-0.15824573,0.06533558,-0.053369924,12.456365,2.5407347e-05
11443000,11288333,6620172,-0.15805161,0.066063166,0.036419556,12.461066,1.1826917e-05
11507000,11351000,6620172,-0.15801965,0.066782326,0.005921483,12.439586,3.1319337e-07
11571000,11415000,6620172,-0.1579406,0.067493804,0.014495477,12.443778,1.8761617e-06
11635000,11477666,6620172,-0.15812412,0.068197615,-0.033313066,12.448045,9.905709e-06
11699000,11540333,6620172,-0.15784068,0.06889377,0.050946385,12.452379,2.3159644e-05
11755000,11603000,6620172,-0.1581425,0.06944857,-0.053829238,12.455993,2.5847325e-05
11819000,11667000,6620172,-0.15780963,0.07013093,0.05880779,12.460446,3.0838524e-05
11883000,11729666,6620172,-0.15791544,0.07080568,-0.018520936,12.464961,3.057683e-06
11947000,11792333,6620172,-0.15762323,0.07147199,0.05058512,12.444307,2.2847167e-05
12011000,11855000,6620172,-0.15780537,0.07213071,-0.03125006,12.448359,8.7166e-06
12075000,11919000,6620172,-0.1579934,0.07278185,-0.03198345,12.452472,9.127515e-06
12139000,11981666,6620172,-0.15821488,0.07342546,-0.03734961,12.456642,1.2443103e-05
12203000,12044333,6620172,-0.15796427,0.07406154,0.04191239,12.460871,1.5663687e-05
12259000,12107000,6620172,-0.1579771,0.07455655,-0.0021309406,12.464363,4.047903e-08
12323000,12169666,6620172,-0.15795659,0.07517842,0.0033750534,12.4449215,1.01701325e-07
12387000,12233666,6620172,-0.15846099,0.07579285,-0.082338825,12.448767,6.0511855e-05
12451000,12296333,6620172,-0.15937293,0.07639986,-0.14772187,12.452668,0.00019470841
12515000,12359000,6620172,-0.15940797,0.07699951,-0.005635619,12.456622,2.8329603e-07
12579000,12423000,6620172,-0.15950905,0.07759182,-0.016129136,12.460626,2.319743e-06
12643000,12485666,6620172,-0.15970401,0.07817684,-0.030890122,12.464677,8.505811e-06
12707000,12548333,6620172,-0.15945795,0.0787537,0.038640782,12.446191,1.332947e-05
12763000,12611000,6620172,-0.15936942,0.079189844,0.013828069,12.449183,1.7066313e-06
12827000,12675000,6620172,-0.1592903,0.079754,0.012274697,12.452883,1.3443403e-06
12891000,12736333,6620172,-0.15913175,0.080311015,0.024433121,12.45663,5.3249414e-06
12955000,12800333,6620172,-0.15959832,0.080860935,-0.07142855,12.4604225,4.5495497e-05
13019000,12863000,6620172,-0.1596999,0.081403814,-0.015450507,12.464257,2.1280243e-06
13083000,12927000,6620172,-0.15940735,0.081939705,0.044221386,12.468132,1.7426928e-05
13147000,12989666,6620172,-0.15996525,0.08246768,-0.08366516,12.450205,6.246983e-05
13211000,13052333,6620172,-0.16055924,0.082988754,-0.08853939,12.453722,6.9940936e-05
13267000,13115000,6620172,-0.16131367,0.08336957,-0.111962736,12.456613,0.00011181615
13331000,13179000,6620172,-0.16232553,0.08387877,-0.14929424,12.460206,0.00019875515
13395000,13241666,6620172,-0.16327307,0.08438122,-0.13900504,12.46384,0.00017225296
13459000,13304333,6620172,-0.16367155,0.08487698,-0.058131963,12.467508,3.011673e-05
13523000,13367000,6620172,-0.16421847,0.0853651,-0.07921785,12.45048,5.6003802e-05
13587000,13431000,6620172,-0.1642123,0.085846625,0.00088839233,12.453817,7.04149e-09
13651000,13493666,6620172,-0.16427983,0.086321615,-0.009676859,12.457194,8.3522997e-07
13715000,13556333,6620172,-0.16425605,0.08679012,0.0033911616,12.4606085,1.02545165e-07
13771000,13619000,6620172,-0.16423987,0.08711889,0.002299264,12.463389,4.7130175e-08
13835000,13683000,6620172,-0.16443077,0.08757647,-0.026983276,12.4668665,6.4891756e-06
13899000,13745666,6620172,-0.16477132,0.08802746,-0.047880024,12.464785,2.0435318e-05
13963000,13808333,6620172,-0.1649523,0.08847146,-0.025292158,12.453829,5.7072434e-06
14027000,13871000,6620172,-0.16487327,0.08890925,0.010991111,12.457034,1.0775218e-06
14091000,13935000,6620172,-0.16521543,0.0893409,-0.047376484,12.460274,2.0014997e-05
14155000,13997666,6620172,-0.1648526,0.08976648,0.050011575,12.463547,2.2297538e-05
14219000,14060333,6620172,-0.16567479,0.09018604,-0.11282684,12.46685,0.000113455506
14275000,14123000,6620172,-0.16578032,0.09046639,-0.014439955,12.469516,1.857974e-06
14339000,14187000,6620172,-0.1654054,0.090875,0.05100371,12.453745,2.3209248e-05
14403000,14249666,6620172,-0.16502061,0.091277756,0.052124143,12.456792,2.4234223e-05
14467000,14312333,6620172,-0.16525398,0.09167472,-0.03148207,12.459871,8.838337e-06
14531000,14375000,6620172,-0.16589062,0.09206597,-0.085539475,12.46298,6.523321e-05
14595000,14439000,6620172,-0.166821,0.09245155,-0.124514654,12.466118,0.00013818701
14659000,14501666,6620172,-0.16709173,0.09283154,-0.036090374,12.469283,1.1606432e-05
14723000,14564333,6620172,-0.1671538,0.09320495,-0.008231759,12.454144,6.045454e-07
14779000,14627000,6620172,-0.16712582,0.093439706,0.003701657,12.456468,1.2222357e-07
14843000,14691000,6620172,-0.16754432,0.09380422,-0.055164218,12.459396,2.7137849e-05
14907000,14753666,6620172,-0.1671177,0.094163366,0.05603309,12.462355,2.7992812e-05
14971000,14816333,6620172,-0.16761248,0.09451721,-0.06475486,12.46534,3.7376456e-05
15035000,14879000,6620172,-0.16801275,0.09486581,-0.052205637,12.46835,2.4287525e-05
15099000,14943000,6620172,-0.16914754,0.095208965,-0.14744745,12.466926,0.00019376382
15163000,15005666,6620172,-0.16911106,0.095546216,0.004718825,12.456636,1.986207e-07
15227000,15068333,6620172,-0.16916871,0.095878415,-0.0074331313,12.459431,4.9272313e-07
15283000,15131000,6620172,-0.16920823,0.096072495,-0.0050866604,12.461673,2.306995e-07
15347000,15195000,6620172,-0.16974257,0.09639682,-0.06855422,12.464517,4.189387e-05
15411000,15257666,6620172,-0.16981222,0.096716255,-0.008907333,12.467387,7.0709444e-07
15475000,15320333,6620172,-0.16979249,0.09703086,0.002514854,12.470278,5.635169e-08
15539000,15383000,6620172,-0.16942406,0.09733965,0.04677613,12.456153,1.9517409e-05
15603000,15447000,6620172,-0.17019583,0.09764374,-0.097696304,12.45882,8.512103e-05
15667000,15509666,6620172,-0.17094171,0.09794319,-0.09414743,12.4615135,7.903212e-05
15731000,15572333,6620172,-0.17173734,0.09823805,-0.100145936,12.4642315,8.940435e-05
15787000,15635000,6620172,-0.17265186,0.09839531,-0.114944786,12.466393,0.0001177593
15851000,15699000,6620172,-0.17290203,0.09868328,-0.031358153,12.469154,8.762367e-06
15915000,15761666,6620172,-0.17284834,0.09896579,0.0067033023,12.455606,4.0083924e-07
15979000,15824333,6620172,-0.17346156,0.099243924,-0.0763582,12.458155,5.2001415e-05
16043000,15887000,6620172,-0.17386477,0.099517755,-0.050079703,12.46073,2.2363383e-05
16107000,15951000,6620172,-0.17371939,0.09978734,0.018011495,12.463328,2.8921645e-06
16171000,16013666,6620172,-0.17424747,0.10005274,-0.06526376,12.465951,3.796438e-05
16235000,16076333,6620172,-0.17452651,0.100314006,-0.03440121,12.468595,1.054599e-05
16291000,16139000,6620172,-0.17593007,0.10043817,-0.17285508,12.470679,0.00026621448
16355000,16203000,6620172,-0.17652175,0.100692436,-0.07260509,12.457444,4.7017842e-05
16419000,16265666,6620172,-0.1773206,0.100942716,-0.09780076,12.45991,8.529569e-05
16483000,16328333,6620172,-0.1783623,0.10118907,-0.12724483,12.4623995,0.00014435641
16547000,16391000,6620172,-0.17891175,0.101431556,-0.066968516,12.464912,3.9976945e-05
16611000,16455000,6620172,-0.17936002,0.10167023,-0.05451721,12.467446,2.6487882e-05
16675000,16517666,6620172,-0.17936246,0.101905145,-0.00029696524,12.47,7.857824e-10
16739000,16580333,6620172,-0.18047197,0.102135316,-0.13420565,12.457207,0.00016064916
16795000,16643000,6620172,-0.18076645,0.10222884,-0.03559248,12.459059,1.1297668e-05
16859000,16707000,6620172,-0.18170094,0.10245395,-0.1127211,12.461449,0.000113292044
16923000,16769666,6620172,-0.18225436,0.102675475,-0.06662059,12.4638605,3.9565974e-05
16987000,16832333,6620172,-0.18313444,0.10289349,-0.105740026,12.466293,9.965497e-05
17051000,16895000,6620172,-0.18414067,0.10310804,-0.12066805,12.468747,0.00012975356
17115000,16959000,6620172,-0.18491489,0.10331815,-0.09256221,12.456421,7.642434e-05
17179000,17021666,6620172,-0.18566,0.1035249,-0.08891934,12.458697,7.0514325e-05
17243000,17084333,6620172,-0.1853898,0.10372835,0.032187104,12.460998,9.237799e-06
17299000,17147000,6620172,-0.18569537,0.10379557,-0.03638144,12.462801,1.1800531e-05
17363000,17211000,6620172,-0.18570079,0.103994764,-0.00064496696,12.465143,3.707961e-09
17427000,17273666,6620172,-0.1864392,0.10419077,-0.08761464,12.4675045,6.841185e-05
17491000,17336333,6620172,-0.18766238,0.10438363,-0.14489014,12.469885,0.00018705647
17555000,17399000,6620172,-0.18804672,0.10457237,-0.045400366,12.457804,1.8383776e-05
17619000,17463000,6620172,-0.18852367,0.10475807,-0.05624649,12.46002,2.8211722e-05
17683000,17525666,6620172,-0.18933268,0.10494078,-0.095259294,12.462258,8.090502e-05
17747000,17588333,6620172,-0.19022952,0.10512055,-0.10543661,12.464518,9.9098e-05
17803000,17651000,6620172,-0.19124933,0.10516448,-0.11985959,12.466276,0.00012804609
17867000,17715000,6620172,-0.19155361,0.105340734,-0.035709903,12.468574,1.1363655e-05
17931000,17777666,6620172,-0.19163135,0.105513126,-0.009099469,12.4569,7.385495e-07
17995000,17840333,6620172,-0.19160827,0.10568273,0.0026970208,12.459039,6.486965e-08
18059000,17903000,6620172,-0.19196841,0.10584959,-0.042034313,12.461201,1.5754533e-05
18123000,17967000,6620172,-0.1920202,0.10601284,-0.0060296357,12.451199,3.2443555e-07
18187000,18029666,6620172,-0.19337673,0.10617345,-0.15774177,12.453221,0.00022200828
18251000,18092333,6620172,-0.19371454,0.10633144,-0.039228246,12.455267,1.372784e-05
18307000,18155000,6620172,-0.19401662,0.10635395,-0.03507574,12.4568615,1.09739385e-05
18371000,18219000,6620172,-0.1947728,0.106509104,-0.08769114,12.458952,6.857842e-05
18435000,18281666,6620172,-0.19573525,0.10666174,-0.1114711,12.461064,0.000110796725
18499000,18344333,6620172,-0.19630551,0.10681171,-0.06595299,12.4607935,3.8786515e-05
18563000,18407000,6620172,-0.19725035,0.106958516,-0.10905337,12.453141,0.000106110114
18627000,18471000,6620172,-0.1986437,0.10710292,-0.16062929,12.45514,0.00023017511
18691000,18533666,6620172,-0.1990942,0.107244976,-0.0518751,12.457163,2.4002486e-05
18755000,18596333,6620172,-0.19906265,0.10738472,0.0036291182,12.459208,1.17454405e-07
18811000,18659000,6620172,-0.19945268,0.1073893,-0.044864357,12.460791,1.7947947e-05
18875000,18723000,6620172,-0.1997298,0.10752681,-0.03184004,12.462876,9.038295e-06
18939000,18785666,6620172,-0.2004437,0.107661165,-0.08185589,12.45294,5.978407e-05
19003000,18848333,6620172,-0.20038185,0.10779332,0.007084325,12.454893,4.4772818e-07
19067000,18911000,6620172,-0.20164718,0.10792333,-0.14477196,12.45687,0.00018694656
19131000,18973666,6620172,-0.20224832,0.10805121,-0.06870805,12.458868,4.2101165e-05
19195000,19037666,6620172,-0.20347023,0.108177006,-0.13951804,12.460888,0.00017356781
19259000,19100333,6620172,-0.20398784,0.10830075,-0.059041977,12.462928,3.1078438e-05
19315000,19163000,6620172,-0.20509805,0.10828871,-0.12654805,12.452634,0.00014289177
19379000,19225666,6620172,-0.20517237,0.10840986,-0.008463964,12.454543,6.391125e-07
19507000,19352333,6620172,-0.20637573,0.108646244,-0.13686948,12.458429,0.00016707343
19571000,19415000,6620172,-0.20727776,0.10876156,-0.10243164,12.460405,9.3560724e-05
19635000,19479000,6620172,-0.20680755,0.10887499,0.053347096,12.462401,2.5373321e-05
19699000,19541666,6620172,-0.20671286,0.10898641,0.010732114,12.462167,1.026915e-06
19763000,19604333,6620172,-0.20746437,0.10909526,-0.08503519,12.454558,6.450992e-05
19819000,19667000,6620172,-0.20821032,0.1090695,-0.08443627,12.455998,6.359706e-05
19883000,19731000,6620172,-0.2087034,0.10917714,-0.05576673,12.457911,2.7737204e-05
19947000,19793666,6620172,-0.20873964,0.10928304,-0.0040956736,12.459844,1.4958759e-07
20011000,19856333,6620172,-0.20957045,0.10938721,-0.09381163,12.461798,7.8467565e-05
20075000,19919000,6620172,-0.20972674,0.109489694,-0.017632917,12.463772,2.7717642e-06
20139000,19983000,6620172,-0.21005206,0.10958959,-0.036641672,12.454056,1.1978357e-05
20203000,20045666,6620172,-0.21016675,0.10968786,-0.012909368,12.455907,1.486593e-06
20267000,20108333,6620172,-0.21053016,0.10978453,-0.040870845,12.457781,1.4898552e-05
20323000,20171000,6620172,-0.21117577,0.1097468,-0.072642446,12.459217,4.705954e-05
20387000,20235000,6620172,-0.21134736,0.10984269,-0.01929298,12.461131,3.3189347e-06
20451000,20297666,6620172,-0.21125978,0.10993702,0.009839788,12.463065,8.6318545e-07
20515000,20360333,6620172,-0.21120004,0.110028915,0.006700456,12.453495,4.0056682e-07
20579000,20423000,6620172,-0.21130033,0.11011931,-0.011242583,12.455309,1.1275484e-06
20643000,20487000,6620172,-0.2114344,0.11020824,-0.015018031,12.457145,2.0117081e-06
20707000,20549666,6620172,-0.21118134,0.110295735,0.028328925,12.459001,7.157057e-06
20771000,20612333,6620172,-0.21113361,0.11038181,0.005340278,12.460878,2.542943e-07
20827000,20675000,6620172,-0.21087097,0.11033368,0.029401436,12.46231,7.70719e-06
20891000,20739000,6620172,-0.21060614,0.11041935,0.02962707,12.464225,7.824735e-06
20955000,20801666,6620172,-0.21057852,0.11050272,0.0030866116,12.454667,8.499421e-08
21019000,20864333,6620172,-0.21050873,0.11058474,0.0077892095,12.456467,5.4118954e-07
21083000,20927000,6620172,-0.21052352,0.11066544,-0.0016494691,12.458286,2.4265407e-08
21147000,20991000,6620172,-0.21001281,0.110744014,0.056898028,12.449881,2.8892606e-05
21211000,21053666,6620172,-0.21035329,0.110821314,-0.037911996,12.451597,1.2825837e-05
21267000,21115000,6620172,-0.21051739,0.11076456,-0.01828441,12.4529085,2.982968e-06
21331000,21179000,6620172,-0.21071766,0.11084174,-0.022301212,12.454668,4.436927e-06
21395000,21243000,6620172,-0.21086825,0.11091768,-0.016760364,12.4564495,2.5057059e-06
21459000,21305666,6620172,-0.21067463,0.110992394,0.0215372,12.458253,4.1369362e-06
21523000,21368333,6620172,-0.21131325,0.11106508,-0.07094158,12.449836,4.4915432e-05
21587000,21431000,6620172,-0.21168725,0.1111366,-0.041524887,12.451533,1.5386917e-05
21651000,21495000,6620172,-0.2115045,0.11120697,0.020281002,12.453254,3.6698937e-06
21715000,21557666,6620172,-0.2118312,0.11127622,-0.036237195,12.454997,1.171448e-05
21779000,21620333,6620172,-0.21244909,0.11134435,-0.068503276,12.456762,4.1857664e-05
21835000,21683000,6620172,-0.21322381,0.11127861,-0.08595179,12.458104,6.588938e-05
21899000,21747000,6620172,-0.21368837,0.11134696,-0.051516175,12.4599085,2.3666273e-05
21963000,21809666,6620172,-0.21442986,0.11141338,-0.08211851,12.451372,6.0175873e-05
22027000,21872333,6620172,-0.21456371,0.111478746,-0.0148181915,12.4530735,1.9591664e-06
22091000,21935000,6620172,-0.21354853,0.11154307,0.112329826,12.454796,0.00011256699
22155000,21999000,6620172,-0.2133097,0.11160637,0.026414737,12.456542,6.223756e-06
22219000,22061666,6620172,-0.21324159,0.11166867,0.007529676,12.458307,5.056512e-07
22283000,22124333,6620172,-0.21338174,0.11172999,-0.015487656,12.4600935,2.1389842e-06
22339000,22187000,6620172,-0.21401939,0.11165671,-0.07046226,12.451125,4.4305943e-05
22403000,22251000,6620172,-0.21370526,0.11171765,0.0346981,12.452806,1.07424075e-05
22467000,22312333,6620172,-0.21402735,0.111777626,-0.03556232,12.45451,1.1282647e-05
22531000,22376333,6620172,-0.21365677,0.11183666,0.040901124,12.456234,1.4922488e-05
22595000,22439000,6620172,-0.21328554,0.11189476,0.040957794,12.457979,1.4961771e-05
22659000,22503000,6620172,-0.21333951,0.111951955,-0.0059527457,12.459745,3.15997e-07
22723000,22565666,6620172,-0.21332242,0.11200741,0.0018832088,12.451222,3.164772e-08
22787000,22628333,6620172,-0.21449247,0.11206199,-0.12884067,12.452885,0.0001481131
22843000,22691000,6620172,-0.21474127,0.11198295,-0.027420372,12.454146,6.707956e-06
22907000,22755000,6620172,-0.21442252,0.112038225,0.03511481,12.455851,1.09992925e-05
22971000,22817666,6620172,-0.21367261,0.11209264,0.08258659,12.457576,6.0833525e-05
23035000,22880333,6620172,-0.21424681,0.112146206,-0.06321338,12.459321,3.563536e-05
23099000,22943000,6620172,-0.21463214,0.11219895,-0.042406023,12.461086,1.6034546e-05
23163000,23007000,6620172,-0.21420126,0.11225002,0.047365293,12.452483,2.0018058e-05
23227000,23068333,6620172,-0.213938,0.1123003,0.02892904,12.454147,7.4664044e-06
23291000,23132333,6620172,-0.21418293,0.1123498,-0.026906729,12.4558325,6.4581263e-06
23347000,23195000,6620172,-0.21339098,0.11226577,0.087077215,12.457107,6.7631554e-05
23411000,23259000,6620172,-0.21328676,0.112316154,0.011456162,12.458831,1.1704651e-06
23475000,23321666,6620172,-0.21257634,0.11236576,0.07806337,12.460575,5.4339293e-05
23539000,23384333,6620172,-0.21214074,0.11241376,0.04781194,12.452025,2.0398124e-05
23603000,23447000,6620172,-0.21251608,0.112461016,-0.041185677,12.453668,1.5133962e-05
23667000,23511000,6620172,-0.21202041,0.11250755,0.054373994,12.455333,2.6374524e-05
23731000,23573666,6620172,-0.2127641,0.11255338,-0.08155869,12.457018,5.93313e-05
23795000,23636333,6620172,-0.21288605,0.11259851,-0.013371155,12.458723,1.5944898e-06
23851000,23699000,6620172,-0.21308354,0.11251019,-0.021672055,12.460008,4.1883154e-06
23915000,23763000,6620172,-0.21251579,0.11255551,0.062235147,12.451519,3.4562614e-05
23979000,23825666,6620172,-0.21199372,0.11260014,0.05721183,12.453141,2.9204535e-05
24043000,23888333,6620172,-0.21177517,0.11264409,0.023944408,12.454785,5.114809e-06
24107000,23951000,6620172,-0.21069734,0.11268738,0.11805569,12.4564495,0.00012431887
24171000,24015000,6620172,-0.21014884,0.11273001,0.060062572,12.458134,3.2174543e-05
24235000,24077666,6620172,-0.20939337,0.11277201,0.082707435,12.459839,6.1000606e-05
24299000,24140333,6620172,-0.20882224,0.11281338,0.06251226,12.461562,3.4842993e-05
24355000,24203000,6620172,-0.2086938,0.11272053,0.014059052,12.452575,1.7636418e-06
24419000,24267000,6620172,-0.20826702,0.11276223,0.046706498,12.454199,1.9462395e-05
24483000,24329666,6620172,-0.2078895,0.1128033,0.04130535,12.455843,1.521938e-05
24547000,24392333,6620172,-0.20764479,0.11284377,0.026767671,12.457508,6.390686e-06
24611000,24455000,6620172,-0.20765899,0.112883635,-0.0015532076,12.459191,2.1514273e-08
24675000,24519000,6620172,-0.20710927,0.112922914,0.0601065,12.460896,3.221448e-05
24739000,24581666,6620172,-0.20722003,0.11296076,-0.012098491,12.452391,1.3060722e-06
24803000,24644333,6620172,-0.20740834,0.11299805,-0.02056317,12.453996,3.7724972e-06
24859000,24707000,6620172,-0.20698443,0.11290204,0.04633656,12.455203,1.9153771e-05
24923000,24771000,6620172,-0.20754838,0.11294064,-0.061631292,12.456848,3.388066e-05
24987000,24833666,6620172,-0.20736769,0.112978674,0.019743204,12.458513,3.4763746e-06
25051000,24896333,6620172,-0.20688467,0.11301616,0.052765638,12.460197,2.4827612e-05
25115000,24959000,6620172,-0.20632365,0.11305225,0.061224267,12.45177,3.3448265e-05
25179000,25023000,6620172,-0.20576656,0.11308781,0.060785323,12.453356,3.2966174e-05
25243000,25085666,6620172,-0.20538372,0.11312285,0.041765094,12.454962,1.5561161e-05
25307000,25148333,6620172,-0.20529893,0.11315739,0.009247243,12.456589,7.627513e-07
25363000,25211000,6620172,-0.20525078,0.11305868,0.005256206,12.4578085,2.4641125e-07
25427000,25275000,6620172,-0.20588326,0.113094635,-0.06904121,12.459474,4.2508378e-05
25491000,25337666,6620172,-0.20580739,0.11313007,0.008281946,12.461156,6.1159506e-07
25555000,25400333,6620172,-0.20540912,0.11316415,0.043423355,12.452695,1.682445e-05
25619000,25463000,6620172,-0.20505308,0.11319774,0.038813666,12.454282,1.34402735e-05
25683000,25527000,6620172,-0.20495223,0.11323084,0.010991797,12.45589,1.0777552e-06
25747000,25589666,6620172,-0.20406847,0.11326347,0.09630965,12.457517,8.273049e-05
25811000,25652333,6620172,-0.2034484,0.113295645,0.06756334,12.459164,4.0709034e-05
25867000,25715000,6620172,-0.20347957,0.113194615,-0.0033997446,12.460396,1.0306667e-07
25931000,25777666,6620172,-0.20304838,0.11322745,0.046985433,12.452017,1.9699002e-05
25995000,25841666,6620172,-0.20343284,0.113259815,-0.041885704,12.453587,1.5652897e-05
26059000,25904333,6620172,-0.20229118,0.11329172,0.1243618,12.455175,0.00013796904
26123000,25967000,6620172,-0.20223327,0.113323174,0.006307289,12.456784,3.5484362e-07
26187000,26031000,6620172,-0.2016025,0.11335419,0.06868835,12.458413,4.207856e-05
26251000,26093666,6620172,-0.20178802,0.113384776,-0.020199254,12.460061,3.6383794e-06
26315000,26156333,6620172,-0.20077044,0.113414094,0.11069305,12.451732,0.000109337336
26371000,26219000,6620172,-0.20023464,0.113310255,0.0583449,12.452879,3.0373409e-05
26435000,26283000,6620172,-0.20013085,0.113341175,0.0113003105,12.454451,1.1392359e-06
26499000,26345666,6620172,-0.19963384,0.113371655,0.05410424,12.456041,2.6111993e-05
26563000,26408333,6620172,-0.19982629,0.11340172,-0.020947218,12.457653,3.9135775e-06
26627000,26471000,6620172,-0.19992109,0.113431364,-0.010317758,12.459282,9.4936917e-07
26691000,26535000,6620172,-0.20000522,0.1134606,-0.009154841,12.460931,7.4732355e-07
26755000,26597666,6620172,-0.19993314,0.11348859,0.007836029,12.452574,5.4788626e-07
26819000,26660333,6620172,-0.19972163,0.113516204,0.022992224,12.454129,4.7163503e-06
26875000,26723000,6620172,-0.19950444,0.1134107,0.023635209,12.455293,4.983362e-06
26939000,26787000,6620172,-0.19928107,0.11343998,0.024303019,12.456886,5.2682753e-06
27003000,26849666,6620172,-0.19861874,0.113468856,0.07205328,12.458499,4.6301957e-05
27067000,26912333,6620172,-0.19855833,0.11349734,0.0065716207,12.46013,3.8510566e-07
27131000,26975000,6620172,-0.19852003,0.1135246,0.004161358,12.451859,1.545231e-07
27195000,27039000,6620172,-0.19812289,0.11355149,0.043155044,12.453398,1.661624e-05
27259000,27101666,6620172,-0.19784817,0.113578014,0.029848963,12.454956,7.948292e-06
27323000,27164333,6620172,-0.19743381,0.11360418,0.04501614,12.456534,1.8075769e-05
27379000,27227000,6620172,-0.19680004,0.11349726,0.06892429,12.457712,4.2370524e-05
27443000,27291000,6620172,-0.19663846,0.11352515,0.017570302,12.459327,2.753096e-06
27507000,27353666,6620172,-0.19669251,0.11355253,-0.0058761835,12.459339,3.0793086e-07
27571000,27416333,6620172,-0.19588701,0.11357884,0.08750062,12.452665,6.831521e-05
27635000,27479000,6620172,-0.19572832,0.1136048,0.017237112,12.454207,2.65076e-06
27699000,27543000,6620172,-0.19564384,0.113630414,0.009174362,12.455769,7.50825e-07
27763000,27604333,6620172,-0.19498518,0.11365569,0.07152885,12.45735,4.563461e-05
27819000,27667000,6620172,-0.19385268,0.113547884,0.123116285,12.4585285,0.0001351829
27883000,27731000,6620172,-0.19341971,0.113574915,0.047063127,12.460146,1.975131e-05
27947000,27795000,6620172,-0.19302547,0.11360075,0.04281546,12.451936,1.6357686e-05
28011000,27857666,6620172,-0.19275764,0.11362624,0.02908504,12.453463,7.5475623e-06
28075000,27920333,6620172,-0.19287336,0.113651395,-0.012564629,12.455009,1.4083572e-06
28139000,27983000,6620172,-0.19263104,0.11367622,0.026308417,12.456574,6.1737396e-06
28203000,28047000,6620172,-0.19268553,0.11370072,-0.0059163272,12.4581585,3.1218212e-07
28267000,28109666,6620172,-0.19238333,0.1137249,0.032803938,12.459761,9.59621e-06
28331000,28172333,6620172,-0.19289206,0.11374795,-0.05517526,12.451603,2.7165708e-05
28387000,28235000,6620172,-0.19269174,0.113637954,0.021749482,12.452716,4.2207657e-06
28451000,28299000,6620172,-0.19235606,0.113662824,0.036441743,12.4542465,1.18478165e-05
28515000,28361666,6620172,-0.19227871,0.113687366,0.008396104,12.455797,6.288421e-07
28579000,28424333,6620172,-0.19236907,0.113711596,-0.009808689,12.457366,8.581303e-07
28643000,28487000,6620172,-0.19279744,0.11373551,-0.04649201,12.458954,1.9276695e-05
28707000,28551000,6620172,-0.19302198,0.11375899,-0.024365649,12.458982,5.294572e-06
28771000,28613666,6620172,-0.19200626,0.113781475,0.11013624,12.452377,0.0001082345
28835000,28676333,6620172,-0.1919982,0.11380367,0.00087466836,12.453896,6.8255726e-09
28891000,28739000,6620172,-0.19215976,0.11369285,-0.017535493,12.455024,2.7431456e-06
28955000,28803000,6620172,-0.19110623,0.11371691,0.11433993,12.456579,0.00011661504
29019000,28865666,6620172,-0.19067593,0.11374066,0.04669705,12.458153,1.944835e-05
29083000,28928333,6620172,-0.19016631,0.11376411,0.055299953,12.4597435,2.72708e-05
29147000,28991000,6620172,-0.19041981,0.11378643,-0.027485058,12.451644,6.7409965e-06
29211000,29055000,6620172,-0.19015388,0.11380847,0.028829232,12.453147,7.4155696e-06
29275000,29117666,6620172,-0.19028789,0.11383023,-0.014527515,12.45467,1.8828162e-06
29339000,29180333,6620172,-0.190033,0.113851726,0.027629197,12.456211,6.8093877e-06
29395000,29243000,6620172,-0.18987073,0.11374021,0.017608687,12.457357,2.7655756e-06
29459000,29307000,6620172,-0.18971331,0.1137636,0.017080203,12.458933,2.6017328e-06
29523000,29369666,6620172,-0.1900428,0.11378587,-0.035720035,12.450916,1.138623e-05
29587000,29432333,6620172,-0.18963423,0.11380786,0.04429084,12.452405,1.750379e-05
29651000,29495000,6620172,-0.18862948,0.11382957,0.10891524,12.453914,0.000105834915
29715000,29559000,6620172,-0.18803343,0.11385101,0.06460604,12.455441,3.7234422e-05
29779000,29621666,6620172,-0.18775342,0.113872185,0.030349106,12.456988,8.215542e-06
29835000,29683000,6620172,-0.18687806,0.11376037,0.09497999,12.458136,8.045789e-05
29899000,29747000,6620172,-0.18633078,0.11378345,0.059375614,12.459717,3.1438773e-05
29963000,29811000,6620172,-0.18611269,0.11380542,0.023641571,12.451674,4.987494e-06
30027000,29872333,6620172,-0.18677528,0.11382712,-0.07182188,12.45317,4.602472e-05
30091000,29936333,6620172,-0.18661077,0.11384854,0.01782997,12.454684,2.836129e-06
30155000,29999000,6620172,-0.18658322,0.1138697,0.0029865056,12.456217,7.95606e-08
30219000,30063000,6620172,-0.18677557,0.113890596,-0.020844758,12.4577675,3.8753506e-06
30283000,30125666,6620172,-0.18688223,0.11391124,-0.011558175,12.459336,1.1913548e-06
30347000,30188333,6620172,-0.18735635,0.11393082,-0.051337987,12.45134,2.3519013e-05
30403000,30251000,6620172,-0.18696043,0.11381743,0.042916656,12.452426,1.6434453e-05
30467000,30315000,6620172,-0.18670778,0.11383897,0.027384013,12.453928,6.6902962e-06
30531000,30377666,6620172,-0.18676746,0.11386024,-0.0064684898,12.455448,3.7325353e-07
30595000,30440333,6620172,-0.18635494,0.113881245,0.044708133,12.456985,1.7828614e-05
30659000,30503000,6620172,-0.18699573,0.113901995,-0.069443405,12.458542,4.3008302e-05
30723000,30567000,6620172,-0.18762098,0.11392169,-0.06770398,12.450623,4.0906732e-05
30787000,30629666,6620172,-0.18781209,0.11394114,-0.020692006,12.452093,3.8205008e-06
30851000,30692333,6620172,-0.18788023,0.11396036,-0.00737834,12.453582,4.857139e-07
30907000,30755000,6620172,-0.18747945,0.11384662,0.043440536,12.454686,1.6835074e-05
30971000,30819000,6620172,-0.18800816,0.11386781,-0.057302043,12.456213,2.928948e-05
31035000,30881666,6620172,-0.18784888,0.11388874,0.01726231,12.457756,2.6577584e-06
31099000,30944333,6620172,-0.18800786,0.113909416,-0.017229244,12.459317,2.6472544e-06
31163000,31007000,6620172,-0.18863983,0.11392903,-0.06843135,12.451371,4.1787895e-05
31227000,31071000,6620172,-0.18901318,0.11394842,-0.040425107,12.4528475,1.4581129e-05
31291000,31133666,6620172,-0.18891409,0.113967575,0.010729492,12.454344,1.0270579e-06
31347000,31195000,6620172,-0.1894757,0.11385377,-0.060872287,12.455452,3.3055003e-05
31411000,31259000,6620172,-0.18912916,0.11387489,0.037559196,12.456984,1.2582797e-05
31475000,31323000,6620172,-0.18958129,0.11389576,-0.048999503,12.458533,2.1412821e-05
31539000,31385666,6620172,-0.18976554,0.11391557,-0.019952402,12.45066,3.5526748e-06
31603000,31448333,6620172,-0.18952535,0.11393514,0.026008219,12.452125,6.0358057e-06
31667000,31511000,6620172,-0.18986402,0.11395448,-0.036670938,12.4536085,1.199793e-05
31731000,31575000,6620172,-0.19007896,0.11397358,-0.023270741,12.455111,4.8309257e-06
31795000,31637666,6620172,-0.18995507,0.11399247,0.013412699,12.456631,1.604683e-06
31859000,31700333,6620172,-0.18949772,0.11401113,0.049513176,12.458168,2.186477e-05
31915000,31763000,6620172,-0.18927611,0.11389605,0.024000898,12.449953,5.140966e-06
31979000,31827000,6620172,-0.18962915,0.11391592,-0.03823243,12.451406,1.3043764e-05
32043000,31889666,6620172,-0.19007309,0.113935545,-0.048072264,12.452877,2.0619444e-05
32107000,31952333,6620172,-0.19017193,0.11395494,-0.010702059,12.454367,1.0218108e-06
32171000,32015000,6620172,-0.1908434,0.1139741,-0.07270649,12.455876,4.7155198e-05
32235000,32077666,6620172,-0.19055744,0.11399304,0.030961812,12.457402,8.550327e-06
32299000,32141666,6620172,-0.19071777,0.114011765,-0.017358825,12.458944,2.6873042e-06
32363000,32204333,6620172,-0.19129509,0.11402947,-0.062456056,12.451085,3.480963e-05
32419000,32267000,6620172,-0.19122173,0.11391424,0.007945478,12.452153,5.6331726e-07
32483000,32331000,6620172,-0.19137898,0.11393396,-0.017030224,12.453632,2.5876302e-06
32547000,32393666,6620172,-0.19154719,0.11395345,-0.018215746,12.45513,2.9600778e-06
32611000,32456333,6620172,-0.19228849,0.11397271,-0.08027288,12.456644,5.747701e-05
32675000,32519000,6620172,-0.19346265,0.11399174,-0.127139,12.458177,0.00014416526
32739000,32583000,6620172,-0.19334126,0.11400975,0.013134286,12.450387,1.539528e-06
32803000,32645666,6620172,-0.19331999,0.11402756,0.0023012161,12.451837,4.7254034e-08
32867000,32708333,6620172,-0.19339736,0.11404516,-0.008370683,12.453304,6.25165e-07
32923000,32771000,6620172,-0.19318342,0.11392983,0.023170307,12.454391,4.7895933e-06
32987000,32835000,6620172,-0.19350882,0.11394946,-0.03524065,12.455894,1.107823e-05
33051000,32897666,6620172,-0.19388814,0.11396886,-0.041079804,12.457417,1.5051724e-05
33115000,32960333,6620172,-0.19389172,0.11398724,-0.00038675964,12.449696,1.3349993e-09
33179000,33023000,6620172,-0.19386593,0.1140054,0.0027906448,12.451134,6.949566e-08
33243000,33087000,6620172,-0.19428685,0.11402335,-0.045544475,12.45259,1.8508414e-05
33307000,33149666,6620172,-0.19436628,0.1140411,-0.008594006,12.454065,6.589276e-07
33363000,33211000,6620172,-0.1953211,0.113925904,-0.10342425,12.455157,9.5423e-05
33427000,33275000,6620172,-0.19635816,0.11394567,-0.11232661,12.456668,0.000112543625
33491000,33339000,6620172,-0.1962203,0.113965206,0.014931157,12.458196,1.9883337e-06
33555000,33401666,6620172,-0.19684245,0.11398371,-0.06732951,12.450442,4.0456063e-05
33619000,33464333,6620172,-0.1967736,0.114002004,0.007450357,12.451889,4.953092e-07
33683000,33527000,6620172,-0.1969327,0.11402008,-0.017215654,12.453354,2.6443456e-06
33747000,33591000,6620172,-0.19822635,0.11403795,-0.13998136,12.454836,0.00017480744
33811000,33653666,6620172,-0.19798817,0.11405562,0.025771514,12.456336,5.9244358e-06
33875000,33716333,6620172,-0.19806667,0.11407309,-0.008493766,12.457853,6.434501e-07
33931000,33779000,6620172,-0.19811678,0.11395685,-0.005424544,12.449755,2.6261722e-07
33995000,33843000,6620172,-0.19865309,0.11397558,-0.05804777,12.45119,3.0068913e-05
34059000,33905666,6620172,-0.1988884,0.113994084,-0.025468007,12.452643,5.7874313e-06
34123000,33968333,6620172,-0.19956681,0.114012375,-0.07341994,12.454116,4.809198e-05
34187000,34031000,6620172,-0.19890346,0.11403046,0.07178971,12.455605,4.597451e-05
34251000,34095000,6620172,-0.19952282,0.11404833,-0.06702672,12.457112,4.0071536e-05
34315000,34157666,6620172,-0.19954738,0.11406522,-0.002656132,12.449461,6.296602e-08
34379000,34220333,6620172,-0.19940887,0.11408192,0.014977068,12.450886,2.0017546e-06
34435000,34283000,6620172,-0.19924079,0.1139657,0.018195495,12.45194,2.9542566e-06
34499000,34347000,6620172,-0.19913204,0.11398445,0.011771306,12.453402,1.2362857e-06
34563000,34409666,6620172,-0.19981965,0.11400299,-0.07442753,12.45488,4.9418002e-05
34627000,34472333,6620172,-0.20111813,0.11402131,-0.1405429,12.456377,0.00017619092
34691000,34535000,6620172,-0.20193377,0.11403942,-0.08828007,12.4578905,6.9508555e-05
34755000,34597666,6620172,-0.20218125,0.11405654,-0.02676496,12.450207,6.393138e-06
34819000,34661666,6620172,-0.20179349,0.11407346,0.041933447,12.45164,1.5691052e-05
34883000,34724333,6620172,-0.2018233,0.1140902,-0.003223598,12.453093,9.271757e-08
34939000,34787000,6620172,-0.20221783,0.11397401,-0.04271406,12.4541645,1.6277383e-05
35003000,34851000,6620172,-0.20336677,0.1139928,-0.12438129,12.455651,0.00013800702
35067000,34912333,6620172,-0.2036969,0.11401138,-0.035738453,12.457154,1.1392267e-05
35131000,34976333,6620172,-0.2038228,0.11402895,-0.013618767,12.449534,1.6553125e-06
35195000,35039000,6620172,-0.2042328,0.11404633,-0.04434614,12.450957,1.7549566e-05
35259000,35103000,6620172,-0.20505376,0.11406351,-0.08879699,12.452398,7.035596e-05
35323000,35165666,6620172,-0.2053717,0.114080496,-0.034387156,12.453857,1.0549847e-05
35379000,35227000,6620172,-0.2055829,0.11396456,-0.022869274,12.454935,4.665743e-06
35443000,35291000,6620172,-0.20595367,0.113983594,-0.040144637,12.4564295,1.4375369e-05
35507000,35355000,6620172,-0.20570992,0.11400229,0.026388243,12.456537,6.21128e-06
35571000,35417666,6620172,-0.20589195,0.1140201,-0.019692913,12.450285,3.460972e-06
35635000,35480333,6620172,-0.20670816,0.11403771,-0.0882975,12.451716,6.9570495e-05
35699000,35543000,6620172,-0.20753829,0.11405511,-0.089800626,12.453165,7.195094e-05
35763000,35607000,6620172,-0.20755759,0.114072315,-0.0020869523,12.454633,3.8855422e-08
35827000,35669666,6620172,-0.20790961,0.11408933,-0.038078398,12.456118,1.2933978e-05
35891000,35732333,6620172,-0.20872222,0.11410616,-0.08789727,12.457618,6.890857e-05
35947000,35795000,6620172,-0.20889188,0.1139893,-0.01835908,12.449614,3.0081774e-06
36011000,35859000,6620172,-0.2093519,0.11400741,-0.04977511,12.4510355,2.2109374e-05
36075000,35921666,6620172,-0.20992304,0.11402532,-0.061796784,12.452476,3.407482e-05
36139000,35984333,6620172,-0.21099383,0.11404301,-0.1158521,12.453932,0.0001197454
36203000,36047000,6620172,-0.2121656,0.114060506,-0.12677473,12.455407,0.00014337219
36267000,36111000,6620172,-0.2131325,0.11407781,-0.10460687,12.456898,9.760409e-05
36331000,36173666,6620172,-0.21462812,0.11409414,-0.1616844,12.449336,0.00023331761
36395000,36236333,6620172,-0.2152173,0.11411029,-0.0636922,12.450748,3.620216e-05
36451000,36299000,6620172,-0.21564727,0.11399353,-0.04653196,12.451791,1.9320945e-05
36515000,36363000,6620172,-0.21709524,0.11401176,-0.1566977,12.453238,0.00021907887
36579000,36425666,6620172,-0.21737394,0.11402977,-0.030158177,12.454702,8.113987e-06
36643000,36488333,6620172,-0.21724,0.11404758,0.014493078,12.456184,1.8736727e-06
36707000,36551000,6620172,-0.217925,0.114065066,-0.07411131,12.456301,4.899338e-05
36771000,36615000,6620172,-0.21873872,0.114081696,-0.087983206,12.450086,6.908515e-05
36835000,36677666,6620172,-0.2196076,0.11409815,-0.093944386,12.451506,7.875485e-05
36891000,36739000,6620172,-0.21961576,0.11398168,-0.0008818954,12.452554,6.9395814e-09
36955000,36803000,6620172,-0.22103557,0.11400019,-0.15367526,12.45401,0.00021069594
37019000,36867000,6620172,-0.22067751,0.11401848,0.038754076,12.4554825,1.3397745e-05
37083000,36929666,6620172,-0.22117403,0.11403656,-0.053736553,12.456971,2.575637e-05
37147000,36992333,6620172,-0.2223309,0.11405367,-0.12510893,12.449432,0.00013969617
37211000,37055000,6620172,-0.22197099,0.11407057,0.038920254,12.450844,1.3517925e-05
37275000,37119000,6620172,-0.22289649,0.11408729,-0.10008101,12.452272,8.937422e-05
37339000,37181666,6620172,-0.22395907,0.114103824,-0.114902586,12.453719,0.0001177926
37403000,37244333,6620172,-0.22459276,0.11412018,-0.068521395,12.455183,4.188512e-05
37459000,37307000,6620172,-0.22428083,0.11400362,0.033766344,12.456261,1.0170396e-05
37523000,37371000,6620172,-0.22485039,0.11402128,-0.061607838,12.448781,3.3876815e-05
37587000,37433666,6620172,-0.2249582,0.11403873,-0.011660844,12.450182,1.2135055e-06
37651000,37496333,6620172,-0.22556892,0.114055976,-0.06605743,12.451601,3.893818e-05
37715000,37559000,6620172,-0.22581004,0.11407303,-0.026079029,12.453038,6.0682714e-06
37779000,37623000,6620172,-0.22690362,0.11408989,-0.11827566,12.4544935,0.00012480217
37843000,37685666,6620172,-0.2285303,0.114106566,-0.17592841,12.455965,0.0002760909
37907000,37748333,6620172,-0.22886318,0.11412294,-0.035996065,12.456088,1.1558084e-05
37963000,37811000,6620172,-0.2294966,0.11400576,-0.06853062,12.449527,4.191543e-05
38027000,37875000,6620172,-0.22997807,0.11402356,-0.052089095,12.450936,2.4213028e-05
38091000,37937666,6620172,-0.23030616,0.11404116,-0.035494342,12.452364,1.1241492e-05
38155000,38000333,6620172,-0.2306967,0.114058554,-0.042246327,12.45381,1.5923302e-05
38219000,38063000,6620172,-0.23145291,0.11407575,-0.08180331,12.455273,5.96961e-05
38283000,38127000,6620172,-0.23222303,0.11409275,-0.08330539,12.456751,6.190118e-05
38347000,38189666,6620172,-0.23263454,0.1141088,-0.044479847,12.449262,1.7657956e-05
38411000,38252333,6620172,-0.23323876,0.11412468,-0.06530857,12.450664,3.806321e-05
38467000,38315000,6620172,-0.23407108,0.11400765,-0.090064466,12.451695,7.23829e-05
38531000,38379000,6620172,-0.23525526,0.114024915,-0.1280505,12.445026,0.00014639433
38595000,38441666,6620172,-0.2355364,0.11404198,-0.030400261,12.446375,8.250291e-06
38659000,38504333,6620172,-0.23597188,0.11405884,-0.047086895,12.447742,1.9790967e-05
38723000,38567000,6620172,-0.23638417,0.114075504,-0.044576213,12.449129,1.7734741e-05
38787000,38631000,6620172,-0.23655696,0.114091985,-0.01868175,12.450534,3.114617e-06
38851000,38693666,6620172,-0.23632225,0.11410828,0.025375322,12.451957,5.7457005e-06
38907000,38755000,6620172,-0.23730361,0.11399156,-0.10620704,12.4517765,0.00010065441
38971000,38819000,6620172,-0.23788401,0.11400922,-0.06277573,12.446207,3.5180663e-05
39035000,38883000,6620172,-0.23818311,0.114026666,-0.03234914,12.4475765,9.341103e-06
39099000,38945666,6620172,-0.23885842,0.114043914,-0.07303515,12.448965,4.7608894e-05
39163000,39008333,6620172,-0.24111877,0.11406096,-0.24444847,12.450372,0.00053327327
39227000,39071000,6620172,-0.24129093,0.114077814,-0.018616334,12.451797,3.0925291e-06
39291000,39135000,6620172,-0.24179816,0.11409448,-0.05485165,12.4532385,2.6844456e-05
39355000,39197666,6620172,-0.24270122,0.114110254,-0.097587824,12.446378,8.5016996e-05
39419000,39260333,6620172,-0.24366598,0.11412585,-0.10425313,12.447747,9.701635e-05
39475000,39323000,6620172,-0.2432097,0.114008546,0.04936056,12.448759,2.1746608e-05
39539000,39387000,6620172,-0.24335513,0.11402623,-0.015731946,12.450166,2.2087534e-06
39603000,39449666,6620172,-0.24396245,0.11404371,-0.06569639,12.45159,3.851374e-05
39667000,39511000,6620172,-0.24467732,0.11406099,-0.07732661,12.4530325,5.3350723e-05
39731000,39575000,6620172,-0.24533752,0.11407736,-0.07136272,12.446143,4.5463774e-05
39795000,39637666,6620172,-0.246318,0.11409354,-0.10598084,12.447512,0.00010026046
39859000,39701666,6620172,-0.24695995,0.114109546,-0.06938635,12.448899,4.2970918e-05
39915000,39763000,6620172,-0.24830681,0.11399265,-0.14574024,12.449923,0.00018956135
39979000,39827000,6620172,-0.2491353,0.11401073,-0.08964485,12.451345,7.1712006e-05
40043000,39891000,6620172,-0.24880399,0.114028595,0.035847947,12.452786,1.1466201e-05
40107000,39953666,6620172,-0.24965511,0.11404615,-0.09207736,12.452972,7.5646734e-05
40171000,40016333,6620172,-0.25012743,0.11406289,-0.051065102,12.447243,2.3277309e-05
40235000,40079000,6620172,-0.2503072,0.11407944,-0.019434333,12.448627,3.3711285e-06
40299000,40141666,6620172,-0.25093582,0.1140958,-0.06796062,12.450029,4.121941e-05
40363000,40205666,6620172,-0.25130853,0.11411198,-0.040293425,12.45145,1.4487917e-05
40419000,40267000,6620172,-0.25199234,0.113995254,-0.07400885,12.4524975,4.8872927e-05
40483000,40331000,6620172,-0.25250745,0.11401351,-0.055746913,12.453953,2.77263e-05
40547000,40395000,6620172,-0.2527117,0.11403082,-0.02208972,12.446938,4.355875e-06
40611000,40457666,6620172,-0.25309977,0.11404794,-0.04196602,12.448318,1.5719634e-05
40675000,40519000,6620172,-0.25349414,0.11406486,-0.04264608,12.449717,1.623141e-05
40739000,40583000,6620172,-0.25385046,0.114081584,-0.03852856,12.451133,1.3246899e-05
40803000,40647000,6620172,-0.25399745,0.114098124,-0.015894413,12.452566,2.254175e-06
40867000,40709666,6620172,-0.2545461,0.114114486,-0.05932653,12.454018,3.1401174e-05
40931000,40772333,6620172,-0.25499803,0.11412994,-0.04882914,12.446968,2.128394e-05
40987000,40835000,6620172,-0.25588226,0.114012495,-0.095648944,12.4479685,8.1661885e-05
41051000,40899000,6620172,-0.2562841,0.11403004,-0.04346466,12.449362,1.6860986e-05
41115000,40960333,6620172,-0.2576872,0.11404738,-0.15176645,12.450773,0.00020554774
41179000,41024333,6620172,-0.25834128,0.11406452,-0.070742965,12.452202,4.4655797e-05
41243000,41087000,6620172,-0.25864875,0.11408147,-0.033254176,12.453648,9.866277e-06
41307000,41151000,6620172,-0.25894186,0.114098124,-0.031695485,12.453818,8.962926e-06
41371000,41213666,6620172,-0.25891194,0.114113964,0.003235072,12.447969,9.34172e-08
41435000,41276333,6620172,-0.25889838,0.11412963,0.0014656484,12.449357,1.9172122e-08
41491000,41339000,6620172,-0.2589002,0.1140124,-0.00019586086,12.45038,3.423499e-10
41555000,41403000,6620172,-0.2590907,0.11403015,-0.020610303,12.451804,3.7904776e-06
41619000,41465666,6620172,-0.25951102,0.1140477,-0.045474738,12.453243,1.8450808e-05
41683000,41528333,6620172,-0.2590307,0.11406505,0.051960975,12.4547,2.4086785e-05
41747000,41591000,6620172,-0.25874248,0.11408147,0.031155944,12.447565,8.664728e-06
41811000,41655000,6620172,-0.2588691,0.11409771,-0.013687938,12.448946,1.6722493e-06
41875000,41717666,6620172,-0.25936073,0.114113756,-0.053142607,12.450345,2.5203555e-05
41939000,41780333,6620172,-0.2599935,0.11412963,-0.06839806,12.451762,4.174594e-05
41995000,41843000,6620172,-0.2608064,0.11401261,-0.08796793,12.452806,6.904608e-05
42059000,41907000,6620172,-0.260933,0.11403057,-0.013699204,12.454256,1.6742887e-06
42123000,41969666,6620172,-0.26130435,0.11404759,-0.040153414,12.447133,1.4392396e-05
42187000,42032333,6620172,-0.26160368,0.11406441,-0.032366306,12.448508,9.350319e-06
42251000,42095000,6620172,-0.26218027,0.11408104,-0.06234041,12.4499,3.468414e-05
42315000,42159000,6620172,-0.2622488,0.11409748,-0.0074120164,12.45131,4.9024726e-07
42379000,42221666,6620172,-0.2631638,0.11411374,-0.09892672,12.452737,8.732125e-05
42443000,42284333,6620172,-0.26317415,0.11412983,-0.0011184216,12.45418,1.1159723e-08
42499000,42347000,6620172,-0.26424173,0.114013,-0.115549,12.455242,0.000119107106
42563000,42411000,6620172,-0.2633485,0.11403042,0.09660867,12.448045,8.3308354e-05
42627000,42473666,6620172,-0.2642251,0.11404764,-0.09480581,12.44943,8.021912e-05
42691000,42536333,6620172,-0.26445675,0.114064656,-0.025051028,12.450832,5.6002855e-06
42755000,42599000,6620172,-0.26488096,0.11408148,-0.045876503,12.452251,1.8779767e-05
42819000,42663000,6620172,-0.26545084,0.11409812,-0.061626613,12.453688,3.3884113e-05
42883000,42725666,6620172,-0.26568443,0.11411457,-0.025259614,12.45514,5.691966e-06
42947000,42788333,6620172,-0.26608574,0.1141301,-0.043367088,12.447937,1.6787291e-05
43003000,42851000,6620172,-0.26627502,0.11401273,-0.020474315,12.448937,3.7414848e-06
43067000,42915000,6620172,-0.2664312,0.11403035,-0.016897589,12.450332,2.5481563e-06
43131000,42977666,6620172,-0.26733616,0.11404777,-0.097887635,12.451744,8.5503314e-05
43195000,43040333,6620172,-0.2681944,0.11406499,-0.0928323,12.453173,7.6891025e-05
43259000,43103000,6620172,-0.2690484,0.114082016,-0.09237078,12.4546175,7.611957e-05
43323000,43167000,6620172,-0.26911584,0.11409811,-0.007288277,12.447441,4.7416245e-07
43387000,43229666,6620172,-0.26853773,0.114114024,0.062481314,12.44881,3.4844157e-05
43451000,43292333,6620172,-0.26876011,0.11412976,-0.024034292,12.450196,5.1551815e-06
43507000,43355000,6620172,-0.2677307,0.11401259,0.111380965,12.451217,0.00011070511
43571000,43419000,6620172,-0.26808047,0.11403041,-0.037841797,12.452637,1.2777317e-05
43635000,43481666,6620172,-0.26848456,0.11404803,-0.043717623,12.454074,1.7051365e-05
43699000,43544333,6620172,-0.26859465,0.11406544,-0.011910945,12.455526,1.2655748e-06
43763000,43607000,6620172,-0.26887742,0.11408191,-0.030569166,12.44829,8.3409395e-06
43827000,43671000,6620172,-0.26951665,0.1140982,-0.06910476,12.449669,4.2620213e-05
43891000,43733666,6620172,-0.26954925,0.1141143,-0.0035241246,12.451064,1.1082903e-07
43955000,43796333,6620172,-0.26989716,0.11413023,-0.037610173,12.452477,1.2621541e-05
44011000,43859000,6620172,-0.27077052,0.114013255,-0.09451324,12.453515,7.969862e-05
44075000,43923000,6620172,-0.26999116,0.11403126,0.084338635,12.45496,6.345536e-05
44139000,43985666,6620172,-0.27027786,0.114048325,-0.031003714,12.447757,8.580129e-06
44203000,44048333,6620172,-0.27017725,0.114065185,0.010878444,12.449126,1.0562146e-06
44267000,44111000,6620172,-0.26999742,0.11408185,0.019444823,12.450514,3.3742574e-06
44331000,44175000,6620172,-0.2709567,0.11409833,-0.103720844,12.451919,9.599604e-05
44395000,44237666,6620172,-0.2710821,0.11411463,-0.013558686,12.45334,1.6402379e-06
44459000,44300333,6620172,-0.2713424,0.11413074,-0.02814275,12.454777,7.065691e-06
44515000,44363000,6620172,-0.27070805,0.11401322,0.068614125,12.447212,4.202546e-05
44579000,44427000,6620172,-0.2707849,0.11403068,-0.0083141625,12.448574,6.169854e-07
44643000,44489666,6620172,-0.2701311,0.11404794,0.07071167,12.449953,4.4624358e-05
44707000,44552333,6620172,-0.26954257,0.11406499,0.06364918,12.451349,3.615153e-05
44771000,44615000,6620172,-0.27049258,0.11408185,-0.10274136,12.452763,9.418515e-05
44835000,44679000,6620172,-0.27000397,0.11409853,0.052841216,12.454192,2.4910792e-05
44899000,44741666,6620172,-0.26962033,0.114115015,0.04148835,12.455636,1.5354792e-05
44963000,44804333,6620172,-0.26983696,0.11413058,-0.023409456,12.448389,4.8913307e-06
45019000,44867000,6620172,-0.26966658,0.11401324,0.018433154,12.449384,3.0325566e-06
45083000,44931000,6620172,-0.2707224,0.11403089,-0.11421403,12.450772,0.00011641264
45147000,44993666,6620172,-0.27085668,0.11404833,-0.0145254135,12.452176,1.8826485e-06
45211000,45056333,6620172,-0.27108282,0.11406557,-0.024461925,12.453597,5.3388035e-06
45275000,45119000,6620172,-0.2713142,0.11408262,-0.025029242,12.455035,5.5886635e-06
45339000,45183000,6620172,-0.27068445,0.114098735,0.06806713,12.447827,4.135603e-05
45403000,45245666,6620172,-0.27111736,0.11411467,-0.046789914,12.44919,1.9539835e-05
45467000,45308333,6620172,-0.27142286,0.11413043,-0.033020824,12.45057,9.730699e-06
45523000,45371000,6620172,-0.27118325,0.114012614,0.025908947,12.443751,5.993848e-06
45587000,45435000,6620172,-0.2718699,0.11402979,-0.074245214,12.445064,4.921498e-05
45651000,45497666,6620172,-0.27220955,0.11404676,-0.036723852,12.446395,1.2039553e-05
45715000,45560333,6620172,-0.27199286,0.11406353,0.023430258,12.447744,4.900281e-06
45779000,45623000,6620172,-0.272011,0.11408011,-0.0019634366,12.44911,3.440749e-08
45843000,45687000,6620172,-0.2726949,0.1140965,-0.073936254,12.450495,4.878494e-05
45907000,45749666,6620172,-0.2728031,0.11411261,-0.011698425,12.450729,1.2212862e-06
45971000,45812333,6620172,-0.27194518,0.11412795,0.09268835,12.445303,7.670123e-05
46027000,45875000,6620172,-0.27210823,0.11401039,-0.01763612,12.446269,2.7766712e-06
46091000,45939000,6620172,-0.27258074,0.11402783,-0.051103443,12.44762,2.3311568e-05
46155000,46001666,6620172,-0.27222776,0.11404505,0.038175225,12.448989,1.3007283e-05
46219000,46064333,6620172,-0.27167004,0.11406208,0.0603137,12.450375,3.2464373e-05
46283000,46127000,6620172,-0.27221525,0.11407891,-0.058957398,12.451778,3.1017207e-05
46347000,46191000,6620172,-0.2723011,0.11409486,-0.0092788935,12.445145,7.6868764e-07
46411000,46253666,6620172,-0.27178863,0.114110634,0.055382162,12.446478,2.7381097e-05
46475000,46316333,6620172,-0.27268586,0.11412623,-0.09695527,12.44783,8.3908635e-05
46531000,46379000,6620172,-0.27331707,0.114008926,-0.068287045,12.448824,4.162036e-05
46595000,46443000,6620172,-0.27364683,0.114026606,-0.03567341,12.450211,1.1357167e-05
46659000,46505666,6620172,-0.27290067,0.11404408,0.0807147,12.451614,5.8134927e-05
46723000,46568333,6620172,-0.27300134,0.11406066,-0.010882288,12.444947,1.0573162e-06
46787000,46631000,6620172,-0.27276653,0.114077054,0.025381714,12.44628,5.751218e-06
46851000,46695000,6620172,-0.27376485,0.11409326,-0.10790974,12.447632,0.00010394223
46915000,46757666,6620172,-0.27315253,0.11410928,0.06618428,12.449,3.9096038e-05
46979000,46820333,6620172,-0.27364504,0.11412512,-0.053232968,12.450385,2.5289257e-05
47035000,46883000,6620172,-0.27431238,0.114008054,-0.07221067,12.451404,4.653095e-05
47099000,46947000,6620172,-0.27472088,0.11402597,-0.044199586,12.452823,1.7431154e-05
47163000,47009666,6620172,-0.2741939,0.11404298,0.056977957,12.446043,2.8982773e-05
47227000,47072333,6620172,-0.2737277,0.11405979,0.050408512,12.4473915,2.2682292e-05
47291000,47135000,6620172,-0.27440694,0.114076406,-0.07344028,12.448757,4.8139344e-05
47355000,47199000,6620172,-0.27421817,0.114092834,0.020409137,12.450142,3.7173418e-06
47419000,47261666,6620172,-0.27408704,0.11410908,0.014177889,12.451542,1.7937318e-06
47483000,47324333,6620172,-0.27392548,0.11412514,0.017464727,12.452959,2.7215015e-06
47539000,47387000,6620172,-0.27426887,0.11400759,-0.03714019,12.445768,1.2314706e-05
47603000,47451000,6620172,-0.27440086,0.114025034,-0.014274836,12.447114,1.8189932e-06
47667000,47513666,6620172,-0.27397743,0.11404227,0.045793682,12.448476,1.8717697e-05
47731000,47576333,6620172,-0.27357116,0.1140593,0.043935925,12.449857,1.7227912e-05
47795000,47639000,6620172,-0.2734407,0.11407614,0.014110714,12.451254,1.7768157e-06
47859000,47703000,6620172,-0.27353746,0.11409279,-0.01046434,12.452667,9.770546e-07
47923000,47765666,6620172,-0.27287483,0.11410855,0.07160264,12.445829,4.577114e-05
47979000,47827000,6620172,-0.27240583,0.113991395,0.05073738,12.446802,2.2980304e-05
48043000,47891000,6620172,-0.27278015,0.114009224,-0.040490896,12.448161,1.4634135e-05
48107000,47953666,6620172,-0.2725075,0.114026845,0.029494017,12.449536,7.7637615e-06
48171000,48017666,6620172,-0.27277142,0.11404426,-0.02854842,12.45093,7.273105e-06
48235000,48080333,6620172,-0.2723933,0.11406147,0.04089886,12.452338,1.4925503e-05
48299000,48143000,6620172,-0.27177206,0.114078484,0.06719309,12.453764,4.0281546e-05
48363000,48207000,6620172,-0.2711917,0.11409459,0.06272665,12.446833,3.5123903e-05
48427000,48268333,6620172,-0.27088973,0.114110515,0.03263578,12.448187,9.506909e-06
48491000,48332333,6620172,-0.27120584,0.114126265,-0.03416398,12.449558,1.0416949e-05
48547000,48395000,6620172,-0.2708268,0.11400911,0.04101175,12.450564,1.5010151e-05
48611000,48459000,6620172,-0.27106556,0.11402694,-0.02583459,12.451969,5.95556e-06
48675000,48521666,6620172,-0.27134615,0.11404456,-0.030356556,12.45339,8.221951e-06
48739000,48584333,6620172,-0.27103665,0.114061266,0.03346163,12.446461,9.99553e-06
48803000,48647000,6620172,-0.2705149,0.11407778,0.056406528,12.447808,2.8400327e-05
48867000,48711000,6620172,-0.27121803,0.11409409,-0.076012194,12.449173,5.1568382e-05
48931000,48773666,6620172,-0.27147684,0.11411023,-0.027976304,12.450556,6.984727e-06
48995000,48836333,6620172,-0.27116975,0.11412619,0.033195585,12.451954,9.832877e-06
49051000,48899000,6620172,-0.27109003,0.114009246,0.008627027,12.452981,6.640588e-07
49115000,48963000,6620172,-0.27125454,0.11402657,-0.017789364,12.446059,2.825182e-06
49179000,49025666,6620172,-0.27102834,0.11404368,0.024458885,12.447401,5.3401336e-06
49243000,49088333,6620172,-0.27110904,0.114060596,-0.008726299,12.44876,6.796597e-07
49307000,49151000,6620172,-0.2707521,0.114077315,0.038595617,12.450135,1.3294113e-05
49371000,49215000,6620172,-0.2714837,0.11409385,-0.07910141,12.451529,5.5834586e-05
49435000,49277666,6620172,-0.27180943,0.114110194,-0.03521797,12.452937,1.1066604e-05
49499000,49340333,6620172,-0.27182478,0.11412636,-0.0016585886,12.454362,2.4542194e-08
49555000,49403000,6620172,-0.27150112,0.114008896,0.03500837,12.446969,1.0940513e-05
49619000,49467000,6620172,-0.27187368,0.11402642,-0.04029697,12.448321,1.4494109e-05
49683000,49529666,6620172,-0.27145615,0.114043735,0.045158595,12.44969,1.8200351e-05
49747000,49592333,6620172,-0.27143806,0.11406085,0.0019554198,12.4510765,3.4121694e-08
49811000,49655000,6620172,-0.27111736,0.11407776,0.03468269,12.452479,1.0733151e-05
49875000,49719000,6620172,-0.2703645,0.11409449,0.081420094,12.4538965,5.9144648e-05
49939000,49781666,6620172,-0.27000606,0.114110306,0.038736075,12.44689,1.3394541e-05
50003000,49844333,6620172,-0.2693414,0.114125945,0.07182491,12.448235,4.6046844e-05
50059000,49907000,6620172,-0.26907265,0.11400868,0.029076517,12.449222,7.5457087e-06
50123000,49971000,6620172,-0.26906362,0.1140264,0.00097572803,12.450602,8.4962e-09
50187000,50033666,6620172,-0.26887894,0.11404391,0.01997915,12.451996,3.5618243e-06
50251000,50095000,6620172,-0.2690867,0.114061214,-0.022472382,12.453408,4.5057536e-06
50315000,50159000,6620172,-0.2692859,0.114077605,-0.021532208,12.446423,4.138949e-06
50379000,50223000,6620172,-0.26987258,0.11409381,-0.06341675,12.447761,3.5898327e-05
50443000,50285666,6620172,-0.27010205,0.11410983,-0.024805158,12.449116,5.4916522e-06
50507000,50348333,6620172,-0.27019417,0.11412567,-0.009957761,12.450488,8.849006e-07
50563000,50411000,6620172,-0.26989022,0.114008605,0.032889485,12.451494,9.65273e-06
50627000,50475000,6620172,-0.26980427,0.114026524,0.009300619,12.452899,7.718106e-07
50691000,50537666,6620172,-0.26989114,0.114044234,-0.009401053,12.454319,7.884797e-07
50755000,50600333,6620172,-0.26999226,0.11406101,-0.010931611,12.447269,1.0667233e-06
50819000,50663000,6620172,-0.26961032,0.1140776,0.04129353,12.448618,1.5219501e-05
50883000,50727000,6620172,-0.26888385,0.11409399,0.07853976,12.449983,5.5051336e-05
50947000,50788333,6620172,-0.2676924,0.114110194,0.12880817,12.451364,0.00014805648
51011000,50852333,6620172,-0.26908332,0.11412622,-0.15036792,12.452761,0.00020174474
51067000,50915000,6620172,-0.268497,0.11400934,0.06345588,12.453784,3.592526e-05
51131000,50979000,6620172,-0.2680621,0.114026725,0.047030926,12.446765,1.9745496e-05
51195000,51040333,6620172,-0.2679315,0.1140439,0.014125347,12.448106,1.7809531e-06
51259000,51104333,6620172,-0.26692978,0.11406087,0.10832456,12.449463,0.0001047275
51323000,51167000,6620172,-0.267113,0.11407765,-0.019813389,12.450836,3.503293e-06
51387000,51231000,6620172,-0.26690084,0.114094235,0.022941858,12.452226,4.696428e-06
51451000,51293666,6620172,-0.26577815,0.114110634,0.121393025,12.453632,0.00013147674
51515000,51356333,6620172,-0.26615095,0.11412612,-0.040282637,12.446617,1.4485782e-05
51571000,51419000,6620172,-0.26608205,0.11400872,0.0074534416,12.44758,4.958911e-07
51635000,51483000,6620172,-0.2656233,0.11402629,0.049620867,12.44893,2.1976279e-05
51699000,51545666,6620172,-0.2654766,0.11404366,0.015867442,12.450296,2.246941e-06
