timestamp,timestamp_sample,ref_timestamp,ref_lat,ref_lon,x,y,z,delta_xy[0],delta_xy[1],delta_z,vx,vy,vz,z_deriv,delta_vxy[0],delta_vxy[1],delta_vz,ax,ay,az,heading,heading_var,unaided_heading,delta_heading,tilt_var,ref_alt,dist_bottom,dist_bottom_var,delta_dist_bottom,eph,epv,evh,evv,vxy_max,vz_max,hagl_min,hagl_max_z,hagl_max_xy,xy_valid,z_valid,v_xy_valid,v_z_valid,xy_reset_counter,z_reset_counter,vxy_reset_counter,vz_reset_counter,heading_reset_counter,heading_good_for_control,xy_global,z_global,dist_bottom_valid,dist_bottom_reset_counter,dist_bottom_sensor_bitfield,dead_reckoning
4435000,4435000,0,nan,nan,0.00037318512,-0.0022128448,-0.00020847481,0.0,0.0,0.0,0.006611949,-0.03064041,0.0009210481,0.0002709407,-4.757865e-06,7.2823605e-06,0.0007337779,0.2679615,-0.25718537,0.0016554258,-0.0022601269,0.0002823619,-0.000436243,0.0,0.02056511,nan,0.1,0.010000001,0.0,14.187328,10.012793,7.074805,3.1624644,inf,inf,inf,inf,inf,0,0,0,0,1,1,1,1,0,0,0,0,0,1,0,1
4443000,4443000,0,nan,nan,0.00043307294,-0.002464173,-0.00021873659,0.0,0.0,0.0,0.0081142,-0.032250542,0.00020691557,-0.00045262492,-4.757865e-06,7.2823605e-06,0.0007337779,0.1860397,-0.1985667,-0.06791902,-0.0023823222,0.00030987873,-0.000477929,0.0,0.020620182,nan,0.1,0.010000001,0.0,14.191954,10.014103,7.0751963,3.1624823,inf,inf,inf,inf,inf,0,0,0,0,1,1,1,1,0,0,0,0,0,1,0,1
4451000,4451000,0,nan,nan,0.0005065903,-0.002730781,-0.00024105678,0.0,0.0,0.0,0.0097133275,-0.0336518,-0.00051193393,-0.0011837598,-4.757865e-06,7.2823605e-06,0.0007337779,0.19744551,-0.17135717,-0.061690338,-0.0024825113,0.0003386747,-0.00050239696,0.0,0.020677809,nan,0.1,0.010000001,0.0,14.196803,10.015477,7.0755935,3.1625009,inf,inf,inf,inf,inf,0,0,0,0,1,1,1,1,0,0,0,0,0,1,0,1
4459000,4459000,0,nan,nan,0.00059259136,-0.0030034233,-0.0002753681,0.0,0.0,0.0,0.011415144,-0.033921473,-0.000901982,-0.0015881362,-4.757865e-06,7.2823605e-06,0.0007337779,0.20966135,-0.028923992,-0.015383585,-0.0027350509,0.00036874993,-0.00068265887,0.0,0.020738002,nan,0.1,0.010000001,0.0,14.201877,10.016915,7.0760083,3.1625202,inf,inf,inf,inf,inf,0,0,0,0,1,1,1,1,0,0,0,0,0,1,0,1
4467000,4467000,0,nan,nan,0.0006967812,-0.0032782026,-0.0003119231,0.0,0.0,0.0,0.0138404695,-0.034243595,5.0690287e-05,-0.00065119273,-4.757865e-06,7.2823605e-06,0.0007337779,0.29954433,-0.03460571,0.15634204,-0.0028771826,0.00040010439,-0.00075548317,0.0,0.020800754,nan,0.1,0.010000001,0.0,14.207175,10.018416,7.076443,3.1625407,inf,inf,inf,inf,inf,0,0,0,0,1,1,1,1,0,0,0,0,0,1,0,1
4475000,4475000,0,nan,nan,0.0008081631,-0.0035658663,-0.00034834375,0.0,0.0,0.0,0.013052708,-0.037057918,0.00036759343,-0.00035090614,-4.757865e-06,7.2823605e-06,0.0007337779,-0.10256306,-0.34536344,0.07966486,-0.003032524,0.00043273804,-0.0008442615,0.0,0.020866066,nan,0.1,0.010000001,0.0,14.212697,10.019981,7.0769043,3.162562,inf,inf,inf,inf,inf,0,0,0,0,1,1,1,1,0,0,0,0,0,1,0,1
4483000,4483000,0,nan,nan,0.0009197198,-0.003872976,-0.00039061112,0.0,0.0,0.0,0.014120761,-0.038394075,-0.0002602626,-0.0009958807,-4.757865e-06,7.2823605e-06,0.0007337779,0.12901041,-0.15993267,-0.03650924,-0.0031401531,0.0004666509,-0.00088793307,0.0,0.02093394,nan,0.1,0.010000001,0.0,14.218441,10.02161,7.07739,3.1625838,inf,inf,inf,inf,inf,0,0,0,0,1,1,1,1,0,0,0,0,0,1,0,1
4491000,4491000,0,nan,nan,0.0010380822,-0.00419308,-0.0004441794,0.0,0.0,0.0,0.014409595,-0.040652785,-0.0011550358,-0.0019079939,-4.757865e-06,7.2823605e-06,0.0007337779,0.031263173,-0.27471372,-0.06863987,-0.003321455,0.00050184294,-0.0010077901,0.0,0.021004371,nan,0.099999994,0.010000001,0.0,14.224409,10.023302,7.077888,3.1626065,inf,inf,inf,inf,inf,0,0,0,0,1,1,1,1,0,0,0,0,0,1,0,1
4507000,4507000,0,nan,nan,0.0012875466,-0.004890178,-0.0005631135,0.0,0.0,0.0,0.015484833,-0.044609528,4.829315e-05,-0.0007392032,-4.757865e-06,7.2823605e-06,0.0007337779,0.034473028,-0.2025472,0.16908021,-0.00355604,0.00057606417,-0.0011267854,0.0,0.021152908,nan,0.1,0.010000001,0.0,14.237015,10.026877,7.0789375,3.1626544,inf,inf,inf,inf,inf,0,0,0,0,1,1,1,1,0,0,0,0,0,1,0,1
4515000,4515000,0,nan,nan,0.0014259389,-0.0052521345,-0.0006237546,0.0,0.0,0.0,0.017933263,-0.044332303,-0.0011239687,-0.0019284044,-4.757865e-06,7.2823605e-06,0.0007337779,0.30050442,0.04342995,-0.102488786,-0.0038158756,0.0006150936,-0.0013323935,0.0,0.021231018,nan,0.1,0.010000001,0.0,14.24365,10.028761,7.0795007,3.1626797,inf,inf,inf,inf,inf,0,0,0,0,1,1,1,1,0,0,0,0,0,1,0,1
4523000,4523000,0,nan,nan,0.0015799893,-0.005619907,-0.00069434894,0.0,0.0,0.0,0.018846244,-0.04612613,-0.00093055674,-0.0017515947,-4.757865e-06,7.2823605e-06,0.0007337779,0.1084337,-0.2151899,0.06787292,-0.003959526,0.0006554026,-0.0014241509,0.0,0.021311697,nan,0.1,0.010000001,0.0,14.250509,10.030707,7.0800643,3.1627057,inf,inf,inf,inf,inf,0,0,0,0,1,1,1,1,0,0,0,0,0,1,0,1
4531000,4531000,0,nan,nan,0.0017307018,-0.006005469,-0.00076523237,0.0,0.0,0.0,0.017258558,-0.048146676,-0.0011863476,-0.002023603,-4.757865e-06,7.2823605e-06,0.0007337779,-0.20427799,-0.24332885,0.011187046,-0.0040971646,0.0006969904,-0.0015122172,0.0,0.021394925,nan,0.1,0.010000001,0.0,14.257589,10.032718,7.0806546,3.1627324,inf,inf,inf,inf,inf,0,0,0,0,1,1,1,1,0,0,0,0,0,1,0,1
4547000,4547000,0,nan,nan,0.002021518,-0.0068243844,-0.00093839434,0.0,0.0,0.0,0.016740644,-0.05210309,-0.0035657003,-0.0044340896,-4.757865e-06,7.2823605e-06,0.0007337779,-0.1293253,-0.2366139,-0.08670473,-0.0042763273,0.00078400393,-0.0015991101,0.0,0.021569071,nan,0.1,0.010000001,0.0,14.272415,10.036928,7.0818853,3.1627884,inf,inf,inf,inf,inf,0,0,0,0,1,1,1,1,0,0,0,0,0,1,0,1
4555000,4555000,0,nan,nan,0.0021640153,-0.0072610714,-0.0010438282,0.0,0.0,0.0,0.017154235,-0.054876816,-0.005131616,-0.00601488,-4.757865e-06,7.2823605e-06,0.0007337779,0.045714192,-0.3371141,-0.15493342,-0.0043172464,0.00082942925,-0.0015973089,0.0,0.02165998,nan,0.1,0.010000001,0.0,14.28016,10.039128,7.0825253,3.162818,inf,inf,inf,inf,inf,0,0,0,0,1,1,1,1,0,0,0,0,0,1,0,1
4563000,4563000,0,nan,nan,0.0023117764,-0.0077270106,-0.0011631274,0.0,0.0,0.0,0.018106794,-0.059261404,-0.006503959,-0.0074016266,-4.757865e-06,7.2823605e-06,0.0007337779,0.11304808,-0.5384236,-0.13165641,-0.004328687,0.000876134,-0.0015682922,0.0,0.021753453,nan,0.1,0.010000001,0.0,14.288126,10.04139,7.08319,3.162848,inf,inf,inf,inf,inf,0,0,0,0,1,1,1,1,0,0,0,0,0,1,0,1
4571000,4571000,0,nan,nan,0.0024664106,-0.00821958,-0.0012945039,0.0,0.0,0.0,0.018587073,-0.060705982,-0.008282318,-0.009193913,-4.757865e-06,7.2823605e-06,0.0007337779,0.05398403,-0.17089704,-0.18336017,-0.0044516763,0.000924118,-0.0016530709,0.0,0.021849483,nan,0.1,0.010000001,0.0,14.296312,10.043717,7.083888,3.162879,inf,inf,inf,inf,inf,0,0,0,0,1,1,1,1,0,0,0,0,0,1,0,1
4587000,4587000,0,nan,nan,0.002776429,-0.009216039,-0.001604233,0.0,0.0,0.0,0.018679868,-0.06076586,-0.009628463,-0.010566467,-4.757865e-06,7.2823605e-06,0.0007337779,0.079072855,0.03912985,0.121669374,-0.0043761753,0.0010239229,-0.0015078605,0.0,0.022049215,nan,0.1,0.010000001,0.0,14.313344,10.048559,7.0853386,3.1629434,inf,inf,inf,inf,inf,0,0,0,0,1,1,1,1,0,0,0,0,0,1,0,1
4595000,4595000,0,nan,nan,0.0029409165,-0.009714562,-0.0017546099,0.0,0.0,0.0,0.020448305,-0.06082305,-0.008334906,-0.00928539,-4.757865e-06,7.2823605e-06,0.0007337779,0.21505132,0.0024741092,0.19767879,-0.0043438575,0.0010757447,-0.0014440304,0.0,0.022152934,nan,0.1,0.010000001,0.0,14.32219,10.051075,7.0860977,3.1629767,inf,inf,inf,inf,inf,0,0,0,0,1,1,1,1,0,0,0,0,0,1,0,1
4603000,4603000,0,nan,nan,0.003119741,-0.010214647,-0.0018997174,0.0,0.0,0.0,0.021547943,-0.061176524,-0.007941693,-0.008904177,-4.757865e-06,7.2823605e-06,0.0007337779,0.13149479,-0.034639414,0.08415616,-0.0043597915,0.0011288455,-0.0014305724,0.0,0.022259206,nan,0.1,0.010000001,0.0,14.331255,10.053654,7.086878,3.163011,inf,inf,inf,inf,inf,0,0,0,0,1,1,1,1,0,0,0,0,0,1,0,1
4611000,4611000,0,nan,nan,0.0033016396,-0.010724087,-0.0020448982,0.0,0.0,0.0,0.021454277,-0.06292645,-0.007982949,-0.008956953,-4.757865e-06,7.2823605e-06,0.0007337779,-0.01762104,-0.20927867,0.028880777,-0.004247838,0.0011832254,-0.00129122,0.0,0.022368038,nan,0.1,0.010000001,0.0,14.340539,10.056296,7.0876756,3.163046,inf,inf,inf,inf,inf,0,0,0,0,1,1,1,1,0,0,0,0,0,1,0,1
4627000,4627000,0,nan,nan,0.003667803,-0.011782135,-0.0023272622,0.0,0.0,0.0,0.021923592,-0.066498555,-0.0065302188,-0.0075258357,-4.757865e-06,7.2823605e-06,0.0007337779,0.02954911,-0.27483013,0.13549438,-0.004428099,0.0012958228,-0.0014223045,0.0,0.022593379,nan,0.1,0.010000001,0.0,14.359762,10.0617695,7.0893116,3.1631181,inf,inf,inf,inf,inf,0,0,0,0,1,1,1,1,0,0,0,0,0,1,0,1
4635000,4635000,0,nan,nan,0.0038173248,-0.012193129,-0.0024002986,0.0,0.0,0.0,0.023318727,-0.06824391,-0.007320514,-0.008259484,-4.757865e-06,7.2823605e-06,0.0007337779,0.16911003,-0.21062244,-0.06785709,-0.004399871,0.00057519844,-0.0013721491,0.0,0.022709064,nan,0.09791532,0.010000001,0.0,0.7062522,7.093797,6.978326,3.1529567,inf,inf,inf,inf,inf,0,0,0,0,1,1,1,1,0,0,0,0,0,1,0,1
4643000,4643000,0,nan,nan,0.003973659,-0.012613453,-0.0024816452,0.0,0.0,0.0,0.023428362,-0.068115495,-0.008011023,-0.008895193,-4.757865e-06,7.2823605e-06,0.0007337779,0.008480158,0.02351708,-0.056275163,-0.0043852236,0.00060048106,-0.0013372562,0.0,0.022828128,nan,0.1,0.010000001,0.0,0.70894736,7.095859,6.979213,3.152995,inf,inf,inf,inf,inf,0,0,0,0,1,1,1,1,0,0,0,0,0,1,0,1
4651000,4651000,0,nan,nan,0.0041362233,-0.013041543,-0.0025671313,0.0,0.0,0.0,0.024305122,-0.069492064,-0.0076651983,-0.0084963655,-4.757865e-06,7.2823605e-06,0.0007337779,0.104440436,-0.16471802,0.07239589,-0.004292561,0.0006263074,-0.0012259627,0.0,0.022949753,nan,0.1,0.010000001,0.0,0.7159995,7.09801,6.9801106,3.1530344,inf,inf,inf,inf,inf,0,0,0,0,1,1,1,1,0,0,0,0,0,1,0,1
4667000,4667000,0,nan,nan,0.0044636372,-0.013956779,-0.0027374043,0.0,0.0,0.0,0.023524575,-0.072608925,-0.0058669467,-0.0065972838,-4.757865e-06,7.2823605e-06,0.0007337779,-0.034103036,-0.08809702,0.27762166,-0.0044436227,0.0006795916,-0.0013443514,0.0,0.023200687,nan,0.1,0.010000001,0.0,0.7426084,7.1025786,6.981978,3.153115,inf,inf,inf,inf,inf,0,0,0,0,1,1,1,1,0,0,0,0,0,1,0,1
4675000,4675000,0,nan,nan,0.0046282276,-0.014427739,-0.0028106025,0.0,0.0,0.0,0.023830658,-0.07250982,-0.005600102,-0.0062825056,-4.757865e-06,7.2823605e-06,0.0007337779,0.03337487,0.019415485,0.060042363,-0.004430668,0.00070704933,-0.0013172351,0.0,0.023329997,nan,0.1,0.010000001,0.0,0.76173174,7.1049967,6.9829416,3.1531568,inf,inf,inf,inf,inf,0,0,0,0,1,1,1,1,0,0,0,0,0,1,0,1
4683000,4683000,0,nan,nan,0.0047972715,-0.014907857,-0.002890128,0.0,0.0,0.0,0.024446575,-0.07405287,-0.0066681686,-0.0073042247,-4.757865e-06,7.2823605e-06,0.0007337779,0.07218787,-0.18597874,-0.107605,-0.004314306,0.00073505053,-0.0011880746,0.0,0.02346186,nan,0.1,0.010000001,0.0,0.7843774,7.107503,6.9839325,3.1531992,inf,inf,inf,inf,inf,0,0,0,0,1,1,1,1,0,0,0,0,0,1,0,1
4691000,4691000,0,nan,nan,0.0049701952,-0.015407109,-0.0029788318,0.0,0.0,0.0,0.024385007,-0.075795375,-0.0072028507,-0.0077940915,-4.757865e-06,7.2823605e-06,0.0007337779,-0.012407259,-0.21102995,-0.041695774,-0.0043536634,0.0007635959,-0.0012159374,0.0,0.02359629,nan,0.1,0.010000001,0.0,0.8102518,7.110098,6.9849606,3.1532426,inf,inf,inf,inf,inf,0,0,0,0,1,1,1,1,0,0,0,0,0,1,0,1
4707000,4707000,0,nan,nan,0.0053100577,-0.016448015,-0.0031625817,0.0,0.0,0.0,0.023284491,-0.078306615,-0.007364557,-0.007870565,-4.757865e-06,7.2823605e-06,0.0007337779,-0.07788186,-0.14510809,-0.023884697,-0.0043450138,0.00082231796,-0.0011879703,0.0,0.023872834,nan,0.1,0.010000001,0.0,0.87050635,7.1155534,6.9870853,3.1533318,inf,inf,inf,inf,inf,0,0,0,0,1,1,1,1,0,0,0,0,0,1,0,1
4715000,4715000,0,nan,nan,0.005480346,-0.016987652,-0.003256737,0.0,0.0,0.0,0.024044001,-0.079360634,-0.00711401,-0.0075794994,-4.757865e-06,7.2823605e-06,0.0007337779,0.09049523,-0.12535374,0.05428865,-0.004508707,0.0008524946,-0.0013437205,0.0,0.02401495,nan,0.1,0.010000001,0.0,0.9043231,7.118414,6.988184,3.1533782,inf,inf,inf,inf,inf,0,0,0,0,1,1,1,1,0,0,0,0,0,1,0,1
4723000,4723000,0,nan,nan,0.0056529604,-0.017543355,-0.0033512334,0.0,0.0,0.0,0.02349716,-0.08149952,-0.0070367698,-0.0074630785,-4.757865e-06,7.2823605e-06,0.0007337779,-0.07268812,-0.2611115,0.03194343,-0.004658026,0.0008832149,-0.0014861602,0.0,0.024159618,nan,0.1,0.010000001,0.0,0.9402542,7.121362,6.9893126,3.1534247,inf,inf,inf,inf,inf,0,0,0,0,1,1,1,1,0,0,0,0,0,1,0,1
4731000,4731000,0,nan,nan,0.005824436,-0.018116634,-0.003447172,0.0,0.0,0.0,0.024083527,-0.08299077,-0.0072189914,-0.007607412,-4.757865e-06,7.2823605e-06,0.0007337779,0.069069326,-0.18030113,-0.0011511146,-0.004784063,0.00091447926,-0.001606326,0.0,0.024306856,nan,0.1,0.010000001,0.0,0.9780683,7.124399,6.9904695,3.1534717,inf,inf,inf,inf,inf,0,0,0,0,1,1,1,1,0,0,0,0,0,1,0,1
4747000,4747000,0,nan,nan,0.006179848,-0.019305667,-0.0036352861,0.0,0.0,0.0,0.023202725,-0.08506407,-0.0060968795,-0.006413224,-4.757865e-06,7.2823605e-06,0.0007337779,-0.171427,-0.06993757,0.10324595,-0.004845731,0.0009786384,-0.0016590309,0.0,0.024608992,nan,0.1,0.010000001,0.0,1.0585339,7.130737,6.9927692,3.1535683,inf,inf,inf,inf,inf,0,0,0,0,1,1,1,1,0,0,0,0,0,1,0,1
4755000,4755000,0,nan,nan,0.006352622,-0.01991085,-0.0037255266,0.0,0.0,0.0,0.023817085,-0.08556849,-0.0063519236,-0.0066339956,-4.757865e-06,7.2823605e-06,0.0007337779,0.072860286,-0.057396933,-0.012130476,-0.0047771824,0.0010115341,-0.0015872711,0.0,0.024763912,nan,0.1,0.010000001,0.0,1.1008345,7.134037,6.9939632,3.1536179,inf,inf,inf,inf,inf,0,0,0,0,1,1,1,1,0,0,0,0,0,1,0,1
4763000,4763000,0,nan,nan,0.0065314253,-0.020523578,-0.0038225283,0.0,0.0,0.0,0.024336625,-0.085395895,-0.0074852104,-0.0077341325,-4.757865e-06,7.2823605e-06,0.0007337779,0.061124384,0.027070286,-0.12250104,-0.00467228,0.0010449734,-0.0014799334,0.0,0.024921387,nan,0.1,0.010000001,0.0,1.1443135,7.137425,6.995188,3.1536684,inf,inf,inf,inf,inf,0,0,0,0,1,1,1,1,0,0,0,0,0,1,0,1
4771000,4771000,0,nan,nan,0.006718216,-0.021135781,-0.0039278087,0.0,0.0,0.0,0.0253376,-0.08543667,-0.007894977,-0.008111833,-4.757865e-06,7.2823605e-06,0.0007337779,0.1214211,0.00024801554,-0.03263447,-0.004654102,0.0010789562,-0.0014600417,0.0,0.025081417,nan,0.1,0.010000001,0.0,1.1888429,7.1409006,6.9964266,3.1537197,inf,inf,inf,inf,inf,0,0,0,0,1,1,1,1,0,0,0,0,0,1,0,1
4787000,4787000,0,nan,nan,0.007096953,-0.022384297,-0.0041637556,0.0,0.0,0.0,0.025052784,-0.08814229,-0.010218548,-0.010374372,-4.757865e-06,7.2823605e-06,0.0007337779,0.004875395,-0.25307044,-0.060089394,-0.0048146993,0.0011485538,-0.0016191726,0.0,0.025409171,nan,0.1,0.010000001,0.0,1.2806171,7.148114,6.9989967,3.1538253,inf,inf,inf,inf,inf,0,0,0,0,1,1,1,1,0,0,0,0,0,1,0,1
4795000,4795000,0,nan,nan,0.0072817337,-0.023034781,-0.0042837057,0.0,0.0,0.0,0.023880199,-0.09025096,-0.008913108,-0.009039896,-4.757865e-06,7.2823605e-06,0.0007337779,-0.14994836,-0.25872624,0.18014292,-0.004836083,0.001184168,-0.0016407123,0.0,0.025576886,nan,0.1,0.010000001,0.0,1.327677,7.1518517,7.000331,3.1538787,inf,inf,inf,inf,inf,0,0,0,0,1,1,1,1,0,0,0,0,0,1,0,1
4803000,4803000,0,nan,nan,0.0074584736,-0.023706758,-0.0043978146,0.0,0.0,0.0,0.022546543,-0.09291761,-0.008677524,-0.008776213,-4.757865e-06,7.2823605e-06,0.0007337779,-0.16998045,-0.32862243,0.045900695,-0.004878643,0.0012203262,-0.001683961,0.0,0.025747161,nan,0.099999994,0.010000001,0.0,1.3754139,7.1556764,7.0016737,3.1539333,inf,inf,inf,inf,inf,0,0,0,0,1,1,1,1,0,0,0,0,0,1,0,1
4811000,4811000,0,nan,nan,0.007617421,-0.024400882,-0.0045065368,0.0,0.0,0.0,0.019448306,-0.09522902,-0.007409529,-0.0074810283,-4.757865e-06,7.2823605e-06,0.0007337779,-0.3904456,-0.28436902,0.17445627,-0.0047872444,0.0012570275,-0.0015937438,0.0,0.025919987,nan,0.1,0.010000001,0.0,1.423761,7.159588,7.0030513,3.153989,inf,inf,inf,inf,inf,0,0,0,0,1,1,1,1,0,0,0,0,0,1,0,1
4827000,4827000,0,nan,nan,0.007882483,-0.025826136,-0.00471288,0.0,0.0,0.0,0.01797682,-0.09692745,-0.008107122,-0.008126837,-4.757865e-06,7.2823605e-06,0.0007337779,0.13470933,-0.11675201,-0.1163436,-0.00450404,0.0013320629,-0.0013142097,0.0,0.026273336,nan,0.1,0.010000001,0.0,1.522057,7.1676717,7.0058355,3.1541018,inf,inf,inf,inf,inf,0,0,0,0,1,1,1,1,0,0,0,0,0,1,0,1
4835000,4835000,0,nan,nan,0.008021095,-0.026555793,-0.004823411,0.0,0.0,0.0,0.018527491,-0.098537,-0.008595262,-0.008590322,-4.757865e-06,7.2823605e-06,0.0007337779,0.06593729,-0.19706021,-0.04646461,-0.004341514,0.0013703957,-0.0011540967,0.0,0.02645384,nan,0.1,0.010000001,0.0,1.5719084,7.171843,7.0073056,3.1541598,inf,inf,inf,inf,inf,0,0,0,0,1,1,1,1,0,0,0,0,0,1,0,1
4843000,4843000,0,nan,nan,0.008040974,-0.026957083,-0.0048852046,0.0,0.0,0.0,0.017797394,-0.09908795,-0.008796463,-0.008714469,-4.757865e-06,7.2823605e-06,0.0007337779,-0.035516717,-0.23229547,-0.0115064895,-0.0042081443,0.00058493693,-0.0010234773,0.0,0.026493568,nan,0.098349236,0.010000001,0.0,0.64820105,5.830252,3.9607506,3.1386056,inf,inf,inf,inf,inf,0,0,0,0,1,1,1,1,0,0,0,0,0,1,0,1
4851000,4851000,0,nan,nan,0.008053188,-0.027362805,-0.0049492833,0.0,0.0,0.0,0.017139927,-0.09958807,-0.00944571,-0.009289302,-4.757865e-06,7.2823605e-06,0.0007337779,-0.028020926,-0.22127107,-0.067926936,-0.0041141044,0.0006013076,-0.000932481,0.0,0.026678722,nan,0.1,0.010000001,0.0,0.6688121,5.8338,3.9619913,3.138665,inf,inf,inf,inf,inf,0,0,0,0,1,1,1,1,0,0,0,0,0,1,0,1
4867000,4867000,0,nan,nan,0.008076576,-0.028197432,-0.005105369,0.0,0.0,0.0,0.016899021,-0.102068454,-0.010739025,-0.010441391,-4.757865e-06,7.2823605e-06,0.0007337779,-0.01221343,-0.36700645,0.0031935049,-0.004059806,0.0006347267,-0.00088504923,0.0,0.027056705,nan,0.1,0.010000001,0.0,0.7124904,5.841212,3.9646163,3.1387866,inf,inf,inf,inf,inf,0,0,0,0,1,1,1,1,0,0,0,0,0,1,0,1
4875000,4875000,0,nan,nan,0.00808725,-0.0286323,-0.0051883897,0.0,0.0,0.0,0.017287765,-0.10286754,-0.010999194,-0.010634598,-4.757865e-06,7.2823605e-06,0.0007337779,0.0982671,-0.24544993,-0.02046488,-0.0040374207,0.0006517749,-0.0008664279,0.0,0.027249526,nan,0.1,0.010000001,0.0,0.73541445,5.845076,3.9659948,3.1388488,inf,inf,inf,inf,inf,0,0,0,0,1,1,1,1,0,0,0,0,0,1,0,1
4883000,4883000,0,nan,nan,0.008049585,-0.028877752,-0.005171151,0.0,0.0,0.0,0.016276406,-0.10223175,-0.010823036,-0.010256861,-4.757865e-06,7.2823605e-06,0.0007337779,-0.036740046,-0.23209774,-0.009716022,-0.0042243446,0.0006690491,-0.001057295,0.0,0.027124088,nan,0.09676775,0.010000001,0.0,0.5003727,5.7735224,0.0014142136,0.001,inf,inf,inf,inf,inf,0,0,0,0,1,1,1,1,0,0,0,0,0,1,0,1
4891000,4891000,0,nan,nan,0.00799862,-0.029106893,-0.0051460396,0.0,0.0,0.0,0.01417274,-0.10009109,-0.00870858,-0.007947451,-4.757865e-06,7.2823605e-06,0.0007337779,-0.17584129,-0.03508557,0.23346859,-0.004276883,0.00068654935,-0.0011139124,0.0,0.027320443,nan,0.1,0.010000001,0.0,0.5003727,5.7735224,0.013670887,0.0033801468,inf,inf,inf,inf,inf,0,0,0,0,1,1,1,1,0,0,0,0,0,1,0,1
4907000,4907000,0,nan,nan,0.007842217,-0.029508216,-0.0050556352,0.0,0.0,0.0,0.01205125,-0.09659545,-0.006041465,-0.0049096257,-4.757865e-06,7.2823605e-06,0.0007337779,0.14562753,-0.061029725,0.09054923,-0.004562883,0.00072222756,-0.0014084385,0.0,0.027720818,nan,0.1,0.010000001,0.0,0.50035655,5.7735224,0.03986686,0.006899685,inf,inf,inf,inf,inf,0,0,0,0,1,1,1,1,0,0,0,0,0,1,0,1
4915000,4915000,0,nan,nan,0.00776038,-0.029681,-0.0049974015,0.0,0.0,0.0,0.01133665,-0.09507117,-0.0045304964,-0.003222576,-4.757865e-06,7.2823605e-06,0.0007337779,-0.009451319,-0.08692646,0.16056979,-0.00463063,0.0007404055,-0.0014805848,0.0,0.02792484,nan,0.1,0.010000001,0.0,0.5003405,5.7735224,0.053267043,0.008562846,inf,inf,inf,inf,inf,0,0,0,0,1,1,1,1,0,0,0,0,0,1,0,1
4923000,4923000,0,nan,nan,0.0076704794,-0.029834464,-0.0049299602,0.0,0.0,0.0,0.011058241,-0.09223897,-0.0037504372,-0.0022724082,-4.757865e-06,7.2823605e-06,0.0007337779,0.042797815,0.084487855,0.070004255,-0.004702209,0.0007588094,-0.0015566287,0.0,0.028131407,nan,0.1,0.010000001,0.0,0.5003193,5.7735224,0.066600606,0.010207045,inf,inf,inf,inf,inf,0,0,0,0,1,1,1,1,0,0,0,0,0,1,0,1
4931000,4931000,0,nan,nan,0.007581974,-0.029962726,-0.004857085,0.0,0.0,0.0,0.011792577,-0.09052354,-0.0028426559,-0.0012003377,-4.757865e-06,7.2823605e-06,0.0007337779,0.1671715,-0.047420416,0.08674524,-0.0047827675,0.0007774392,-0.0016416967,0.0,0.02834053,nan,0.1,0.010000001,0.0,0.50029325,5.7735224,0.08019557,0.01183936,inf,inf,inf,inf,inf,0,0,0,0,1,1,1,1,0,0,0,0,0,1,0,1
4947000,4947000,0,nan,nan,0.007387038,-0.030171502,-0.0047166673,0.0,0.0,0.0,0.009089327,-0.087233804,-0.004384677,-0.0024306467,-4.757865e-06,7.2823605e-06,0.0007337779,-0.089508496,-0.030590177,-0.14104041,-0.005270852,0.0008153765,-0.0021388694,0.0,0.028766442,nan,0.1,0.010000001,0.0,0.50022775,5.7735224,0.10686,0.01509833,inf,inf,inf,inf,inf,0,0,0,0,1,1,1,1,0,0,0,0,0,1,0,1
4955000,4955000,0,nan,nan,0.007278359,-0.03025527,-0.0046555703,0.0,0.0,0.0,0.009567925,-0.08719322,-0.004424595,-0.002322853,-4.757865e-06,7.2823605e-06,0.0007337779,0.12893628,-0.23496965,-0.029514076,-0.0052989046,0.00083468435,-0.0021714712,0.0,0.028983235,nan,0.1,0.010000001,0.0,0.5001893,5.7735224,0.120283216,0.016730068,inf,inf,inf,inf,inf,0,0,0,0,1,1,1,1,0,0,0,0,0,1,0,1
4963000,4963000,0,nan,nan,0.0071703694,-0.0303375,-0.004597516,0.0,0.0,0.0,0.009110748,-0.087422945,-0.0052162604,-0.0029720482,-4.757865e-06,7.2823605e-06,0.0007337779,0.010000195,-0.26190263,-0.12279068,-0.0052949362,0.0008542179,-0.0021720333,0.0,0.02920258,nan,0.1,0.010000001,0.0,0.5001478,5.7735224,0.13358301,0.018365275,inf,inf,inf,inf,inf,0,0,0,0,1,1,1,1,0,0,0,0,0,1,0,1
4971000,4971000,0,nan,nan,0.007053874,-0.030419195,-0.0045411745,0.0,0.0,0.0,0.008040257,-0.08816033,-0.004681428,-0.002299849,-4.757865e-06,7.2823605e-06,0.0007337779,-0.068572655,-0.31869304,0.043691598,-0.0054020253,0.00087397743,-0.0022836206,0.0,0.029424477,nan,0.1,0.010000001,0.0,0.5001039,5.7735224,0.14708446,0.01998776,inf,inf,inf,inf,inf,0,0,0,0,1,1,1,1,0,0,0,0,0,1,0,1
4987000,4987000,0,nan,nan,0.006805291,-0.030588325,-0.0044295997,0.0,0.0,0.0,0.0072720875,-0.08904503,-0.0052205147,-0.0025789875,-4.757865e-06,7.2823605e-06,0.0007337779,-0.0075741834,-0.25429007,-0.056545712,-0.0054228045,0.00091417466,-0.0023132577,0.0,0.029875956,nan,0.1,0.010000001,0.0,0.5000112,5.773521,0.17461461,0.023206523,inf,inf,inf,inf,inf,0,0,0,0,1,1,1,1,0,0,0,0,0,1,0,1
4995000,4995000,0,nan,nan,0.006675637,-0.030667795,-0.004371982,0.0,0.0,0.0,0.007192919,-0.088592485,-0.0036943748,-0.00093000993,-4.757865e-06,7.2823605e-06,0.0007337779,0.049952332,-0.15111491,0.16951141,-0.0055624587,0.0009346121,-0.0024572518,0.0,0.030105531,nan,0.1,0.010000001,0.0,0.499964,5.7735205,0.1883602,0.024825146,inf,inf,inf,inf,inf,0,0,0,0,1,1,1,1,0,0,0,0,0,1,0,1
5003000,5003000,0,nan,nan,0.006543399,-0.030747961,-0.004301955,0.0,0.0,0.0,0.006703047,-0.08959837,-0.002439938,0.0004426735,-4.757865e-06,7.2823605e-06,0.0007337779,-0.0030701256,-0.3274966,0.13614817,-0.0055745156,0.00095527526,-0.0024735741,0.0,0.03033765,nan,0.1,0.010000001,0.0,0.49991748,5.77352,0.20223276,0.026442338,inf,inf,inf,inf,inf,0,0,0,0,1,1,1,1,0,0,0,0,0,1,0,1
5011000,5011000,0,nan,nan,0.006405793,-0.030831894,-0.004218683,0.0,0.0,0.0,0.006162544,-0.09062735,-0.00013232953,0.0028640581,-4.757865e-06,7.2823605e-06,0.0007337779,-0.0110332975,-0.32463282,0.2683783,-0.0058291447,0.0009761646,-0.0027323873,0.0,0.030572334,nan,0.1,0.010000001,0.0,0.49987257,5.773519,0.21625422,0.02805829,inf,inf,inf,inf,inf,0,0,0,0,1,1,1,1,0,0,0,0,0,1,0,1
5027000,5027000,0,nan,nan,0.0061100456,-0.031022795,-0.0040344866,0.0,0.0,0.0,0.0047618276,-0.09238319,-0.0005949909,0.002616008,-4.757865e-06,7.2823605e-06,0.0007337779,0.005799913,-0.25758728,-0.0773794,-0.005817664,0.0010186214,-0.002729001,0.0,0.031049367,nan,0.1,0.010000001,0.0,0.49979198,5.7735176,0.24409102,0.031304058,inf,inf,inf,inf,inf,0,0,0,0,1,1,1,1,0,0,0,0,0,1,0,1
5035000,5035000,0,nan,nan,0.005962983,-0.031122016,-0.003948028,0.0,0.0,0.0,0.005763919,-0.09286508,-0.00097426213,0.0023378013,-4.757865e-06,7.2823605e-06,0.0007337779,0.17708911,-0.23994902,-0.065829135,-0.005810132,0.0010401885,-0.0027253702,0.0,0.031291705,nan,0.1,0.010000001,0.0,0.4997587,5.773517,0.2580876,0.03292152,inf,inf,inf,inf,inf,0,0,0,0,1,1,1,1,0,0,0,0,0,1,0,1
5043000,5043000,0,nan,nan,0.0058197672,-0.031226855,-0.0038600324,0.0,0.0,0.0,0.0062390836,-0.0933758,-9.009907e-05,0.0033190176,-4.757865e-06,7.2823605e-06,0.0007337779,0.10974439,-0.2384218,0.09261723,-0.005799276,0.0010619817,-0.0027183164,0.0,0.0315366,nan,0.1,0.010000001,0.0,0.49973178,5.7735167,0.2717973,0.034522783,inf,inf,inf,inf,inf,0,0,0,0,1,1,1,1,0,0,0,0,0,1,0,1
5051000,5051000,0,nan,nan,0.0056270934,-0.031539433,-0.0037581644,0.0,0.0,0.0,0.017509991,-0.06442581,0.0016963673,0.0052020126,0.008903486,0.027717499,0.0007337779,0.34483048,-0.0155162625,0.20590796,-0.0057501416,0.0005201537,-0.0026728786,0.0,0.031784043,nan,0.099894404,0.010000001,0.0,14.142136,5.0000086,7.071068,0.0361312,inf,inf,inf,inf,inf,0,0,0,0,2,1,2,1,0,0,0,0,0,1,0,1
5067000,5067000,0,nan,nan,0.005548581,-0.031252477,-0.0035423336,0.0,0.0,0.0,0.018118383,-0.06489206,0.001791075,0.00547765,0.008903486,0.027717499,0.0007337779,0.036264997,-0.27474284,0.020506324,-0.0056319614,0.00011469485,-0.0025617615,0.0,0.019958986,nan,0.10002152,0.010000001,0.0,14.142589,5.0000076,7.0711055,0.039274126,inf,inf,inf,inf,inf,0,0,0,0,2,1,2,1,0,0,0,0,0,1,0,1
5075000,5075000,0,nan,nan,0.005517356,-0.031110238,-0.0034310352,0.0,0.0,0.0,0.019086255,-0.06574689,0.0025508576,0.006322067,0.008903486,0.027717499,0.0007337779,0.16097938,-0.25858167,0.07872655,-0.005506366,0.000116991294,-0.0024505393,0.0,0.01996464,nan,0.1,0.010000001,0.0,14.143153,5.000007,7.071151,0.040866833,inf,inf,inf,inf,inf,0,0,0,0,2,1,2,1,0,0,0,0,0,1,0,1
5083000,5083000,0,nan,nan,0.0054955077,-0.03096719,-0.0033207345,0.0,0.0,0.0,0.01925846,-0.06553477,0.0016305539,0.0054828417,0.008903486,0.027717499,0.0007337779,0.058701303,-0.11957457,-0.13086943,-0.0057248836,0.00011931047,-0.0026834123,0.0,0.019970348,nan,0.1,0.010000001,0.0,14.143946,5.0000067,7.071214,0.042465996,inf,inf,inf,inf,inf,0,0,0,0,2,1,2,1,0,0,0,0,0,1,0,1
5091000,5091000,0,nan,nan,0.005468379,-0.03080994,-0.0031970763,0.0,0.0,0.0,0.01865692,-0.06380441,0.0010016124,0.0049392125,0.008903486,0.027717499,0.0007337779,-0.024851551,0.06434999,-0.076610126,-0.005890925,0.00012165243,-0.0028638341,0.0,0.019927409,nan,0.099338956,0.010000001,0.0,14.142136,5.000002,0.0014142136,0.001,inf,inf,inf,inf,inf,0,0,0,0,2,1,2,1,0,0,0,0,0,1,0,1
5107000,5107000,0,nan,nan,0.0054242765,-0.030476382,-0.002943156,0.0,0.0,0.0,0.0183001,-0.06483487,0.0024620856,0.006557428,0.008903486,0.027717499,0.0007337779,-0.09272993,-0.25232935,0.019226687,-0.0060507865,0.0001264046,-0.0030524093,0.0,0.019939091,nan,0.1,0.010000001,0.0,14.142136,5.000002,0.023541894,0.0042349137,inf,inf,inf,inf,inf,0,0,0,0,2,1,2,1,0,0,0,0,0,1,0,1
5115000,5115000,0,nan,nan,0.0054010716,-0.030308545,-0.0028176552,0.0,0.0,0.0,0.018343586,-0.063654244,0.0023275826,0.006495638,0.008903486,0.027717499,0.0007337779,0.04629421,0.011724791,-0.013364944,-0.00595558,0.00012881482,-0.0029715905,0.0,0.019945014,nan,0.1,0.010000001,0.0,14.142136,5.000002,0.03498514,0.0052215937,inf,inf,inf,inf,inf,0,0,0,0,2,1,2,1,0,0,0,0,0,1,0,1
5123000,5123000,0,nan,nan,0.0053849514,-0.030133747,-0.0026975127,0.0,0.0,0.0,0.019378098,-0.06394942,0.0016331095,0.0058699213,0.008903486,0.027717499,0.0007337779,0.16719821,-0.16767408,-0.08290912,-0.0060229255,0.0001312478,-0.0030533546,0.0,0.019950997,nan,0.1,0.010000001,0.0,14.142136,5.000002,0.046254337,0.006097735,inf,inf,inf,inf,inf,0,0,0,0,2,1,2,1,0,0,0,0,0,1,0,1
5131000,5131000,0,nan,nan,0.005380839,-0.029961254,-0.002584233,0.0,0.0,0.0,0.020298135,-0.06350192,0.0011897715,0.0054915133,0.008903486,0.027717499,0.0007337779,0.1499585,-0.06987702,-0.051095147,-0.0058780843,0.0001337035,-0.0029229643,0.0,0.019957028,nan,0.1,0.010000001,0.0,14.142136,5.000002,0.05763396,0.0069089206,inf,inf,inf,inf,inf,0,0,0,0,2,1,2,1,0,0,0,0,0,1,0,1
5147000,5147000,0,nan,nan,0.0053841667,-0.029616185,-0.0023773508,0.0,0.0,0.0,0.018959263,-0.064599395,-6.830966e-05,0.0043522357,0.008903486,0.027717499,0.0007337779,-0.12097396,-0.19205238,-0.09219627,-0.0058568493,0.00013868332,-0.0029308358,0.0,0.019969273,nan,0.1,0.010000001,0.0,14.142136,5.000002,0.0801561,0.0083925575,inf,inf,inf,inf,inf,0,0,0,0,2,1,2,1,0,0,0,0,0,1,0,1
5155000,5155000,0,nan,nan,0.0053777853,-0.029452246,-0.002288979,0.0,0.0,0.0,0.017959887,-0.06540754,-0.0013684515,0.0031061934,0.008903486,0.027717499,0.0007337779,-0.09835284,-0.21272935,-0.15697767,-0.0059331204,0.00014120736,-0.003021737,0.0,0.01997548,nan,0.1,0.010000001,0.0,14.142136,5.000002,0.09133206,0.009098952,inf,inf,inf,inf,inf,0,0,0,0,2,1,2,1,0,0,0,0,0,1,0,1
5163000,5163000,0,nan,nan,0.005377695,-0.02929548,-0.0022086597,0.0,0.0,0.0,0.019322094,-0.06549365,-0.0013136166,0.0032117357,0.008903486,0.027717499,0.0007337779,0.19420831,-0.11804051,0.012771691,-0.0059007695,0.00014375417,-0.0030040406,0.0,0.019981742,nan,0.1,0.010000001,0.0,14.142136,5.000002,0.1023642,0.009785478,inf,inf,inf,inf,inf,0,0,0,0,2,1,2,1,0,0,0,0,0,1,0,1
5171000,5171000,0,nan,nan,0.005396163,-0.02913957,-0.0021314428,0.0,0.0,0.0,0.02153718,-0.06563646,-0.0019759464,0.0025968156,0.008903486,0.027717499,0.0007337779,0.29818928,-0.1207843,-0.076497436,-0.0059112855,0.0001463237,-0.0030292636,0.0,0.01998806,nan,0.1,0.010000001,0.0,14.142136,5.000002,0.113714516,0.010454717,inf,inf,inf,inf,inf,0,0,0,0,2,1,2,1,0,0,0,0,0,1,0,1
5187000,5187000,0,nan,nan,0.0054559363,-0.028830405,-0.0020116055,0.0,0.0,0.0,0.020423364,-0.06613331,-0.0042392225,0.00041890366,0.008903486,0.027717499,0.0007337779,-0.06037101,-0.26970392,-0.12336484,-0.006200589,0.00015153107,-0.0033479948,0.0,0.020000864,nan,0.1,0.010000001,0.0,14.142136,5.000002,0.13653523,0.011757086,inf,inf,inf,inf,inf,0,0,0,0,2,1,2,1,0,0,0,0,0,1,0,1
5195000,5195000,0,nan,nan,0.005492789,-0.028699305,-0.001963422,0.0,0.0,0.0,0.021899462,-0.069077924,-0.004086667,0.0006096208,0.008903486,0.027717499,0.0007337779,0.1982709,-0.45857698,0.026357358,-0.0063963267,0.00015416896,-0.0035585011,0.0,0.02000736,nan,0.1,0.010000001,0.0,14.142136,5.000002,0.14776708,0.012394373,inf,inf,inf,inf,inf,0,0,0,0,2,1,2,1,0,0,0,0,0,1,0,1
5203000,5203000,0,nan,nan,0.005543869,-0.028592382,-0.0019171558,0.0,0.0,0.0,0.0229244,-0.0710749,-0.004263493,0.00046807912,0.008903486,0.027717499,0.0007337779,0.13951355,-0.33619815,-0.014524906,-0.006522996,0.00015682956,-0.003699975,0.0,0.020013906,nan,0.1,0.010000001,0.0,14.142137,5.000002,0.15887482,0.0130206775,inf,inf,inf,inf,inf,0,0,0,0,2,1,2,1,0,0,0,0,0,1,0,1
5211000,5211000,0,nan,nan,0.0056039696,-0.028509833,-0.001876391,0.0,0.0,0.0,0.022957183,-0.0728973,-0.0047967425,-3.2698954e-05,0.008903486,0.027717499,0.0007337779,0.0131386975,-0.31052068,-0.058764588,-0.0066566793,0.00015951289,-0.0038485322,0.0,0.020020504,nan,0.1,0.010000001,0.0,14.142138,5.000002,0.17025937,0.01363456,inf,inf,inf,inf,inf,0,0,0,0,2,1,2,1,0,0,0,0,0,1,0,1
5227000,5227000,0,nan,nan,0.0057168542,-0.02841129,-0.0018192189,0.0,0.0,0.0,0.022675697,-0.07520587,-0.0069291373,-0.0021082188,0.008903486,0.027717499,0.0007337779,0.093847066,-0.23131931,-0.1956974,-0.006703702,0.0001649479,-0.0039255023,0.0,0.02003387,nan,0.1,0.010000001,0.0,14.142139,5.000002,0.19283,0.014870441,inf,inf,inf,inf,inf,0,0,0,0,2,1,2,1,0,0,0,0,0,1,0,1
5235000,5235000,0,nan,nan,0.0057844413,-0.028393835,-0.001811231,0.0,0.0,0.0,0.023705762,-0.07626127,-0.008284766,-0.0034392898,0.008903486,0.027717499,0.0007337779,0.1311966,-0.20380585,-0.16068946,-0.0065826946,0.00016769953,-0.0038191346,0.0,0.020040637,nan,0.1,0.010000001,0.0,14.14214,5.000002,0.20431837,0.015462889,inf,inf,inf,inf,inf,0,0,0,0,2,1,2,1,0,0,0,0,0,1,0,1
5243000,5243000,0,nan,nan,0.005861852,-0.02839083,-0.0018119898,0.0,0.0,0.0,0.024128105,-0.076343924,-0.008239175,-0.0033716606,0.008903486,0.027717499,0.0007337779,0.053224098,-0.07885582,0.014795455,-0.006545989,0.00017047393,-0.0037966887,0.0,0.02004746,nan,0.1,0.010000001,0.0,14.142142,5.000002,0.21574995,0.016025266,inf,inf,inf,inf,inf,0,0,0,0,2,1,2,1,0,0,0,0,0,1,0,1
5251000,5251000,0,nan,nan,0.0059414255,-0.028396998,-0.0018129334,0.0,0.0,0.0,0.023997871,-0.075981,-0.008266253,-0.0033786157,0.008903486,0.027717499,0.0007337779,-0.017705679,-0.019963713,0.005381647,-0.006272238,0.00017327111,-0.0035368358,0.0,0.020054344,nan,0.1,0.010000001,0.0,14.142144,5.000002,0.2268894,0.016621746,inf,inf,inf,inf,inf,0,0,0,0,2,1,2,1,0,0,0,0,0,1,0,1
5267000,5267000,0,nan,nan,0.006052327,-0.028231505,-0.0018382171,0.0,0.0,0.0,0.026175205,-0.07835857,-0.009785195,-0.0048676473,0.008903486,0.027717499,0.0007337779,0.12859559,-0.20342226,-0.1205462,-0.005912643,9.165262e-05,-0.0032038451,0.0,0.019853733,nan,0.10000789,0.010000001,0.0,0.014268872,4.4721375,0.24848771,0.017760415,inf,inf,inf,inf,inf,0,0,0,0,2,1,2,1,0,0,0,0,0,1,0,1
5275000,5275000,0,nan,nan,0.0061170612,-0.028176274,-0.0018632452,0.0,0.0,0.0,0.025343796,-0.07804499,-0.010422353,-0.0054927412,0.008903486,0.027717499,0.0007337779,-0.08663445,-0.040339705,-0.07111858,-0.0057830582,9.311589e-05,-0.0031605735,0.0,0.01985731,nan,0.1,0.010000001,0.0,0.01466615,4.4721375,0.2598539,0.018343193,inf,inf,inf,inf,inf,0,0,0,0,2,1,2,1,0,0,0,0,0,1,0,1
5283000,5283000,0,nan,nan,0.0061780512,-0.028134277,-0.0019004247,0.0,0.0,0.0,0.024641603,-0.07850424,-0.0118030775,-0.0068630036,0.008903486,0.027717499,0.0007337779,-0.07147096,-0.13467254,-0.1643407,-0.00557401,9.459074e-05,-0.0030380222,0.0,0.019860916,nan,0.1,0.010000001,0.0,0.015348261,4.4721375,0.271186,0.018914158,inf,inf,inf,inf,inf,0,0,0,0,2,1,2,1,0,0,0,0,0,1,0,1
5291000,5291000,0,nan,nan,0.0062417113,-0.02811025,-0.0019416116,0.0,0.0,0.0,0.025530746,-0.07903444,-0.011291682,-0.0063426965,0.008903486,0.027717499,0.0007337779,0.12653133,-0.14137027,0.07191486,-0.0055131223,9.60772e-05,-0.0030638208,0.0,0.019864552,nan,0.1,0.010000001,0.0,0.01631407,4.4721375,0.2825239,0.019476831,inf,inf,inf,inf,inf,0,0,0,0,2,1,2,1,0,0,0,0,0,1,0,1
5307000,5307000,0,nan,nan,0.006373532,-0.027996289,-0.0020267975,0.0,0.0,0.0,0.028104628,-0.077440195,-0.011011621,-0.0060397214,0.008903486,0.027717499,0.0007337779,0.24928541,-0.18459141,0.015271827,-0.005581625,9.90841e-05,-0.0033049998,0.0,0.00089302275,nan,0.1,0.010000001,0.0,0.014143913,4.4721375,0.0042987447,0.00304545,inf,inf,inf,inf,inf,0,0,0,0,2,1,2,1,0,0,0,0,0,1,0,1
5315000,5315000,0,nan,nan,0.006455323,-0.027938845,-0.0020695732,0.0,0.0,0.0,0.029625775,-0.077085935,-0.010750056,-0.005768674,0.008903486,0.027717499,0.0007337779,0.26518598,-0.19073689,0.032245643,-0.005241564,0.00010060499,-0.0030510388,0.0,0.0008932196,nan,0.1,0.010000001,0.0,0.014144004,4.4721375,0.006016807,0.004193964,inf,inf,inf,inf,inf,0,0,0,0,2,1,2,1,0,0,0,0,0,1,0,1
5323000,5323000,0,nan,nan,0.006548092,-0.027877428,-0.0021103702,0.0,0.0,0.0,0.030558676,-0.0757256,-0.010389314,-0.005399722,0.008903486,0.027717499,0.0007337779,0.19161028,-0.06469624,0.044443175,-0.005169463,0.00010213752,-0.0030655582,0.0,0.0008934447,nan,0.1,0.010000001,0.0,0.014144223,4.4721375,0.0074308226,0.0051179775,inf,inf,inf,inf,inf,0,0,0,0,2,1,2,1,0,0,0,0,0,1,0,1
5331000,5331000,0,nan,nan,0.0066382634,-0.02780526,-0.0021519572,0.0,0.0,0.0,0.029625393,-0.07363132,-0.010601502,-0.005604802,0.008903486,0.027717499,0.0007337779,-0.041603155,0.027278932,-0.027526168,-0.0050741886,0.0001036816,-0.0030572866,0.0,0.000893697,nan,0.1,0.010000001,0.0,0.014144658,4.4721375,0.008692504,0.005923136,inf,inf,inf,inf,inf,0,0,0,0,2,1,2,1,0,0,0,0,0,1,0,1
5347000,5347000,0,nan,nan,0.006827227,-0.027631639,-0.0022411994,0.0,0.0,0.0,0.03139074,-0.0724721,-0.010483105,-0.00547591,0.008903486,0.027717499,0.0007337779,0.13260214,-0.25993952,0.03227172,-0.004653053,0.00010680453,-0.0028112293,0.0,0.0008942848,nan,0.1,0.010000001,0.0,0.0141465785,4.4721375,0.010957229,0.0073290044,inf,inf,inf,inf,inf,0,0,0,0,2,1,2,1,0,0,0,0,0,1,0,1
5355000,5355000,0,nan,nan,0.0069194534,-0.027551306,-0.0022925446,0.0,0.0,0.0,0.029773707,-0.073389664,-0.012191713,-0.007181116,0.008903486,0.027717499,0.0007337779,-0.12676266,-0.34859446,-0.21478999,-0.004255764,0.00010838338,-0.0025019636,0.0,0.0008946201,nan,0.1,0.010000001,0.0,0.014148286,4.4721375,0.012010699,0.0079663405,inf,inf,inf,inf,inf,0,0,0,0,2,1,2,1,0,0,0,0,0,1,0,1
5363000,5363000,0,nan,nan,0.007005955,-0.027477765,-0.0023507911,0.0,0.0,0.0,0.03082921,-0.07384448,-0.011452543,-0.006439656,0.008903486,0.027717499,0.0007337779,0.20753382,-0.29065898,0.09106798,-0.003815799,0.00010997381,-0.0021502879,0.0,0.000894983,nan,0.1,0.010000001,0.0,0.014150653,4.4721375,0.013031837,0.008572937,inf,inf,inf,inf,inf,0,0,0,0,2,1,2,1,0,0,0,0,0,1,0,1
5371000,5371000,0,nan,nan,0.0071011013,-0.02740503,-0.002399026,0.0,0.0,0.0,0.031143863,-0.073324926,-0.009906915,-0.0048927343,0.008903486,0.027717499,0.0007337779,0.115225725,-0.1687898,0.19166663,-0.0036279839,0.00011157582,-0.0020510815,0.0,0.00089537335,nan,0.1,0.010000001,0.0,0.014153815,4.4721375,0.014026764,0.009154869,inf,inf,inf,inf,inf,0,0,0,0,2,1,2,1,0,0,0,0,0,1,0,1
5387000,5387000,0,nan,nan,0.007280377,-0.02724445,-0.002481242,0.0,0.0,0.0,0.030509586,-0.07180627,-0.009273697,-0.0042599128,0.008903486,0.027717499,0.0007337779,0.027759453,-0.14367406,0.04891073,-0.003406323,0.00011481463,-0.0020076833,0.0,0.0008962365,nan,0.1,0.010000001,0.0,0.014163099,4.4721375,0.01597146,0.010262109,inf,inf,inf,inf,inf,0,0,0,0,2,1,2,1,0,0,0,0,0,1,0,1
5395000,5395000,0,nan,nan,0.007364186,-0.02716014,-0.002514381,0.0,0.0,0.0,0.030333731,-0.07198449,-0.0075127203,-0.0025004665,0.008903486,0.027717499,0.0007337779,0.055147573,-0.256249,0.21806172,-0.0031897603,0.00011645145,-0.0018807705,0.0,0.0008967095,nan,0.1,0.010000001,0.0,0.014169536,4.4721375,0.01691404,0.010792993,inf,inf,inf,inf,inf,0,0,0,0,2,1,2,1,0,0,0,0,0,1,0,1
5403000,5403000,0,nan,nan,0.007448413,-0.027073795,-0.00254044,0.0,0.0,0.0,0.031043332,-0.07134946,-0.007804491,-0.0027945354,0.008903486,0.027717499,0.0007337779,0.16632469,-0.15463932,-0.03882637,-0.0029830977,0.00011809983,-0.0017642167,0.0,0.0008972096,nan,0.1,0.010000001,0.0,0.0141773885,4.4721375,0.017846568,0.011311646,inf,inf,inf,inf,inf,0,0,0,0,2,1,2,1,0,0,0,0,0,1,0,1
5411000,5411000,0,nan,nan,0.007535048,-0.026981272,-0.0025730506,0.0,0.0,0.0,0.031096516,-0.07064689,-0.008636322,-0.0036295603,0.008903486,0.027717499,0.0007337779,0.08481343,-0.1463415,-0.106424086,-0.0030120981,0.0001197598,-0.0018836947,0.0,0.00089773705,nan,0.1,0.010000001,0.0,0.014186835,4.4721375,0.018773548,0.011819731,inf,inf,inf,inf,inf,0,0,0,0,2,1,2,1,0,0,0,0,0,1,0,1
5427000,5427000,0,nan,nan,0.007706331,-0.026766492,-0.0026164833,0.0,0.0,0.0,0.0317329,-0.06851624,-0.0049289907,6.903639e-05,0.008903486,0.027717499,0.0007337779,0.11305931,-0.17081574,0.21052453,-0.0027616424,0.00012311451,-0.0018150683,0.0,0.00089887413,nan,0.1,0.010000001,0.0,0.014211268,4.4721375,0.020613482,0.0128089255,inf,inf,inf,inf,inf,0,0,0,0,2,1,2,1,0,0,0,0,0,1,0,1
5435000,5435000,0,nan,nan,0.0077971774,-0.026649794,-0.0026203003,0.0,0.0,0.0,0.03307389,-0.06763803,-0.003947216,0.0010454054,0.008903486,0.027717499,0.0007337779,0.24766561,-0.12492826,0.11967169,-0.0027136737,0.0001248093,-0.0018557564,0.0,0.0008994837,nan,0.1,0.010000001,0.0,0.0142266555,4.4721375,0.021530496,0.013292048,inf,inf,inf,inf,inf,0,0,0,0,2,1,2,1,0,0,0,0,0,1,0,1
5443000,5443000,0,nan,nan,0.007892315,-0.026519045,-0.0026209457,0.0,0.0,0.0,0.033198573,-0.0660469,-0.0041737347,0.0008127566,0.008903486,0.027717499,0.0007337779,0.09617228,-0.035871238,-0.03150012,-0.00245741,0.00012651563,-0.0016859181,0.0,0.00090012024,nan,0.1,0.010000001,0.0,0.014244441,4.4721375,0.02243118,0.013768726,inf,inf,inf,inf,inf,0,0,0,0,2,1,2,1,0,0,0,0,0,1,0,1
5451000,5451000,0,nan,nan,0.007982726,-0.026380932,-0.002625506,0.0,0.0,0.0,0.032868106,-0.06592311,-0.004742347,0.00023732509,0.008903486,0.027717499,0.0007337779,0.03986212,-0.21936864,-0.07440242,-0.002214645,0.00012823357,-0.0015273334,0.0,0.0009007841,nan,0.1,0.010000001,0.0,0.014264834,4.4721375,0.023332175,0.014239669,inf,inf,inf,inf,inf,0,0,0,0,2,1,2,1,0,0,0,0,0,1,0,1
5467000,5467000,0,nan,nan,0.008175722,-0.02609382,-0.0026313548,0.0,0.0,0.0,0.03471874,-0.06423058,-0.004044183,0.00092313555,0.008903486,0.027717499,0.0007337779,0.13001882,-0.013788325,0.0307532,-0.0019204901,0.00013170418,-0.0013945836,0.0,0.000902193,nan,0.09987345,0.010000001,0.0,0.0143143665,4.082484,0.025129564,0.01516601,inf,inf,inf,inf,inf,0,0,0,0,2,1,2,1,0,0,0,0,0,1,0,1
5475000,5475000,0,nan,nan,0.00827476,-0.025934786,-0.0026303418,0.0,0.0,0.0,0.034990672,-0.06399941,-0.004249071,0.000712707,0.008903486,0.027717499,0.0007337779,0.116197765,-0.20462343,-0.028448643,-0.0019805438,0.00013345684,-0.0015320838,0.0,0.00090293796,nan,0.1,0.010000001,0.0,0.014343979,4.082484,0.026025731,0.01562249,inf,inf,inf,inf,inf,0,0,0,0,2,1,2,1,0,0,0,0,0,1,0,1
5483000,5483000,0,nan,nan,0.008374247,-0.02576887,-0.0026338832,0.0,0.0,0.0,0.035432443,-0.062086057,-0.004785344,0.00017008462,0.008903486,0.027717499,0.0007337779,0.13768221,0.006412079,-0.06990134,-0.002111162,0.0001352211,-0.0017378572,0.0,0.0009037099,nan,0.1,0.010000001,0.0,0.014377149,4.082484,0.026925987,0.016074711,inf,inf,inf,inf,inf,0,0,0,0,2,1,2,1,0,0,0,0,0,1,0,1
5491000,5491000,0,nan,nan,0.00847407,-0.025582891,-0.0026376422,0.0,0.0,0.0,0.03510133,-0.059658322,-0.0041974434,0.00075075077,0.008903486,0.027717499,0.0007337779,0.04125401,0.07158668,0.07072463,-0.00213369,0.00013699694,-0.0018331555,0.0,0.00090450875,nan,0.1,0.010000001,0.0,0.014414135,4.082484,0.027826019,0.016523564,inf,inf,inf,inf,inf,0,0,0,0,2,1,2,1,0,0,0,0,0,1,0,1
5507000,5507000,5347000,47.3977508,8.5456074,0.009546904,-0.025920324,-0.0018005371,0.0009668327,-0.000876257,-488.05307,0.03374702,-0.05567607,-0.005176718,-0.0002409525,0.008903486,0.027717499,0.0007337779,-0.016538454,0.050317623,-0.18895276,-0.0020568178,0.00014058342,-0.0018950852,0.0,0.00090618746,488.054,0.1000061,0.010000001,-488.05307,2.0,1.0,0.029637154,0.017409602,inf,inf,inf,inf,inf,0,1,0,1,3,3,2,1,0,0,1,1,0,3,0,1
5515000,5515000,5347000,47.3977508,8.5456074,0.009622767,-0.025686158,-0.0018005371,0.0009668327,-0.000876257,-488.05307,0.03300396,-0.05398332,-0.0064143743,-0.0014864583,0.008903486,0.027717499,0.0007337779,-0.010184092,-0.01686869,-0.15689617,-0.0019517023,0.00014239406,-0.0018561461,0.0,0.0009070672,488.054,0.1000061,0.010000001,-488.05307,2.0,1.0,0.030533034,0.017848562,inf,inf,inf,inf,inf,0,1,0,1,3,3,2,1,0,0,1,1,0,3,0,1
5523000,5523000,5347000,47.3977508,8.5456074,0.009691218,-0.025438271,-0.0018310547,0.0009668327,-0.000876257,-488.05307,0.03238222,-0.052409045,-0.00632103,-0.0014015283,0.008903486,0.027717499,0.0007337779,0.0048547112,-0.030128298,0.009596347,-0.001745119,0.00014421628,-0.0017135048,0.0,0.00090797374,488.054,0.1000061,0.010000001,-488.05307,2.0,1.0,0.031423975,0.018284831,inf,inf,inf,inf,inf,0,1,0,1,3,3,2,1,0,0,1,1,0,3,0,1
5531000,5531000,5347000,47.3977508,8.5456074,0.00975445,-0.025179833,-0.0018310547,0.0009668327,-0.000876257,-488.05307,0.03202689,-0.051372044,-0.0051677306,-0.00025737917,0.008903486,0.027717499,0.0007337779,0.038000155,-0.09569727,0.14216918,-0.0017384143,0.00014605012,-0.0017683539,0.0,0.0009089073,488.054,0.1000061,0.010000001,-488.05307,2.0,1.0000001,0.032327183,0.018718492,inf,inf,inf,inf,inf,0,1,0,1,3,3,2,1,0,0,1,1,0,3,0,1
5547000,5547000,5347000,47.3977508,8.5456074,0.009878185,-0.024643242,-0.0018310547,0.0009668327,-0.000876257,-488.05307,0.032653578,-0.049794413,-0.003455422,0.0014339796,0.008903486,0.027717499,0.0007337779,0.121637195,-0.11312331,0.06442191,-0.001600068,0.00014975252,-0.0017462785,0.0,0.0009108542,488.054,0.1000061,0.010000001,-488.05307,2.0000005,1.0000004,0.034125756,0.019578774,inf,inf,inf,inf,inf,0,1,0,1,3,3,2,1,0,0,1,1,0,3,0,1
5555000,5555000,5347000,47.3977508,8.5456074,0.009937095,-0.024359908,-0.0018310547,0.0009668327,-0.000876257,-488.05307,0.03210123,-0.048073925,-0.0035140247,0.0013631681,0.008903486,0.027717499,0.0007337779,0.012518537,-0.0047054817,-0.008997506,-0.0014570613,0.00015162108,-0.0016578584,0.0,0.0009118675,488.054,0.1000061,0.010000001,-488.05307,2.0000007,1.0000005,0.035039883,0.020006055,inf,inf,inf,inf,inf,0,1,0,1,3,3,2,1,0,0,1,1,0,3,0,1
5563000,5563000,5347000,47.3977508,8.5456074,0.009992,-0.024068253,-0.0018310547,0.0009668327,-0.000876257,-488.05307,0.031645093,-0.04734862,-0.003772718,0.001091284,0.008903486,0.027717499,0.0007337779,0.024182357,-0.12709793,-0.033927146,-0.0013292711,0.00015350121,-0.0015822799,0.0,0.0009129073,488.054,0.1000061,0.010000001,-488.05307,2.000001,1.0000006,0.035961285,0.02043127,inf,inf,inf,inf,inf,0,1,0,1,3,3,2,1,0,0,1,1,0,3,0,1
5571000,5571000,5347000,47.3977508,8.5456074,0.010043138,-0.023769066,-0.0018310547,0.0009668327,-0.000876257,-488.05307,0.031863675,-0.045919318,-0.0033956664,0.0014540886,0.008903486,0.027717499,0.0007337779,0.10802541,-0.036804102,0.045579854,-0.001118738,0.00015539298,-0.0014215722,0.0,0.0009139739,488.054,0.1000061,0.010000001,-488.05307,2.0000012,1.0000008,0.03686169,0.020854875,inf,inf,inf,inf,inf,0,1,0,1,3,3,2,1,0,0,1,1,0,3,0,1
5587000,5587000,5347000,47.3977508,8.5456074,0.010135138,-0.023144364,-0.0018310547,0.0009668327,-0.000876257,-488.05307,0.03059426,-0.044249438,-0.003908532,0.0009107578,0.008903486,0.027717499,0.0007337779,-0.005523452,-0.14902793,-0.037041955,-0.00077083206,0.00015921127,-0.0011661695,0.0,0.0009161867,488.054,0.1000061,0.010000001,-488.05307,2.0000021,1.0000013,0.038682196,0.021697156,inf,inf,inf,inf,inf,0,1,0,1,3,3,2,1,0,0,1,1,0,3,0,1
5595000,5595000,5347000,47.3977508,8.5456074,0.010172891,-0.022821242,-0.0018310547,0.0009668327,-0.000876257,-488.05307,0.030475033,-0.042407826,-0.0036777188,0.001125031,0.008903486,0.027717499,0.0007337779,0.0640555,0.02207868,0.027521512,-0.0006961304,0.0001611378,-0.0011341951,0.0,0.0009173328,488.054,0.1000061,0.010000001,-488.05307,2.0000026,1.0000017,0.039610796,0.022115916,inf,inf,inf,inf,inf,0,1,0,1,3,3,2,1,0,0,1,1,0,3,0,1
5603000,5603000,5347000,47.3977508,8.5456074,0.010212691,-0.022482343,-0.0018310547,0.0009668327,-0.000876257,-488.05307,0.030872636,-0.040114023,-0.0027196293,0.002065805,0.008903486,0.027717499,0.0007337779,0.12798496,0.081169136,0.11851917,-0.0009028105,0.00016307588,-0.0013813633,0.0,0.00091850525,488.054,0.1000061,0.010000001,-488.05307,2.000003,1.000002,0.040545776,0.022532959,inf,inf,inf,inf,inf,0,1,0,1,3,3,2,1,0,0,1,1,0,3,0,1
5611000,5611000,5347000,47.3977508,8.5456074,0.010244155,-0.022130745,-0.0018310547,0.0009668327,-0.000876257,-488.05307,0.02906324,-0.03883546,-0.0008481934,0.003919175,0.008903486,0.027717499,0.0007337779,-0.14862074,-0.04300528,0.23281619,-0.0010668573,0.0001650256,-0.001583742,0.0,0.0009197042,488.054,0.1000061,0.010000001,-488.05307,2.0000036,1.0000024,0.041475534,0.022949241,inf,inf,inf,inf,inf,0,1,0,1,3,3,2,1,0,0,1,1,0,3,0,1
5627000,5627000,5347000,47.3977508,8.5456074,0.010247806,-0.02139671,-0.0017700195,0.0009668327,-0.000876257,-488.05307,0.023468275,-0.03608595,0.0008643287,0.0055933865,0.008903486,0.027717499,0.0007337779,-0.29300132,-0.09855326,0.13585435,-0.0006982617,0.00016895971,-0.0012853479,0.0,0.0009221806,488.054,0.1000061,0.010000001,-488.05307,2.000005,1.0000032,0.04335347,0.023777548,inf,inf,inf,inf,inf,0,1,0,1,3,3,2,1,0,0,1,1,0,3,0,1
5635000,5635000,5347000,47.3977508,8.5456074,0.01021649,-0.021023579,-0.001739502,0.0009668327,-0.000876257,-488.05307,0.021351835,-0.035760663,0.0010150586,0.0057240357,0.008903486,0.027717499,0.0007337779,-0.1894687,-0.15341948,0.017854849,-0.00077266333,0.00017094416,-0.0013917122,0.0,0.00092345814,488.054,0.1000061,0.010000001,-488.05307,2.0000057,1.0000037,0.04430355,0.024190078,inf,inf,inf,inf,inf,0,1,0,1,3,3,2,1,0,0,1,1,0,3,0,1
5643000,5643000,5347000,47.3977508,8.5456074,0.010169303,-0.020641442,-0.0017089844,0.0009668327,-0.000876257,-488.05307,0.01926851,-0.03305041,0.0016484706,0.006336856,0.008903486,0.027717499,0.0007337779,-0.18625033,0.14781988,0.078178935,-0.00062242703,0.00017294018,-0.0012714332,0.0,0.000924762,488.054,0.1000061,0.010000001,-488.05307,2.0000067,1.0000042,0.045247495,0.024601296,inf,inf,inf,inf,inf,0,1,0,1,3,3,2,1,0,0,1,1,0,3,0,1
5651000,5651000,5347000,47.3977508,8.5456074,0.010099503,-0.0202407,-0.0016784668,0.0009668327,-0.000876257,-488.05307,0.016216807,-0.03082711,0.0017264597,0.0063936133,0.008903486,0.027717499,0.0007337779,-0.30826107,0.09012858,0.008760485,-0.00047958703,0.00017494783,-0.0011565845,0.0,0.0009260922,488.054,0.1000061,0.010000001,-488.05307,2.0000076,1.0000048,0.046196125,0.025011338,inf,inf,inf,inf,inf,0,1,0,1,3,3,2,1,0,0,1,1,0,3,0,1
5667000,5667000,5347000,47.3977508,8.5456074,0.009909296,-0.019411054,-0.0015869141,0.0009668327,-0.000876257,-488.05307,0.0131105,-0.027722385,0.0040947557,0.008718397,0.008903486,0.027717499,0.0007337779,-0.0990497,0.074957535,0.16420986,-0.0005235529,0.00017899783,-0.0012509088,0.0,0.00092883076,488.054,0.1000061,0.010000001,-488.05307,2.0000098,1.0000061,0.04814148,0.025828453,inf,inf,inf,inf,inf,0,1,0,1,3,3,2,1,0,0,1,1,0,3,0,1
5675000,5675000,5347000,47.3977508,8.5456074,0.009801168,-0.018980062,-0.0015258789,0.0009668327,-0.000876257,-488.05307,0.012918303,-0.02594058,0.0043804557,0.0089823315,0.008903486,0.027717499,0.0007337779,0.046070956,0.04467613,0.034741122,-0.00045314778,0.00018104023,-0.0012030371,0.0,0.00093023933,488.054,0.1000061,0.010000001,-488.05307,2.000011,1.0000068,0.049107075,0.026235674,inf,inf,inf,inf,inf,0,1,0,1,3,3,2,1,0,0,1,1,0,3,0,1
5683000,5683000,5347000,47.3977508,8.5456074,0.009690721,-0.018537724,-0.0014953613,0.0009668327,-0.000876257,-488.05307,0.012154704,-0.024097107,0.0036706266,0.0082506165,0.008903486,0.027717499,0.0007337779,-0.026490018,0.055784713,-0.0896682,-0.00049085676,0.0001830943,-0.001261621,0.0,0.0009316741,488.054,0.1000061,0.010000001,-488.05307,2.0000122,1.0000075,0.050066885,0.026642071,inf,inf,inf,inf,inf,0,1,0,1,3,3,2,1,0,0,1,1,0,3,0,1
5691000,5691000,5347000,47.3977508,8.5456074,0.009572034,-0.018091114,-0.0014343262,0.0009668327,-0.000876257,-488.05307,0.011241997,-0.02400351,0.003281351,0.007839039,0.008903486,0.027717499,0.0007337779,-0.04627968,-0.15950525,-0.049553808,-0.00069119147,0.00018515994,-0.0014812292,0.0,0.00093313487,488.054,0.1000061,0.010000001,-488.05307,2.0000136,1.0000083,0.051030822,0.027047858,inf,inf,inf,inf,inf,0,1,0,1,3,3,2,1,0,0,1,1,0,3,0,1
5707000,5707000,5347000,47.3977508,8.5456074,0.009330242,-0.017180292,-0.0013427734,0.0009668327,-0.000876257,-488.05307,0.011551247,-0.01922134,0.0036581776,0.008169434,0.008903486,0.027717499,0.0007337779,0.10869923,0.2239978,0.0029061919,-0.00083692616,0.00018932589,-0.0016608823,0.0,0.00093613344,488.054,0.1000061,0.010000001,-488.05307,2.0000167,1.0000101,0.05299128,0.027856985,inf,inf,inf,inf,inf,0,1,0,1,3,3,2,1,0,0,1,1,0,3,0,1
5715000,5715000,5347000,47.3977508,8.5456074,0.009208847,-0.016701618,-0.0012817383,0.0009668327,-0.000876257,-488.05307,0.010493839,-0.017578693,0.0035367133,0.008023889,0.008903486,0.027717499,0.0007337779,-0.067919746,0.04450239,-0.015998257,-0.0008728442,0.00019142618,-0.0017115581,0.0,0.00093767134,488.054,0.1000061,0.010000001,-488.05307,2.0000184,1.0000111,0.05398352,0.028260302,inf,inf,inf,inf,inf,0,1,0,1,3,3,2,1,0,0,1,1,0,3,0,1
5723000,5723000,5347000,47.3977508,8.5456074,0.009078801,-0.01621989,-0.0012512207,0.0009668327,-0.000876257,-488.05307,0.009861971,-0.017027173,0.0023669836,0.006829539,0.008903486,0.027717499,0.0007337779,-0.01595361,-0.08838592,-0.14700973,-0.0008702091,0.00019353819,-0.0017223146,0.0,0.0009392356,488.054,0.1000061,0.010000001,-488.05307,2.0000203,1.000012,0.05497446,0.028663255,inf,inf,inf,inf,inf,0,1,0,1,3,3,2,1,0,0,1,1,0,3,0,1
5731000,5731000,5347000,47.3977508,8.5456074,0.008950969,-0.01573702,-0.0012207031,0.0009668327,-0.000876257,-488.05307,0.010516715,-0.016134595,0.0023745447,0.0068119527,0.008903486,0.027717499,0.0007337779,0.14361417,-0.04224864,0.00016856937,-0.00094373757,0.00019566166,-0.0018079346,0.0,0.00094082503,488.054,0.1000061,0.010000001,-488.05307,2.0000222,1.0000131,0.055976436,0.029065248,inf,inf,inf,inf,inf,0,1,0,1,3,3,2,1,0,0,1,1,0,3,0,1
5747000,5747000,5347000,47.3977508,8.5456074,0.00870151,-0.014772679,-0.0010986328,0.0009668327,-0.000876257,-488.05307,0.011307897,-0.015103401,0.0048430297,0.009228865,0.008903486,0.027717499,0.0007337779,0.21962163,-0.07757946,0.04772469,-0.0010942057,0.00019994346,-0.001978959,0.0,0.00094408134,488.054,0.1000061,0.010000001,-488.05307,2.0000267,1.0000156,0.057991646,0.02986752,inf,inf,inf,inf,inf,0,1,0,1,3,3,2,1,0,0,1,1,0,3,0,1
5755000,5755000,5347000,47.3977508,8.5456074,0.00858431,-0.014292196,-0.0010375977,0.0009668327,-0.000876257,-488.05307,0.0109024085,-0.014139139,0.004655602,0.009014926,0.008903486,0.027717499,0.0007337779,0.0073266886,-0.022685252,-0.0241613,-0.0011701483,0.00020210179,-0.0020634476,0.0,0.0009457482,488.054,0.1000061,0.010000001,-488.05307,2.000029,1.0000169,0.058997042,0.030268155,inf,inf,inf,inf,inf,0,1,0,1,3,3,2,1,0,0,1,1,0,3,0,1
5763000,5763000,5347000,47.3977508,8.5456074,0.008461986,-0.013806059,-0.0010070801,0.0009668327,-0.000876257,-488.05307,0.010152226,-0.012588513,0.002814458,0.0071473895,0.008903486,0.027717499,0.0007337779,-0.03707566,0.054146614,-0.23087113,-0.0010940707,0.00020427165,-0.0019948347,0.0,0.0009474404,488.054,0.1000061,0.010000001,-488.05307,2.0000315,1.0000182,0.059998035,0.030667344,inf,inf,inf,inf,inf,0,1,0,1,3,3,2,1,0,0,1,1,0,3,0,1
5771000,5771000,5347000,47.3977508,8.5456074,0.0083356155,-0.013315192,-0.0006713867,0.0009668327,-0.000876257,-488.05307,0.009256749,-0.011353438,0.0022798467,0.0068899137,0.008903486,0.027717499,0.0007337779,-0.056557648,0.018236717,-0.067567445,-0.0011673459,0.00020645319,-0.0020745653,0.0,0.0009491587,488.054,0.1000061,0.010000001,-488.05307,2.000034,0.9615447,0.061017465,0.031065753,inf,inf,inf,inf,inf,0,1,0,1,3,3,2,1,0,0,1,1,0,3,0,1
5787000,5787000,5347000,47.3977508,8.5456074,0.008058175,-0.012345729,0.0,0.0009668327,-0.000876257,-488.05307,0.007856185,-0.011484122,0.003086121,0.008218087,0.008903486,0.027717499,0.0007337779,0.09174394,-0.10836924,0.04355935,-0.0010135014,0.00021085097,-0.0019308097,0.0,0.00095267117,488.054,0.1000061,0.010000001,-488.05307,2.00004,0.9615477,0.06307184,0.03186125,inf,inf,inf,inf,inf,0,1,0,1,3,3,2,1,0,0,1,1,0,3,0,1
5795000,5795000,5347000,47.3977508,8.5456074,0.007919989,-0.011864561,0.00030517578,0.0009668327,-0.000876257,-488.05307,0.007773956,-0.009868983,0.0017952527,0.0071733203,0.008903486,0.027717499,0.0007337779,0.041090954,0.07611863,-0.16208737,-0.0011060893,0.00021306724,-0.002027173,0.0,0.0009544656,488.054,0.1000061,0.010000001,-488.05307,2.0000432,0.9615493,0.06410747,0.032258596,inf,inf,inf,inf,inf,0,1,0,1,3,3,2,1,0,0,1,1,0,3,0,1
5803000,5803000,5347000,47.3977508,8.5456074,0.007779356,-0.011373581,0.00061035156,0.0009668327,-0.000876257,-488.05307,0.0065176208,-0.0076243123,0.0013043801,0.0069189095,0.008903486,0.027717499,0.0007337779,-0.107005335,0.15824154,-0.062090807,-0.0012128769,0.0002152951,-0.0021369457,0.0,0.0009562854,488.054,0.1000061,0.010000001,-488.05307,2.0000465,0.96155095,0.06515459,0.03265529,inf,inf,inf,inf,inf,0,1,0,1,3,3,2,1,0,0,1,1,0,3,0,1
5811000,5811000,5347000,47.3977508,8.5456074,0.0076240576,-0.010877582,0.00088500977,0.0009668327,-0.000876257,-488.05307,0.0040129763,-0.0064982176,0.002899055,0.008740533,0.008903486,0.027717499,0.0007337779,-0.26434982,0.021807976,0.19861057,-0.0010716672,0.00021753456,-0.0019979798,0.0,0.00095813046,488.054,0.1000061,0.010000001,-488.05307,2.0000498,0.96155274,0.066196516,0.03305179,inf,inf,inf,inf,inf,0,1,0,1,3,3,2,1,0,0,1,1,0,3,0,1
5827000,5827000,5347000,47.3977508,8.5456074,0.0072797006,-0.009866722,0.0014953613,0.0009668327,-0.000876257,-488.05307,0.0023363482,-0.0035298374,0.003666964,0.009933805,0.008903486,0.027717499,0.0007337779,0.022443714,-0.013447497,-0.025329178,-0.0008732987,0.00022204817,-0.0018020787,0.0,0.0009618964,488.054,0.1000061,0.010000001,-488.05307,2.0000575,0.9615566,0.06830271,0.03384404,inf,inf,inf,inf,inf,0,1,0,1,3,3,2,1,0,0,1,1,0,3,0,1
5835000,5835000,5347000,47.3977508,8.5456074,0.0071060937,-0.009360943,0.0017700195,0.0009668327,-0.000876257,-488.05307,0.002126799,-0.003118543,0.0035596616,0.0100116525,0.008903486,0.027717499,0.0007337779,0.018677207,-0.057587534,-0.01411233,-0.00080035406,0.00022432234,-0.001729466,0.0,0.000963817,488.054,0.1000061,0.010000001,-488.05307,2.0000615,0.9272095,0.06938108,0.034239493,inf,inf,inf,inf,inf,0,1,0,1,3,3,2,1,0,0,1,1,0,3,0,1
5843000,5843000,5347000,47.3977508,8.5456074,0.006930674,-0.008864638,0.0020141602,0.0009668327,-0.000876257,-488.05307,0.001453106,-0.003245573,0.0050694784,0.011698388,0.008903486,0.027717499,0.0007337779,-0.04060838,-0.12166152,0.18803774,-0.0005777604,0.00022660816,-0.0015066622,0.0,0.000965763,488.054,0.1000061,0.010000001,-488.05307,2.0000658,0.9272116,0.070461445,0.034634482,inf,inf,inf,inf,inf,0,1,0,1,3,3,2,1,0,0,1,1,0,3,0,1
5851000,5851000,5347000,47.3977508,8.5456074,0.006757428,-0.008368616,0.0022888184,0.0009668327,-0.000876257,-488.05307,0.002361251,-0.0018898883,0.0066688717,0.013466719,0.008903486,0.027717499,0.0007337779,0.15586632,0.06687071,0.19924435,-0.00044712008,0.00022890556,-0.001375311,0.0,0.00096773414,488.054,0.1000061,0.010000001,-488.05307,2.0000703,0.9272137,0.07153974,0.035029374,inf,inf,inf,inf,inf,0,1,0,1,3,3,2,1,0,0,1,1,0,3,0,1
5867000,5867000,5347000,47.3977508,8.5456074,0.0064254845,-0.0073544392,0.0028686523,0.0009668327,-0.000876257,-488.05307,0.0018384776,0.0028680498,0.007814827,0.014927425,0.008903486,0.027717499,0.0007337779,-0.030329958,0.22092955,0.042059455,-0.0003108795,0.00023353506,-0.0012363186,0.0,0.0009717514,488.054,0.1000061,0.010000001,-488.05307,2.0000799,0.9272184,0.07372345,0.035818096,inf,inf,inf,inf,inf,0,1,0,1,3,3,2,1,0,0,1,1,0,3,0,1
5875000,5875000,5347000,47.3977508,8.5456074,0.0062542562,-0.00683183,0.003112793,0.0009668327,-0.000876257,-488.05307,0.0005398905,0.0048799785,0.0067669414,0.014025993,0.008903486,0.027717499,0.0007337779,-0.123647235,0.15819651,-0.13163964,-0.00026799837,0.00023586716,-0.0011914757,0.0,0.00097379735,488.054,0.1000061,0.010000001,-488.05307,2.000085,0.9272209,0.07483691,0.036211755,inf,inf,inf,inf,inf,0,1,0,1,3,3,2,1,0,0,1,1,0,3,0,1
5883000,5883000,5347000,47.3977508,8.5456074,0.006074279,-0.0062991786,0.0033874512,0.0009668327,-0.000876257,-488.05307,-0.0007398488,0.007485657,0.0068799946,0.014278712,0.008903486,0.027717499,0.0007337779,-0.12244766,0.23539086,0.013486016,-0.00030160477,0.00023821084,-0.0012227776,0.0,0.0009758682,488.054,0.1000061,0.010000001,-488.05307,2.0000904,0.92722344,0.0759429,0.036605377,inf,inf,inf,inf,inf,0,1,0,1,3,3,2,1,0,0,1,1,0,3,0,1
5891000,5891000,5347000,47.3977508,8.5456074,0.0058926055,-0.005753715,0.0036315918,0.0009668327,-0.000876257,-488.05307,-0.00040998694,0.00969954,0.006395997,0.0139275305,0.008903486,0.027717499,0.0007337779,0.07757754,0.18933257,-0.06113853,-0.00019523043,0.00024056612,-0.0011137938,0.0,0.000977964,488.054,0.1000061,0.010000001,-488.05307,2.000096,0.9272262,0.07703085,0.036998432,inf,inf,inf,inf,inf,0,1,0,1,3,3,2,1,0,0,1,1,0,3,0,1
5907000,5907000,5347000,47.3977508,8.5456074,0.005543477,-0.00466298,0.003692627,0.0009668327,-0.000876257,-488.05307,-0.00081270834,0.0112212645,0.0066111325,0.013972262,0.008903486,0.027717499,0.0007337779,-0.07483565,0.051283423,-0.00820402,-8.4430074e-05,0.00024531144,-0.0009969819,0.0,0.0009822301,488.054,0.1000061,0.010000001,-488.05307,2.0001082,0.6674502,0.07927138,0.03778327,inf,inf,inf,inf,inf,0,1,0,1,3,3,2,1,0,0,1,1,0,3,0,1
5915000,5915000,5347000,47.3977508,8.5456074,0.0053660953,-0.00412293,0.0037231445,0.0009668327,-0.000876257,-488.05307,-0.0009849449,0.010815358,0.0059604174,0.013238169,0.008903486,0.027717499,0.0007337779,0.011459585,-0.12969293,-0.081946135,6.737614e-05,0.0002477015,-0.00084183627,0.0,0.0009844003,488.054,0.1000061,0.010000001,-488.05307,2.0001147,0.6674525,0.08042447,0.038175445,inf,inf,inf,inf,inf,0,1,0,1,3,3,2,1,0,0,1,1,0,3,0,1
