timestamp,timestamp_sample,gps_hvel[0],gps_hvel[1],gps_vvel,gps_hpos[0],gps_hpos[1],gps_vpos,ev_hvel[0],ev_hvel[1],ev_vvel,ev_hpos[0],ev_hpos[1],ev_vpos,rng_vpos,baro_vpos,aux_hvel[0],aux_hvel[1],flow[0],flow[1],heading,mag_field[0],mag_field[1],mag_field[2],gravity[0],gravity[1],gravity[2],drag[0],drag[1],airspeed,beta,hagl,hagl_rate
4435000,4283000,0.0,0.0,0.0,0.0,0.0,0.0,0.0,0.0,0.0,0.0,0.0,0.0,0.0,0.0,0.0,0.0,0.0,0.0,0.0,-0.013951082,0.21516953,-0.4289993,-0.009807074,-0.0010090657,-1.1205673e-05,0.0,0.0,0.0,0.0,0.0,0.0
4443000,4291000,0.0,0.0,0.0,0.0,0.0,0.0,0.0,0.0,0.0,0.0,0.0,0.0,0.0,1.0921736e-05,0.0,0.0,0.0,0.0,0.0,-0.013951082,0.21516953,-0.4289993,-0.0062710536,0.03907919,-5.275011e-05,0.0,0.0,0.0,0.0,0.0,0.0
4451000,4299000,0.0,0.0,0.0,0.0,0.0,0.0,0.0,0.0,0.0,0.0,0.0,0.0,0.0,1.0921736e-05,0.0,0.0,0.0,0.0,0.0,-0.013951082,0.21516953,-0.4289993,0.004483746,0.021982962,0.00011461973,0.0,0.0,0.0,0.0,0.0,0.0
4459000,4307000,0.0,0.0,0.0,0.0,0.0,0.0,0.0,0.0,0.0,0.0,0.0,0.0,0.0,1.0921736e-05,0.0,0.0,0.0,0.0,0.0,-0.013951082,0.21516953,-0.4289993,-0.004242511,0.034392472,3.6656857e-05,0.0,0.0,0.0,0.0,0.0,0.0
4467000,4315000,0.0,0.0,0.0,0.0,0.0,0.0,0.0,0.0,0.0,0.0,0.0,0.0,0.0,1.0921736e-05,0.0,0.0,0.0,0.0,0.0,-0.013951082,0.21516953,-0.4289993,-0.0051325173,0.0014323089,4.0590763e-05,0.0,0.0,0.0,0.0,0.0,0.0
4475000,4323000,0.0,0.0,0.0,0.0,0.0,0.0,0.0,0.0,0.0,0.0,0.0,0.0,0.0,1.0921736e-05,0.0,0.0,0.0,0.0,0.0,-0.012479588,0.21561667,-0.42951864,-0.006472222,0.022350572,0.00015544891,0.0,0.0,0.0,0.0,0.0,0.0
4483000,4331000,0.0,0.0,0.0,0.0,0.0,0.0,0.0,0.0,0.0,0.0,0.0,0.0,0.0,1.0921736e-05,0.0,0.0,0.0,0.0,0.0,-0.012479588,0.21561667,-0.42951864,-0.012551194,0.015920237,0.00014328957,0.0,0.0,0.0,0.0,0.0,0.0
4491000,4339000,0.0,0.0,0.0,0.0,0.0,0.0,0.0,0.0,0.0,0.0,0.0,0.0,0.0,1.0921736e-05,0.0,0.0,0.0,0.0,0.0,-0.012479588,0.21561667,-0.42951864,0.011197264,0.0027486812,-8.523464e-05,0.0,0.0,0.0,0.0,0.0,0.0
4507000,4355000,0.0,0.0,0.0,0.0,0.0,0.0,0.0,0.0,0.0,0.0,0.0,0.0,0.0,1.0921736e-05,0.0,0.0,0.0,0.0,0.0,-0.012479588,0.21561667,-0.42951864,0.0074441046,0.009564851,4.5835972e-05,0.0,0.0,0.0,0.0,0.0,0.0
4515000,4363000,0.0,0.0,0.0,0.0,0.0,0.0,0.0,0.0,0.0,0.0,0.0,0.0,0.0,0.029561339,0.0,0.0,0.0,0.0,0.0,-0.012479588,0.21561667,-0.42951864,-0.0039737895,0.015050901,0.00016152859,0.0,0.0,0.0,0.0,0.0,0.0
4523000,4371000,0.0,0.0,0.0,0.0,0.0,0.0,0.0,0.0,0.0,0.0,0.0,0.0,0.0,0.029561339,0.0,0.0,0.0,0.0,0.0,-0.012479588,0.21561667,-0.42951864,-0.017567154,0.020970635,9.191036e-05,0.0,0.0,0.0,0.0,0.0,0.0
4531000,4379000,0.0,0.0,0.0,0.0,0.0,0.0,0.0,0.0,0.0,0.0,0.0,0.0,0.0,0.029561339,0.0,0.0,0.0,0.0,0.0,-0.012479588,0.21561667,-0.42951864,0.011720698,0.020262253,-3.0994415e-06,0.0,0.0,0.0,0.0,0.0,0.0
4547000,4395000,0.0,0.0,0.0,0.0,0.0,0.0,0.0,0.0,0.0,0.0,0.0,0.0,0.0,0.029561339,0.0,0.0,0.0,0.0,0.0,-0.016791075,0.21681193,-0.43037003,-0.008711295,0.02394391,0.00012898445,0.0,0.0,0.0,0.0,0.0,0.0
4555000,4403000,0.0,0.0,0.0,0.0,0.0,0.0,0.0,0.0,0.0,0.0,0.0,0.0,0.0,0.029561339,0.0,0.0,0.0,0.0,0.0,-0.016791075,0.21681193,-0.43037003,-0.016525798,0.040357288,-0.00017732382,0.0,0.0,0.0,0.0,0.0,0.0
4563000,4411000,0.0,0.0,0.0,0.0,0.0,0.0,0.0,0.0,0.0,0.0,0.0,0.0,0.0,0.029561339,0.0,0.0,0.0,0.0,0.0,-0.016791075,0.21681193,-0.43037003,0.004829517,0.02617902,4.774332e-05,0.0,0.0,0.0,0.0,0.0,0.0
4571000,4419000,0.0,0.0,0.0,0.0,0.0,0.0,0.0,0.0,0.0,0.0,0.0,0.0,0.0,0.029561339,0.0,0.0,0.0,0.0,0.0,-0.016791075,0.21681193,-0.43037003,0.0028725225,0.016464457,0.0001128912,0.0,0.0,0.0,0.0,0.0,0.0
4587000,4435000,0.0,0.0,0.0,0.0,0.0,0.0,0.0,0.0,0.0,0.0,0.0,0.0,0.0,-0.14238682,0.0,0.0,0.0,0.0,0.0,-0.016791075,0.21681193,-0.43037003,-0.02787393,0.026896233,-0.00016075373,0.0,0.0,0.0,0.0,0.0,0.0
4595000,4443000,0.0,0.0,0.0,0.0,0.0,0.0,0.0,0.0,0.0,0.0,0.0,0.0,0.0,-0.14238682,0.0,0.0,0.0,0.0,0.0,-0.016791075,0.21681193,-0.43037003,-0.019295204,0.020727199,4.0650368e-05,0.0,0.0,0.0,0.0,0.0,0.0
4603000,4451000,0.0,0.0,0.0,0.0,0.0,0.0,0.0,0.0,0.0,0.0,0.0,0.0,0.0,-0.14238682,0.0,0.0,0.0,0.0,0.0,-0.016791075,0.21681193,-0.43037003,-0.02044355,0.017864881,3.707409e-05,0.0,0.0,0.0,0.0,0.0,0.0
4611000,4459000,0.0,0.0,0.0,0.0,0.0,0.0,0.0,0.0,0.0,0.0,0.0,0.0,0.0,-0.14238682,0.0,0.0,0.0,0.0,0.0,-0.011570923,0.21600126,-0.42854628,-0.02172521,0.0034363484,-6.4611435e-05,0.0,0.0,0.0,0.0,0.0,0.0
4627000,4475000,0.0,0.0,0.0,0.0,0.0,0.0,0.0,0.0,0.0,0.0,0.0,0.0,0.0,-0.14238682,0.0,0.0,0.0,0.0,0.0,-0.011570923,0.21600126,-0.42854628,0.010082589,0.03599716,-0.00016140938,0.0,0.0,0.0,0.0,0.0,0.0
4635000,4483000,0.0,0.0,0.0,0.0,0.0,0.0,0.0,0.0,0.0,0.0,0.0,0.0,0.0,-0.14238682,0.0,0.0,0.0,0.0,0.0,-0.011570923,0.21600126,-0.42854628,-0.013501614,0.016614718,0.0001142025,0.0,0.0,0.0,0.0,0.0,0.0
4643000,4491000,0.0,0.0,0.0,0.0,0.0,0.0,0.0,0.0,0.0,0.0,0.0,0.0,0.0,0.07043913,0.0,0.0,0.0,0.0,0.0,-0.011570923,0.21600126,-0.42854628,-0.0035739294,0.028216612,7.9512596e-05,0.0,0.0,0.0,0.0,0.0,0.0
4651000,4499000,0.0,0.0,0.0,0.0,0.0,0.0,0.0,0.0,0.0,0.0,0.0,0.0,0.0,0.07043913,0.0,0.0,0.0,0.0,0.0,-0.011570923,0.21600126,-0.42854628,-0.009558991,0.028571416,7.098913e-05,0.0,0.0,0.0,0.0,0.0,0.0
4667000,4515000,0.0,0.0,0.0,0.0,0.0,0.0,0.0,0.0,0.0,0.0,0.0,0.0,0.0,0.07043913,0.0,0.0,0.0,0.0,0.0,-0.011570923,0.21600126,-0.42854628,-0.0304894,-0.004156893,-0.00039106607,0.0,0.0,0.0,0.0,0.0,0.0
4675000,4523000,0.0,0.0,0.0,0.0,0.0,0.0,0.0,0.0,0.0,0.0,0.0,0.0,0.0,0.07043913,0.0,0.0,0.0,0.0,0.0,-0.011570923,0.21600126,-0.42854628,-0.011395314,0.022298353,0.00011783838,0.0,0.0,0.0,0.0,0.0,0.0
4683000,4531000,0.0,0.0,0.0,0.0,0.0,0.0,0.0,0.0,0.0,0.0,0.0,0.0,0.0,0.07043913,0.0,0.0,0.0,0.0,0.0,-0.0037635555,0.21648842,-0.4324953,0.020540839,0.025185369,-0.00020802021,0.0,0.0,0.0,0.0,0.0,0.0
4691000,4539000,0.0,0.0,0.0,0.0,0.0,0.0,0.0,0.0,0.0,0.0,0.0,0.0,0.0,0.07043913,0.0,0.0,0.0,0.0,0.0,-0.0037635555,0.21648842,-0.4324953,-0.005576272,0.024284614,0.00012099743,0.0,0.0,0.0,0.0,0.0,0.0
4707000,4555000,0.018535653,-0.054737486,-0.012912832,-5240972.0,-951292.7,0.0,0.0,0.0,0.0,0.0,0.0,0.0,0.0,0.0084662605,0.0,0.0,0.0,0.0,0.0,-0.0037635555,0.21648842,-0.4324953,-0.004891851,0.034016266,-8.761883e-06,0.0,0.0,0.0,0.0,0.0,0.0
4715000,4563000,0.018535653,-0.054737486,-0.012912832,-5240972.0,-951292.7,0.0,0.0,0.0,0.0,0.0,0.0,0.0,0.0,0.0084662605,0.0,0.0,0.0,0.0,0.0,-0.0037635555,0.21648842,-0.4324953,-0.011697667,0.054261155,-0.00060528517,0.0,0.0,0.0,0.0,0.0,0.0
4723000,4571000,0.018535653,-0.054737486,-0.012912832,-5240972.0,-951292.7,0.0,0.0,0.0,0.0,0.0,0.0,0.0,0.0,0.0084662605,0.0,0.0,0.0,0.0,0.0,-0.0037635555,0.21648842,-0.4324953,-0.005545673,0.017196449,0.00014293194,0.0,0.0,0.0,0.0,0.0,0.0
4731000,4579000,0.018535653,-0.054737486,-0.012912832,-5240972.0,-951292.7,0.0,0.0,0.0,0.0,0.0,0.0,0.0,0.0,0.0084662605,0.0,0.0,0.0,0.0,0.0,-0.0037635555,0.21648842,-0.4324953,0.00786107,0.0028873486,-2.3961067e-05,0.0,0.0,0.0,0.0,0.0,0.0
4747000,4595000,0.018535653,-0.054737486,-0.012912832,-5240972.0,-951292.7,0.0,0.0,0.0,0.0,0.0,0.0,0.0,0.0,0.0084662605,0.0,0.0,0.0,0.0,0.0,-0.010774803,0.21790414,-0.42783356,-0.022443391,-0.00027582608,-0.00015759468,0.0,0.0,0.0,0.0,0.0,0.0
4755000,4603000,0.018535653,-0.054737486,-0.012912832,-5240972.0,-951292.7,0.0,0.0,0.0,0.0,0.0,0.0,0.0,0.0,0.0084662605,0.0,0.0,0.0,0.0,0.0,-0.010774803,0.21790414,-0.42783356,-0.013618192,0.0035387194,1.6212463e-05,0.0,0.0,0.0,0.0,0.0,0.0
4763000,4611000,0.018535653,-0.054737486,-0.012912832,-5240972.0,-951292.7,0.0,0.0,0.0,0.0,0.0,0.0,0.0,0.0,-0.043084886,0.0,0.0,0.0,0.0,0.0,-0.010774803,0.21790414,-0.42783356,0.0017109192,0.02143099,0.00010997057,0.0,0.0,0.0,0.0,0.0,0.0
4771000,4619000,0.018535653,-0.054737486,-0.012912832,-5240972.0,-951292.7,0.0,0.0,0.0,0.0,0.0,0.0,0.0,0.0,-0.043084886,0.0,0.0,0.0,0.0,0.0,-0.010774803,0.21790414,-0.42783356,-0.0018540337,0.015814833,0.00013804436,0.0,0.0,0.0,0.0,0.0,0.0
4787000,4635000,0.018535653,-0.054737486,-0.012912832,-5240972.0,-951292.7,0.0,0.0,0.0,0.0,0.0,0.0,0.0,0.0,-0.043084886,0.0,0.0,0.0,0.0,0.0,-0.010774803,0.21790414,-0.42783356,-0.017198786,0.021180164,5.4240227e-05,0.0,0.0,0.0,0.0,0.0,0.0
4795000,4643000,0.018535653,-0.054737486,-0.012912832,-5240972.0,-951292.7,0.0,0.0,0.0,0.0,0.0,0.0,0.0,0.0,-0.043084886,0.0,0.0,0.0,0.0,0.0,-0.010774803,0.21790414,-0.42783356,-0.0008313982,-0.002426317,-3.9458275e-05,0.0,0.0,0.0,0.0,0.0,0.0
4803000,4651000,0.018535653,-0.054737486,-0.012912832,-5240972.0,-951292.7,0.0,0.0,0.0,0.0,0.0,0.0,0.0,0.0,-0.043084886,0.0,0.0,0.0,0.0,0.0,-0.010774803,0.21790414,-0.42783356,-0.010795413,0.01685839,0.00012689829,0.0,0.0,0.0,0.0,0.0,0.0
4811000,4659000,0.018535653,-0.054737486,-0.012912832,-5240972.0,-951292.7,0.0,0.0,0.0,0.0,0.0,0.0,0.0,0.0,-0.043084886,0.0,0.0,0.0,0.0,0.0,-0.010774803,0.21790414,-0.42783356,0.0073991367,0.029268973,-7.033348e-06,0.0,0.0,0.0,0.0,0.0,0.0
4827000,4675000,0.018535653,-0.054737486,-0.012912832,-5240972.0,-951292.7,0.0,0.0,0.0,0.0,0.0,0.0,0.0,0.0,-0.0049850955,0.0,0.0,0.0,0.0,0.0,-0.009761758,0.215967,-0.43045494,-0.0034090246,-0.0020392723,-2.6226044e-05,0.0,0.0,0.0,0.0,0.0,0.0
4835000,4683000,0.018535653,-0.054737486,-0.012912832,-5240972.0,-951292.7,0.0,0.0,0.0,0.0,0.0,0.0,0.0,0.0,-0.0049850955,0.0,0.0,0.0,0.0,0.0,-0.009761758,0.215967,-0.43045494,-0.0073857326,0.01870777,0.0001333952,0.0,0.0,0.0,0.0,0.0,0.0
4843000,4691000,0.018535653,-0.054737486,-0.012912832,-5240972.0,-951292.7,0.0,0.0,0.0,0.0,0.0,0.0,0.0,0.0,-0.0049850955,0.0,0.0,0.0,0.0,0.0,-0.009761758,0.215967,-0.43045494,0.0011870936,0.021366963,0.00011354685,0.0,0.0,0.0,0.0,0.0,0.0
4851000,4699000,0.018535653,-0.054737486,-0.012912832,-5240972.0,-951292.7,0.0,0.0,0.0,0.0,0.0,0.0,0.0,0.0,-0.0049850955,0.0,0.0,0.0,0.0,0.0,-0.009761758,0.215967,-0.43045494,0.0070731756,0.015818775,7.671118e-05,0.0,0.0,0.0,0.0,0.0,0.0
4867000,4715000,0.018535653,-0.054737486,-0.012912832,-5240972.0,-951292.7,0.0,0.0,0.0,0.0,0.0,0.0,0.0,0.0,-0.0049850955,0.0,0.0,0.0,0.0,0.0,-0.009761758,0.215967,-0.43045494,-0.009257764,0.012600886,0.00012242794,0.0,0.0,0.0,0.0,0.0,0.0
4875000,4723000,0.018535653,-0.054737486,-0.012912832,-5240972.0,-951292.7,0.0,0.0,0.0,0.0,0.0,0.0,0.0,0.0,-0.0049850955,0.0,0.0,0.0,0.0,0.0,-0.009761758,0.215967,-0.43045494,0.00742825,0.026551645,2.8371811e-05,0.0,0.0,0.0,0.0,0.0,0.0
4883000,4731000,0.018535653,-0.054737486,-0.012912832,-5240972.0,-951292.7,0.0,0.0,0.0,0.0,0.0,0.0,0.0,0.0,-0.0049850955,0.0,0.0,0.0,0.0,0.0,-0.010909845,0.21575677,-0.42884073,-0.0070551382,0.018175904,0.00013905764,0.0,0.0,0.0,0.0,0.0,0.0
4891000,4739000,0.018535653,-0.054737486,-0.012912832,-5240972.0,-951292.7,0.0,0.0,0.0,0.0,0.0,0.0,0.0,0.0,-0.05517263,0.0,0.0,0.0,0.0,0.0,-0.010909845,0.21575677,-0.42884073,-0.005452009,0.017866764,0.0001359582,0.0,0.0,0.0,0.0,0.0,0.0
4907000,4755000,0.018535653,-0.054737486,-0.012912832,-5240972.0,-951292.7,0.0,0.0,0.0,0.0,0.0,0.0,0.0,0.0,-0.05517263,0.0,0.0,0.0,0.0,0.0,-0.010909845,0.21575677,-0.42884073,-0.0073500862,0.0054421984,7.1942806e-05,0.0,0.0,0.0,0.0,0.0,0.0
4915000,4763000,0.018535653,-0.054737486,-0.012912832,-5240972.0,-951292.7,0.0,0.0,0.0,0.0,0.0,0.0,0.0,0.0,-0.05517263,0.0,0.0,0.0,0.0,0.0,-0.010909845,0.21575677,-0.42884073,-0.0060374863,-0.0031313132,-5.120039e-05,0.0,0.0,0.0,0.0,0.0,0.0
4923000,4771000,0.018535653,-0.054737486,-0.012912832,-5240972.0,-951292.7,0.0,0.0,0.0,0.0,0.0,0.0,0.0,0.0,-0.05517263,0.0,0.0,0.0,0.0,0.0,-0.010909845,0.21575677,-0.42884073,-0.012217706,-0.0004316792,-3.886223e-05,0.0,0.0,0.0,0.0,0.0,0.0
4931000,4779000,0.018535653,-0.054737486,-0.012912832,-5240972.0,-951292.7,0.0,0.0,0.0,0.0,0.0,0.0,0.0,0.0,-0.05517263,0.0,0.0,0.0,0.0,0.0,-0.010909845,0.21575677,-0.42884073,0.004810836,0.0071246075,5.9127808e-05,0.0,0.0,0.0,0.0,0.0,0.0
4947000,4795000,0.018535653,-0.054737486,-0.012912832,-5240972.0,-951292.7,0.0,0.0,0.0,0.0,0.0,0.0,0.0,0.0,-0.05517263,0.0,0.0,0.0,0.0,0.0,-0.010909845,0.21575677,-0.42884073,0.015562079,0.0266206,-0.00011330843,0.0,0.0,0.0,0.0,0.0,0.0
4955000,4803000,0.018535653,-0.054737486,-0.012912832,-5240972.0,-951292.7,0.0,0.0,0.0,0.0,0.0,0.0,0.0,0.0,-0.020079805,0.0,0.0,0.0,0.0,0.0,-0.0095986,0.21359527,-0.42859185,0.017353468,0.033359244,-0.00024658442,0.0,0.0,0.0,0.0,0.0,0.0
4963000,4811000,0.018535653,-0.054737486,-0.012912832,-5240972.0,-951292.7,0.0,0.0,0.0,0.0,0.0,0.0,0.0,0.0,-0.020079805,0.0,0.0,0.0,0.0,0.0,-0.0095986,0.21359527,-0.42859185,0.040479336,0.02932154,-0.00091969967,0.0,0.0,0.0,0.0,0.0,0.0
4971000,4819000,0.018535653,-0.054737486,-0.012912832,-5240972.0,-951292.7,0.0,0.0,0.0,0.0,0.0,0.0,0.0,0.0,-0.020079805,0.0,0.0,0.0,0.0,0.0,-0.0095986,0.21359527,-0.42859185,0.03338184,0.008729946,-0.00055933,0.0,0.0,0.0,0.0,0.0,0.0
4987000,4835000,0.018535653,-0.054737486,-0.012912832,-5240972.0,-951292.7,0.0,0.0,0.0,0.0,0.0,0.0,0.0,0.0,-0.020079805,0.0,0.0,0.0,0.0,0.0,-0.0095986,0.21359527,-0.42859185,-0.006611543,0.019580696,9.906292e-05,0.0,0.0,0.0,0.0,0.0,0.0
4995000,4843000,0.018535653,-0.054737486,-0.012912832,-5240972.0,-951292.7,0.0,0.0,0.0,0.0,0.0,0.0,0.0,0.0,-0.020079805,0.0,0.0,0.0,0.0,0.0,-0.0095986,0.21359527,-0.42859185,0.0036522534,0.023273759,6.109476e-05,0.0,0.0,0.0,0.0,0.0,0.0
5003000,4851000,0.018535653,-0.054737486,-0.012912832,-5240972.0,-951292.7,0.0,0.0,0.0,0.0,0.0,0.0,0.0,0.0,-0.020079805,0.0,0.0,0.0,0.0,0.0,-0.0095986,0.21359527,-0.42859185,0.0029270106,0.022029988,7.492304e-05,0.0,0.0,0.0,0.0,0.0,0.0
5011000,4859000,0.018535653,-0.054737486,-0.012912832,-5240972.0,-951292.7,0.0,0.0,0.0,0.0,0.0,0.0,0.0,0.0,-0.020079805,0.0,0.0,0.0,0.0,0.0,-0.0095986,0.21359527,-0.42859185,-0.00854036,0.024412446,6.1392784e-05,0.0,0.0,0.0,0.0,0.0,0.0
5027000,4875000,0.018535653,-0.054737486,-0.012912832,-5240972.0,-951292.7,0.0,0.0,0.0,0.0,0.0,0.0,0.0,0.0,0.04527822,0.0,0.0,0.0,0.0,0.0,-0.009572063,0.21829835,-0.4264456,-0.009989085,0.02456097,4.851818e-05,0.0,0.0,0.0,0.0,0.0,0.0
5035000,4883000,0.018535653,-0.054737486,-0.012912832,-5240972.0,-951292.7,0.0,0.0,0.0,0.0,0.0,0.0,0.0,0.0,0.04527822,0.0,0.0,0.0,0.0,0.0,-0.009572063,0.21829835,-0.4264456,0.0037182858,0.023237642,6.425381e-05,0.0,0.0,0.0,0.0,0.0,0.0
5043000,4891000,0.018535653,-0.054737486,-0.012912832,-5240972.0,-951292.7,0.0,0.0,0.0,0.0,0.0,0.0,0.0,0.0,0.04527822,0.0,0.0,0.0,0.0,0.0,-0.009572063,0.21829835,-0.4264456,0.018457199,0.003377921,-0.00017905235,0.0,0.0,0.0,0.0,0.0,0.0
5051000,4899000,0.018535653,-0.054737486,-0.012912832,-5240972.0,-951292.7,0.0,0.0,0.0,0.0,0.0,0.0,0.0,0.0,0.04527822,0.0,0.0,0.0,0.0,0.0,-0.009572063,0.21829835,-0.4264456,0.02538143,0.008283711,-0.00030106306,0.0,0.0,0.0,0.0,0.0,0.0
5067000,4915000,0.018535653,-0.054737486,-0.012912832,-5240972.0,-951292.7,0.0,0.0,0.0,0.0,0.0,0.0,0.0,0.0,0.04527822,0.0,0.0,0.0,0.0,0.0,-0.009572063,0.21829835,-0.4264456,0.001042991,0.008656742,9.119511e-05,0.0,0.0,0.0,0.0,0.0,0.0
5075000,4923000,0.018535653,-0.054737486,-0.012912832,-5240972.0,-951292.7,0.0,0.0,0.0,0.0,0.0,0.0,0.0,0.0,0.04527822,0.0,0.0,0.0,0.0,0.0,-0.009572063,0.21829835,-0.4264456,-0.00965217,-0.004937267,-7.969141e-05,0.0,0.0,0.0,0.0,0.0,0.0
5083000,4931000,0.018535653,-0.054737486,-0.012912832,-5240972.0,-951292.7,0.0,0.0,0.0,0.0,0.0,0.0,0.0,0.0,-0.060651258,0.0,0.0,0.0,0.0,0.0,-0.009572063,0.21829835,-0.4264456,-0.022515051,0.008612734,5.698204e-05,0.0,0.0,0.0,0.0,0.0,0.0
5091000,4939000,0.018535653,-0.054737486,-0.012912832,-5240972.0,-951292.7,0.0,0.0,0.0,0.0,0.0,0.0,0.0,0.0,-0.060651258,0.0,0.0,0.0,0.0,0.0,-0.009572063,0.21829835,-0.4264456,0.0051215114,0.009980425,9.149313e-05,0.0,0.0,0.0,0.0,0.0,0.0
5107000,4955000,-0.00027550658,-0.0005119083,0.00872411,-5240972.0,-951292.7,0.0,0.0,0.0,0.0,0.0,0.0,0.0,0.0,-0.060651258,0.0,0.0,0.0,0.0,0.0,-0.01080786,0.21745877,-0.42956632,-0.018824786,0.027059976,0.00012731552,0.0,0.0,0.0,0.0,0.0,0.0
5115000,4963000,-0.00027550658,-0.0005119083,0.00872411,-5240972.0,-951292.7,0.0,0.0,0.0,0.0,0.0,0.0,0.0,0.0,-0.060651258,0.0,0.0,0.0,0.0,0.0,-0.01080786,0.21745877,-0.42956632,-0.006786144,0.029678762,0.00016027689,0.0,0.0,0.0,0.0,0.0,0.0
5123000,4971000,-0.00027550658,-0.0005119083,0.00872411,-5240972.0,-951292.7,0.0,0.0,0.0,0.0,0.0,0.0,0.0,0.0,-0.060651258,0.0,0.0,0.0,0.0,0.0,-0.01080786,0.21745877,-0.42956632,0.001175995,0.036028318,2.9325485e-05,0.0,0.0,0.0,0.0,0.0,0.0
5131000,4979000,-0.00027550658,-0.0005119083,0.00872411,-5240972.0,-951292.7,0.0,0.0,0.0,0.0,0.0,0.0,0.0,0.0,-0.060651258,0.0,0.0,0.0,0.0,0.0,-0.01080786,0.21745877,-0.42956632,-0.009590331,0.032823972,0.00013035536,0.0,0.0,0.0,0.0,0.0,0.0
5147000,4995000,-0.00027550658,-0.0005119083,0.00872411,-5240972.0,-951292.7,0.0,0.0,0.0,0.0,0.0,0.0,0.0,0.0,0.046850387,0.0,0.0,0.0,0.0,0.0,-0.01080786,0.21745877,-0.42956632,-0.011177033,0.019216819,0.00021773577,0.0,0.0,0.0,0.0,0.0,0.0
5155000,5003000,-0.00027550658,-0.0005119083,0.00872411,-5240972.0,-951292.7,0.0,0.0,0.0,0.0,0.0,0.0,0.0,0.0,0.046850387,0.0,0.0,0.0,0.0,0.0,-0.01080786,0.21745877,-0.42956632,-0.0058499184,0.03741204,4.6014786e-05,0.0,0.0,0.0,0.0,0.0,0.0
5163000,5011000,-0.00027550658,-0.0005119083,0.00872411,-5240972.0,-951292.7,0.0,0.0,0.0,0.0,0.0,0.0,0.0,0.0,0.046850387,0.0,0.0,0.0,0.0,0.0,-0.012250412,0.21578541,-0.4320097,-0.0050756303,0.037629787,4.2021275e-05,0.0,0.0,0.0,0.0,0.0,0.0
5171000,5019000,-0.00027550658,-0.0005119083,0.00872411,-5240972.0,-951292.7,0.0,0.0,0.0,0.0,0.0,0.0,0.0,0.0,0.046850387,0.0,0.0,0.0,0.0,0.0,-0.012250412,0.21578541,-0.4320097,0.0010970859,0.03796172,2.861023e-06,0.0,0.0,0.0,0.0,0.0,0.0
5187000,5035000,-0.00027550658,-0.0005119083,0.00872411,-5240972.0,-951292.7,0.0,0.0,0.0,0.0,0.0,0.0,0.0,0.0,0.046850387,0.0,0.0,0.0,0.0,0.0,-0.012250412,0.21578541,-0.4320097,-0.024179423,0.028000478,7.82609e-05,0.0,0.0,0.0,0.0,0.0,0.0
5195000,5043000,-0.00027550658,-0.0005119083,0.00872411,-5240972.0,-951292.7,0.0,0.0,0.0,0.0,0.0,0.0,0.0,0.0,0.046850387,0.0,0.0,0.0,0.0,0.0,-0.012250412,0.21578541,-0.4320097,-0.017643495,0.028313266,0.00015550852,0.0,0.0,0.0,0.0,0.0,0.0
5203000,5051000,-0.00027550658,-0.0005119083,0.00872411,-5240972.0,-951292.7,0.0,0.0,0.0,0.0,0.0,0.0,0.0,0.0,-0.008542755,0.0,0.0,0.0,0.0,0.0,-0.012250412,0.21578541,-0.4320097,-0.042154074,0.005396612,-0.00041735172,0.0,0.0,0.0,0.0,0.0,0.0
5211000,5059000,-0.00027550658,-0.0005119083,0.00872411,-5240972.0,-951292.7,0.0,0.0,0.0,0.0,0.0,0.0,0.0,0.0,-0.008542755,0.0,0.0,0.0,0.0,0.0,-0.012250412,0.21578541,-0.4320097,-0.019600822,0.014653197,0.00016152859,0.0,0.0,0.0,0.0,0.0,0.0
5227000,5075000,-0.00027550658,-0.0005119083,0.00872411,-5240972.0,-951292.7,0.0,0.0,0.0,0.0,0.0,0.0,0.0,0.0,-0.008542755,0.0,0.0,0.0,0.0,0.0,-0.012250412,0.21578541,-0.4320097,-0.022937132,0.030380182,8.422136e-05,0.0,0.0,0.0,0.0,0.0,0.0
5235000,5083000,-0.00027550658,-0.0005119083,0.00872411,-5240972.0,-951292.7,0.0,0.0,0.0,0.0,0.0,0.0,0.0,0.0,-0.008542755,0.0,0.0,0.0,0.0,0.0,-0.0115963435,0.21453379,-0.42901888,-0.012178352,0.015827948,0.00022500753,0.0,0.0,0.0,0.0,0.0,0.0
5243000,5091000,-0.00027550658,-0.0005119083,0.00872411,-5240972.0,-951292.7,0.0,0.0,0.0,0.0,0.0,0.0,0.0,0.0,-0.008542755,0.0,0.0,0.0,0.0,0.0,-0.0115963435,0.21453379,-0.42901888,-0.0035060695,-0.0027333423,-3.0696392e-05,0.0,0.0,0.0,0.0,0.0,0.0
5251000,5099000,-0.00027550658,-0.0005119083,0.00872411,-5240972.0,-951292.7,0.0,0.0,0.0,0.0,0.0,0.0,0.0,0.0,-0.008542755,0.0,0.0,0.0,0.0,0.0,-0.0115963435,0.21453379,-0.42901888,-0.020453706,0.020572066,0.00018131733,0.0,0.0,0.0,0.0,0.0,0.0
5267000,5115000,-0.00027550658,-0.0005119083,0.00872411,-5240972.0,-951292.7,0.0,0.0,0.0,0.0,0.0,0.0,0.0,0.0,0.0050190855,0.0,0.0,0.0,0.0,0.0,-0.0115963435,0.21453379,-0.42901888,-0.010306554,0.0022733063,8.845329e-05,0.0,0.0,0.0,0.0,0.0,0.0
5275000,5123000,-0.00027550658,-0.0005119083,0.00872411,-5240972.0,-951292.7,0.0,0.0,0.0,0.0,0.0,0.0,0.0,0.0,0.0050190855,0.0,0.0,0.0,0.0,0.0,-0.0115963435,0.21453379,-0.42901888,-0.018597823,0.016673626,7.599592e-05,0.0,0.0,0.0,0.0,0.0,0.0
5283000,5131000,-0.00027550658,-0.0005119083,0.00872411,-5240972.0,-951292.7,0.0,0.0,0.0,0.0,0.0,0.0,0.0,0.0,0.0050190855,0.0,0.0,0.0,0.0,0.0,-0.0115963435,0.21453379,-0.42901888,-0.016709762,0.0067058913,5.030632e-05,0.0,0.0,0.0,0.0,0.0,0.0
5291000,5139000,-0.00027550658,-0.0005119083,0.00872411,-5240972.0,-951292.7,0.0,0.0,0.0,0.0,0.0,0.0,0.0,0.0,0.0050190855,0.0,0.0,0.0,0.0,0.0,-0.0115963435,0.21453379,-0.42901888,-0.002902927,0.018033534,0.0001538992,0.0,0.0,0.0,0.0,0.0,0.0
5307000,5155000,-0.00027550658,-0.0005119083,0.00872411,-5240972.0,-951292.7,0.0,0.0,0.0,0.0,0.0,0.0,0.0,0.0,0.0050190855,0.0,0.0,0.0,0.0,0.0,-0.0076342523,0.21633966,-0.42942154,0.01624842,0.0010009386,-0.00011622906,0.0,0.0,0.0,0.0,0.0,0.0
5315000,5163000,-0.00027550658,-0.0005119083,0.00872411,-5240972.0,-951292.7,0.0,0.0,0.0,0.0,0.0,0.0,0.0,0.0,0.0050190855,0.0,0.0,0.0,0.0,0.0,-0.0076342523,0.21633966,-0.42942154,-0.013311493,-0.008652705,-0.0001320839,0.0,0.0,0.0,0.0,0.0,0.0
5323000,5171000,-0.00027550658,-0.0005119083,0.00872411,-5240972.0,-951292.7,0.0,0.0,0.0,0.0,0.0,0.0,0.0,0.0,0.0050190855,0.0,0.0,0.0,0.0,0.0,-0.0076342523,0.21633966,-0.42942154,-0.023395672,-0.0086383745,-0.00033712387,0.0,0.0,0.0,0.0,0.0,0.0
5331000,5179000,-0.00027550658,-0.0005119083,0.00872411,-5240972.0,-951292.7,0.0,0.0,0.0,0.0,0.0,0.0,0.0,0.0,-0.04200403,0.0,0.0,0.0,0.0,0.0,-0.0076342523,0.21633966,-0.42942154,0.011529351,-0.02222845,-0.00026124716,0.0,0.0,0.0,0.0,0.0,0.0
5347000,5195000,-0.00027550658,-0.0005119083,0.00872411,-5240972.0,-951292.7,0.0,0.0,0.0,0.0,0.0,0.0,0.0,0.0,-0.04200403,0.0,0.0,0.0,0.0,0.0,-0.0076342523,0.21633966,-0.42942154,-0.013108826,0.025738418,-0.00048315525,0.0,0.0,0.0,0.0,0.0,0.0
5355000,5203000,-0.00027550658,-0.0005119083,0.00872411,-5240972.0,-951292.7,0.0,0.0,0.0,0.0,0.0,0.0,0.0,0.0,-0.04200403,0.0,0.0,0.0,0.0,0.0,-0.0076342523,0.21633966,-0.42942154,-0.00674433,0.0129767945,-0.0001410842,0.0,0.0,0.0,0.0,0.0,0.0
5363000,5211000,-0.00027550658,-0.0005119083,0.00872411,-5240972.0,-951292.7,0.0,0.0,0.0,0.0,0.0,0.0,0.0,0.0,-0.04200403,0.0,0.0,0.0,0.0,0.0,-0.0076342523,0.21633966,-0.42942154,0.0063229403,0.010142158,-7.4505806e-05,0.0,0.0,0.0,0.0,0.0,0.0
5371000,5219000,-0.00027550658,-0.0005119083,0.00872411,-5240972.0,-951292.7,0.0,0.0,0.0,0.0,0.0,0.0,0.0,0.0,-0.04200403,0.0,0.0,0.0,0.0,0.0,-0.0076342523,0.21633966,-0.42942154,0.019884309,9.165821e-05,-0.00015807152,0.0,0.0,0.0,0.0,0.0,0.0
5387000,5235000,-0.00027550658,-0.0005119083,0.00872411,-5240972.0,-951292.7,0.0,0.0,0.0,0.0,0.0,0.0,0.0,0.0,-0.04200403,0.0,0.0,0.0,0.0,0.0,-0.008114073,0.21669789,-0.42623702,-0.0048547103,-0.0013520514,-2.1457672e-05,0.0,0.0,0.0,0.0,0.0,0.0
5395000,5243000,-0.00027550658,-0.0005119083,0.00872411,-5240972.0,-951292.7,0.0,0.0,0.0,0.0,0.0,0.0,0.0,0.0,-0.025119562,0.0,0.0,0.0,0.0,0.0,-0.008114073,0.21669789,-0.42623702,0.0031481623,-0.0139098745,-7.712841e-05,0.0,0.0,0.0,0.0,0.0,0.0
5403000,5251000,-0.00027550658,-0.0005119083,0.00872411,-5240972.0,-951292.7,0.0,0.0,0.0,0.0,0.0,0.0,0.0,0.0,-0.025119562,0.0,0.0,0.0,0.0,0.0,-0.008114073,0.21669789,-0.42623702,0.010630065,-0.019951833,-0.00020629168,0.0,0.0,0.0,0.0,0.0,0.0
5411000,5259000,-0.00027550658,-0.0005119083,0.00872411,-5240972.0,-951292.7,0.0,0.0,0.0,0.0,0.0,0.0,0.0,0.0,-0.025119562,0.0,0.0,0.0,0.0,0.0,-0.008114073,0.21669789,-0.42623702,-0.007220174,0.0019479655,-4.708767e-05,0.0,0.0,0.0,0.0,0.0,0.0
5427000,5275000,-0.00027550658,-0.0005119083,0.00872411,-5240972.0,-951292.7,0.0,0.0,0.0,0.0,0.0,0.0,0.0,0.0,-0.025119562,0.0,0.0,0.0,0.0,0.0,-0.008114073,0.21669789,-0.42623702,0.018114507,-0.018042456,-0.00026392937,0.0,0.0,0.0,0.0,0.0,0.0
5435000,5283000,-0.00027550658,-0.0005119083,0.00872411,-5240972.0,-951292.7,0.0,0.0,0.0,0.0,0.0,0.0,0.0,0.0,-0.025119562,0.0,0.0,0.0,0.0,0.0,-0.008114073,0.21669789,-0.42623702,0.016426474,-0.00862535,-0.00012725592,0.0,0.0,0.0,0.0,0.0,0.0
5443000,5291000,-0.00027550658,-0.0005119083,0.00872411,-5240972.0,-951292.7,0.0,0.0,0.0,0.0,0.0,0.0,0.0,0.0,-0.025119562,0.0,0.0,0.0,0.0,0.0,-0.008114073,0.21669789,-0.42623702,-0.0037343143,-0.0077669146,-2.6881695e-05,0.0,0.0,0.0,0.0,0.0,0.0
5451000,5299000,-0.00027550658,-0.0005119083,0.00872411,-5240972.0,-951292.7,0.0,0.0,0.0,0.0,0.0,0.0,0.0,0.0,-0.025119562,0.0,0.0,0.0,0.0,0.0,-0.009907311,0.2172062,-0.42882845,-0.013392959,-0.013367745,-0.00016629696,0.0,0.0,0.0,0.0,0.0,0.0
5467000,5315000,-0.00027550658,-0.0005119083,0.00872411,-5240972.0,-951292.7,0.0,0.0,0.0,0.0,0.0,0.0,0.0,0.0,0.057688467,0.0,0.0,0.0,0.0,0.0,-0.009907311,0.2172062,-0.42882845,-0.018433364,-0.001132651,-0.00019401312,0.0,0.0,0.0,0.0,0.0,0.0
5475000,5323000,-0.00027550658,-0.0005119083,0.00872411,-5240972.0,-951292.7,0.0,0.0,0.0,0.0,0.0,0.0,0.0,0.0,0.057688467,0.0,0.0,0.0,0.0,0.0,-0.009907311,0.2172062,-0.42882845,-0.011011566,-0.013430264,-0.00013148785,0.0,0.0,0.0,0.0,0.0,0.0
5483000,5331000,-0.00027550658,-0.0005119083,0.00872411,-5240972.0,-951292.7,0.0,0.0,0.0,0.0,0.0,0.0,0.0,0.0,0.057688467,0.0,0.0,0.0,0.0,0.0,-0.009907311,0.2172062,-0.42882845,0.012744835,-0.022138322,-0.00024855137,0.0,0.0,0.0,0.0,0.0,0.0
5491000,5339000,-0.00027550658,-0.0005119083,0.00872411,-5240972.0,-951292.7,0.0,0.0,0.0,0.0,0.0,0.0,0.0,0.0,0.057688467,0.0,0.0,0.0,0.0,0.0,-0.009907311,0.2172062,-0.42882845,-0.015999816,-0.012544336,-0.00018751621,0.0,0.0,0.0,0.0,0.0,0.0
5507000,5355000,0.00232368,0.008499638,-0.018497275,0.0,0.0,0.0,0.0,0.0,0.0,0.0,0.0,0.0,0.0,0.057688467,0.0,0.0,0.0,0.0,0.0,-0.009907311,0.2172062,-0.42882845,0.020341912,0.016960176,-0.00036978722,0.0,0.0,0.0,0.0,0.0,0.0
5515000,5363000,0.00232368,0.008499638,-0.018497275,0.0,0.0,0.0,0.0,0.0,0.0,0.0,0.0,0.0,0.0,0.057688467,0.0,0.0,0.0,0.0,0.0,-0.009907311,0.2172062,-0.42882845,-0.013823906,0.012472821,-0.00022935867,0.0,0.0,0.0,0.0,0.0,0.0
5523000,5371000,0.00232368,0.008499638,-0.018497275,0.0,0.0,0.0,0.0,0.0,0.0,0.0,0.0,0.0,0.0,-0.04949951,0.0,0.0,0.0,0.0,0.0,-0.011770721,0.21623595,-0.42969188,-0.004529846,0.00073328614,-1.9490719e-05,0.0,0.0,0.0,0.0,0.0,0.0
5531000,5379000,0.00232368,0.008499638,-0.018497275,0.0,0.0,0.0,0.0,0.0,0.0,0.0,0.0,0.0,0.0,-0.04949951,0.0,0.0,0.0,0.0,0.0,-0.011770721,0.21623595,-0.42969188,0.0025471468,-0.002540338,4.6491623e-06,0.0,0.0,0.0,0.0,0.0,0.0
5547000,5395000,0.00232368,0.008499638,-0.018497275,0.0,0.0,0.0,0.0,0.0,0.0,0.0,0.0,0.0,0.0,-0.04949951,0.0,0.0,0.0,0.0,0.0,-0.011770721,0.21623595,-0.42969188,0.0010717704,0.0115261935,-9.8109245e-05,0.0,0.0,0.0,0.0,0.0,0.0
5555000,5403000,0.00232368,0.008499638,-0.018497275,0.0,0.0,0.0,0.0,0.0,0.0,0.0,0.0,0.0,0.0,-0.04949951,0.0,0.0,0.0,0.0,0.0,-0.011770721,0.21623595,-0.42969188,-0.010287394,0.0010289217,-6.955862e-05,0.0,0.0,0.0,0.0,0.0,0.0
5563000,5411000,0.00232368,0.008499638,-0.018497275,0.0,0.0,0.0,0.0,0.0,0.0,0.0,0.0,0.0,0.0,-0.04949951,0.0,0.0,0.0,0.0,0.0,-0.011770721,0.21623595,-0.42969188,-0.0021574856,0.0006431665,-6.7949295e-06,0.0,0.0,0.0,0.0,0.0,0.0
5571000,5419000,0.00232368,0.008499638,-0.018497275,0.0,0.0,0.0,0.0,0.0,0.0,0.0,0.0,0.0,0.0,-0.04949951,0.0,0.0,0.0,0.0,0.0,-0.011770721,0.21623595,-0.42969188,-0.0068738842,-0.01022351,-5.733967e-05,0.0,0.0,0.0,0.0,0.0,0.0
5587000,5435000,0.00232368,0.008499638,-0.018497275,0.0,0.0,0.0,0.0,0.0,0.0,0.0,0.0,0.0,0.0,0.04840088,0.0,0.0,0.0,0.0,0.0,-0.011770721,0.21623595,-0.42969188,-0.01986774,0.00047594076,-0.00022470951,0.0,0.0,0.0,0.0,0.0,0.0
5595000,5443000,0.00232368,0.008499638,-0.018497275,0.0,0.0,0.0,0.0,0.0,0.0,0.0,0.0,0.0,0.0,0.04840088,0.0,0.0,0.0,0.0,0.0,-0.009371699,0.21716179,-0.42773646,-0.004298718,-0.008217322,-2.6524067e-05,0.0,0.0,0.0,0.0,0.0,0.0
5603000,5451000,0.00232368,0.008499638,-0.018497275,0.0,0.0,0.0,0.0,0.0,0.0,0.0,0.0,0.0,0.0,0.04840088,0.0,0.0,0.0,0.0,0.0,-0.009371699,0.21716179,-0.42773646,0.0011771768,0.010863857,-8.3982944e-05,0.0,0.0,0.0,0.0,0.0,0.0
5611000,5459000,0.00232368,0.008499638,-0.018497275,0.0,0.0,0.0,0.0,0.0,0.0,0.0,0.0,0.0,0.0,0.04840088,0.0,0.0,0.0,0.0,0.0,-0.009371699,0.21716179,-0.42773646,-0.022143938,0.014204904,-0.0004104972,0.0,0.0,0.0,0.0,0.0,0.0
5627000,5475000,0.00232368,0.008499638,-0.018497275,0.0,0.0,0.0,0.0,0.0,0.0,0.0,0.0,0.0,0.0,0.04840088,0.0,0.0,0.0,0.0,0.0,-0.009371699,0.21716179,-0.42773646,-0.0072856266,0.011182749,-0.00012892485,0.0,0.0,0.0,0.0,0.0,0.0
5635000,5483000,0.00232368,0.008499638,-0.018497275,0.0,0.0,0.0,0.0,0.0,0.0,0.0,0.0,0.0,0.0,0.04840088,0.0,0.0,0.0,0.0,0.0,-0.009371699,0.21716179,-0.42773646,-0.009594795,-0.009730067,-7.95722e-05,0.0,0.0,0.0,0.0,0.0,0.0
5643000,5491000,0.00232368,0.008499638,-0.018497275,0.0,0.0,0.0,0.0,0.0,0.0,0.0,0.0,0.0,0.0,0.04840088,0.0,0.0,0.0,0.0,0.0,-0.009371699,0.21716179,-0.42773646,-6.468373e-05,-0.015886078,-8.094311e-05,0.0,0.0,0.0,0.0,0.0,0.0
5651000,5499000,0.00232368,0.008499638,-0.018497275,0.0,0.0,0.0,0.0,0.0,0.0,0.0,0.0,0.0,0.0,0.013977051,0.0,0.0,0.0,0.0,0.0,-0.009371699,0.21716179,-0.42773646,0.0026407938,-0.0066704294,-3.2186508e-06,0.0,0.0,0.0,0.0,0.0,0.0
5667000,5515000,0.00232368,0.008499638,-0.018497275,0.0,0.0,0.0,0.0,0.0,0.0,0.0,0.0,0.0,0.0,0.013977051,0.0,0.0,0.0,0.0,0.0,-0.01117337,0.21713255,-0.42783722,0.004479803,-0.0053886157,-2.503395e-06,0.0,0.0,0.0,0.0,0.0,0.0
5675000,5523000,0.00232368,0.008499638,-0.018497275,0.0,0.0,0.0,0.0,0.0,0.0,0.0,0.0,0.0,0.0,0.013977051,0.0,0.0,0.0,0.0,0.0,-0.01117337,0.21713255,-0.42783722,0.002776712,-0.0036390289,2.7418137e-06,0.0,0.0,0.0,0.0,0.0,0.0
5683000,5531000,0.00232368,0.008499638,-0.018497275,0.0,0.0,0.0,0.0,0.0,0.0,0.0,0.0,0.0,0.0,0.013977051,0.0,0.0,0.0,0.0,0.0,-0.01117337,0.21713255,-0.42783722,-0.00089897274,0.0037395149,-1.9133091e-05,0.0,0.0,0.0,0.0,0.0,0.0
5691000,5539000,0.00232368,0.008499638,-0.018497275,0.0,0.0,0.0,0.0,0.0,0.0,0.0,0.0,0.0,0.0,0.013977051,0.0,0.0,0.0,0.0,0.0,-0.01117337,0.21713255,-0.42783722,-0.009650738,0.008264612,-0.00012022257,0.0,0.0,0.0,0.0,0.0,0.0
5707000,5555000,0.00232368,0.008499638,-0.018497275,0.0,0.0,0.0,0.0,0.0,0.0,0.0,0.0,0.0,0.0,-0.014404297,0.0,0.0,0.0,0.0,0.0,-0.01117337,0.21713255,-0.42783722,0.0012590786,-0.0044599357,5.185604e-06,0.0,0.0,0.0,0.0,0.0,0.0
5715000,5563000,0.00232368,0.008499638,-0.018497275,0.0,0.0,0.0,0.0,0.0,0.0,0.0,0.0,0.0,0.0,-0.014404297,0.0,0.0,0.0,0.0,0.0,-0.01117337,0.21713255,-0.42783722,-0.00012338418,0.008328304,-6.0081482e-05,0.0,0.0,0.0,0.0,0.0,0.0
5723000,5571000,0.00232368,0.008499638,-0.018497275,0.0,0.0,0.0,0.0,0.0,0.0,0.0,0.0,0.0,0.0,-0.014404297,0.0,0.0,0.0,0.0,0.0,-0.01117337,0.21713255,-0.42783722,-0.008908006,-0.00045340578,-5.2809715e-05,0.0,0.0,0.0,0.0,0.0,0.0
5731000,5579000,0.00232368,0.008499638,-0.018497275,0.0,0.0,0.0,0.0,0.0,0.0,0.0,0.0,0.0,0.0,-0.014404297,0.0,0.0,0.0,0.0,0.0,-0.01117337,0.21713255,-0.42783722,0.001294787,0.002856949,-1.0550022e-05,0.0,0.0,0.0,0.0,0.0,0.0
5747000,5595000,0.00232368,0.008499638,-0.018497275,0.0,0.0,0.0,0.0,0.0,0.0,0.0,0.0,0.0,0.0,-0.014404297,0.0,0.0,0.0,0.0,0.0,-0.010831021,0.21524303,-0.4297354,-0.0048083635,-0.0054041427,-1.7285347e-05,0.0,0.0,0.0,0.0,0.0,0.0
5755000,5603000,0.00232368,0.008499638,-0.018497275,0.0,0.0,0.0,0.0,0.0,0.0,0.0,0.0,0.0,0.0,-0.014404297,0.0,0.0,0.0,0.0,0.0,-0.010831021,0.21524303,-0.4297354,-0.011585044,-0.011258746,-0.000113248825,0.0,0.0,0.0,0.0,0.0,0.0
5763000,5611000,0.00232368,0.008499638,-0.018497275,0.0,0.0,0.0,0.0,0.0,0.0,0.0,0.0,0.0,0.0,-0.014404297,0.0,0.0,0.0,0.0,0.0,-0.010831021,0.21524303,-0.4297354,0.016950738,0.0019641253,-0.00012433529,0.0,0.0,0.0,0.0,0.0,0.0
5771000,5619000,0.00232368,0.008499638,-0.018497275,0.0,0.0,0.0,0.0,0.0,0.0,0.0,0.0,0.0,0.0,-0.12564087,0.0,0.0,0.0,0.0,0.0,-0.010831021,0.21524303,-0.4297354,0.027379911,-0.006845298,-0.00033199787,0.0,0.0,0.0,0.0,0.0,0.0
5787000,5635000,0.00232368,0.008499638,-0.018497275,0.0,0.0,0.0,0.0,0.0,0.0,0.0,0.0,0.0,0.0,-0.12564087,0.0,0.0,0.0,0.0,0.0,-0.010831021,0.21524303,-0.4297354,0.020334221,0.013891065,-0.000310719,0.0,0.0,0.0,0.0,0.0,0.0
5795000,5643000,0.00232368,0.008499638,-0.018497275,0.0,0.0,0.0,0.0,0.0,0.0,0.0,0.0,0.0,0.0,-0.12564087,0.0,0.0,0.0,0.0,0.0,-0.010831021,0.21524303,-0.4297354,0.020068016,-0.016720142,-0.00025492907,0.0,0.0,0.0,0.0,0.0,0.0
5803000,5651000,0.00232368,0.008499638,-0.018497275,0.0,0.0,0.0,0.0,0.0,0.0,0.0,0.0,0.0,0.0,-0.12564087,0.0,0.0,0.0,0.0,0.0,-0.010831021,0.21524303,-0.4297354,0.032264993,-0.010463812,-0.0004913807,0.0,0.0,0.0,0.0,0.0,0.0
5811000,5659000,0.00232368,0.008499638,-0.018497275,0.0,0.0,0.0,0.0,0.0,0.0,0.0,0.0,0.0,0.0,-0.12564087,0.0,0.0,0.0,0.0,0.0,-0.013316511,0.21663423,-0.4292625,0.015785659,0.004410412,-0.00012677908,0.0,0.0,0.0,0.0,0.0,0.0
5827000,5675000,0.00232368,0.008499638,-0.018497275,0.0,0.0,0.0,0.0,0.0,0.0,0.0,0.0,0.0,0.0,-0.12564087,0.0,0.0,0.0,0.0,0.0,-0.013316511,0.21663423,-0.4292625,-0.004241436,-0.0053119906,-1.2695789e-05,0.0,0.0,0.0,0.0,0.0,0.0
5835000,5683000,0.00232368,0.008499638,-0.018497275,0.0,0.0,0.0,0.0,0.0,0.0,0.0,0.0,0.0,0.0,0.006134033,0.0,0.0,0.0,0.0,0.0,-0.013316511,0.21663423,-0.4292625,0.0030577197,-0.0061171465,-7.1525574e-07,0.0,0.0,0.0,0.0,0.0,0.0
5843000,5691000,0.00232368,0.008499638,-0.018497275,0.0,0.0,0.0,0.0,0.0,0.0,0.0,0.0,0.0,0.0,0.006134033,0.0,0.0,0.0,0.0,0.0,-0.013316511,0.21663423,-0.4292625,0.004994626,0.01588151,-0.00018370152,0.0,0.0,0.0,0.0,0.0,0.0
5851000,5699000,0.00232368,0.008499638,-0.018497275,0.0,0.0,0.0,0.0,0.0,0.0,0.0,0.0,0.0,0.0,0.006134033,0.0,0.0,0.0,0.0,0.0,-0.013316511,0.21663423,-0.4292625,-0.0061738463,-0.0044659954,-2.2649765e-05,0.0,0.0,0.0,0.0,0.0,0.0
5867000,5715000,0.00232368,0.008499638,-0.018497275,0.0,0.0,0.0,0.0,0.0,0.0,0.0,0.0,0.0,0.0,0.006134033,0.0,0.0,0.0,0.0,0.0,-0.013316511,0.21663423,-0.4292625,0.006969173,-0.0044436497,-1.001358e-05,0.0,0.0,0.0,0.0,0.0,0.0
5875000,5723000,0.00232368,0.008499638,-0.018497275,0.0,0.0,0.0,0.0,0.0,0.0,0.0,0.0,0.0,0.0,0.006134033,0.0,0.0,0.0,0.0,0.0,-0.013316511,0.21663423,-0.4292625,0.0016233643,0.009121649,-7.021427e-05,0.0,0.0,0.0,0.0,0.0,0.0
5883000,5731000,0.00232368,0.008499638,-0.018497275,0.0,0.0,0.0,0.0,0.0,0.0,0.0,0.0,0.0,0.0,0.006134033,0.0,0.0,0.0,0.0,0.0,-0.011093318,0.21603498,-0.4289777,-0.014655893,0.004605691,-0.00015252829,0.0,0.0,0.0,0.0,0.0,0.0
5891000,5739000,0.00232368,0.008499638,-0.018497275,0.0,0.0,0.0,0.0,0.0,0.0,0.0,0.0,0.0,0.0,0.006134033,0.0,0.0,0.0,0.0,0.0,-0.011093318,0.21603498,-0.4289777,-4.879548e-06,0.009925015,-8.249283e-05,0.0,0.0,0.0,0.0,0.0,0.0
5907000,5755000,0.010631512,0.007669927,0.0059095398,0.001686159,0.0027787916,0.0029296875,0.0,0.0,0.0,0.0,0.0,0.0,0.0,0.081085205,0.0,0.0,0.0,0.0,0.0,-0.011093318,0.21603498,-0.4289777,-0.00089693745,0.0029060498,-1.6450882e-05,0.0,0.0,0.0,0.0,0.0,0.0
5915000,5763000,0.010631512,0.007669927,0.0059095398,0.001686159,0.0027787916,0.0029296875,0.0,0.0,0.0,0.0,0.0,0.0,0.0,0.081085205,0.0,0.0,0.0,0.0,0.0,-0.011093318,0.21603498,-0.4289777,0.0035273707,-0.0047822585,3.0994415e-06,0.0,0.0,0.0,0.0,0.0,0.0
5923000,5771000,0.010631512,0.007669927,0.0059095398,0.001686159,0.0027787916,0.0029296875,0.0,0.0,0.0,0.0,0.0,0.0,0.0,0.081085205,0.0,0.0,0.0,0.0,0.0,-0.011093318,0.21603498,-0.4289777,0.005402944,-0.0011699682,-3.1590462e-06,0.0,0.0,0.0,0.0,0.0,0.0
5931000,5779000,0.010631512,0.007669927,0.0059095398,0.001686159,0.0027787916,0.0029296875,0.0,0.0,0.0,0.0,0.0,0.0,0.0,0.081085205,0.0,0.0,0.0,0.0,0.0,-0.011093318,0.21603498,-0.4289777,0.016099688,0.018250924,-0.00033146143,0.0,0.0,0.0,0.0,0.0,0.0
5947000,5795000,0.010631512,0.007669927,0.0059095398,0.001686159,0.0027787916,0.0029296875,0.0,0.0,0.0,0.0,0.0,0.0,0.0,0.081085205,0.0,0.0,0.0,0.0,0.0,-0.011093318,0.21603498,-0.4289777,-0.00449561,-0.006787451,-1.835823e-05,0.0,0.0,0.0,0.0,0.0,0.0
5955000,5803000,0.010631512,0.007669927,0.0059095398,0.001686159,0.0027787916,0.0029296875,0.0,0.0,0.0,0.0,0.0,0.0,0.0,0.081085205,0.0,0.0,0.0,0.0,0.0,-0.011326311,0.2139896,-0.4322838,0.010494293,-0.015113342,-0.000103235245,0.0,0.0,0.0,0.0,0.0,0.0
5963000,5811000,0.010631512,0.007669927,0.0059095398,0.001686159,0.0027787916,0.0029296875,0.0,0.0,0.0,0.0,0.0,0.0,0.0,-0.00039672852,0.0,0.0,0.0,0.0,0.0,-0.011326311,0.2139896,-0.4322838,0.027145637,-0.001301458,-0.00032436848,0.0,0.0,0.0,0.0,0.0,0.0
5971000,5819000,0.010631512,0.007669927,0.0059095398,0.001686159,0.0027787916,0.0029296875,0.0,0.0,0.0,0.0,0.0,0.0,0.0,-0.00039672852,0.0,0.0,0.0,0.0,0.0,-0.011326311,0.2139896,-0.4322838,0.013898596,-0.015204258,-0.00014734268,0.0,0.0,0.0,0.0,0.0,0.0
5987000,5835000,0.010631512,0.007669927,0.0059095398,0.001686159,0.0027787916,0.0029296875,0.0,0.0,0.0,0.0,0.0,0.0,0.0,-0.00039672852,0.0,0.0,0.0,0.0,0.0,-0.011326311,0.2139896,-0.4322838,-0.002309385,0.0068732826,-4.7922134e-05,0.0,0.0,0.0,0.0,0.0,0.0
5995000,5843000,0.010631512,0.007669927,0.0059095398,0.001686159,0.0027787916,0.0029296875,0.0,0.0,0.0,0.0,0.0,0.0,0.0,-0.00039672852,0.0,0.0,0.0,0.0,0.0,-0.011326311,0.2139896,-0.4322838,0.0037360801,0.013721491,-0.00013750792,0.0,0.0,0.0,0.0,0.0,0.0
6003000,5851000,0.010631512,0.007669927,0.0059095398,0.001686159,0.0027787916,0.0029296875,0.0,0.0,0.0,0.0,0.0,0.0,0.0,-0.00039672852,0.0,0.0,0.0,0.0,0.0,-0.011326311,0.2139896,-0.4322838,-0.016716314,-0.0059456397,-0.00015890598,0.0,0.0,0.0,0.0,0.0,0.0
6011000,5859000,0.010631512,0.007669927,0.0059095398,0.001686159,0.0027787916,0.0029296875,0.0,0.0,0.0,0.0,0.0,0.0,0.0,-0.00039672852,0.0,0.0,0.0,0.0,0.0,-0.011326311,0.2139896,-0.4322838,-0.005213466,-0.017344719,-0.00012552738,0.0,0.0,0.0,0.0,0.0,0.0
6027000,5875000,0.010631512,0.007669927,0.0059095398,0.001686159,0.0027787916,0.0029296875,0.0,0.0,0.0,0.0,0.0,0.0,0.0,-0.014099121,0.0,0.0,0.0,0.0,0.0,-0.0076824017,0.21429586,-0.4299731,0.012027576,-0.0148451645,-0.00013667345,0.0,0.0,0.0,0.0,0.0,0.0
6035000,5883000,0.010631512,0.007669927,0.0059095398,0.001686159,0.0027787916,0.0029296875,0.0,0.0,0.0,0.0,0.0,0.0,0.0,-0.014099121,0.0,0.0,0.0,0.0,0.0,-0.0076824017,0.21429586,-0.4299731,0.011972649,-0.022953084,-0.00026768446,0.0,0.0,0.0,0.0,0.0,0.0
6043000,5891000,0.010631512,0.007669927,0.0059095398,0.001686159,0.0027787916,0.0029296875,0.0,0.0,0.0,0.0,0.0,0.0,0.0,-0.014099121,0.0,0.0,0.0,0.0,0.0,-0.0076824017,0.21429586,-0.4299731,-0.008298925,-0.0180855,-0.00015765429,0.0,0.0,0.0,0.0,0.0,0.0
6051000,5899000,0.010631512,0.007669927,0.0059095398,0.001686159,0.0027787916,0.0029296875,0.0,0.0,0.0,0.0,0.0,0.0,0.0,-0.014099121,0.0,0.0,0.0,0.0,0.0,-0.0076824017,0.21429586,-0.4299731,-0.010050334,0.003809482,-7.1406364e-05,0.0,0.0,0.0,0.0,0.0,0.0
6067000,5915000,0.010631512,0.007669927,0.0059095398,0.001686159,0.0027787916,0.0029296875,0.0,0.0,0.0,0.0,0.0,0.0,0.0,-0.014099121,0.0,0.0,0.0,0.0,0.0,-0.0076824017,0.21429586,-0.4299731,-0.0016866666,0.014222619,-0.00013846159,0.0,0.0,0.0,0.0,0.0,0.0
6075000,5923000,0.010631512,0.007669927,0.0059095398,0.001686159,0.0027787916,0.0029296875,0.0,0.0,0.0,0.0,0.0,0.0,0.0,-0.014099121,0.0,0.0,0.0,0.0,0.0,-0.0076824017,0.21429586,-0.4299731,-0.006063871,0.01627632,-0.0001989007,0.0,0.0,0.0,0.0,0.0,0.0
6083000,5931000,0.010631512,0.007669927,0.0059095398,0.001686159,0.0027787916,0.0029296875,0.0,0.0,0.0,0.0,0.0,0.0,0.0,-0.014099121,0.0,0.0,0.0,0.0,0.0,-0.0076824017,0.21429586,-0.4299731,0.011249808,0.018825337,-0.00028198957,0.0,0.0,0.0,0.0,0.0,0.0
6091000,5939000,0.010631512,0.007669927,0.0059095398,0.001686159,0.0027787916,0.0029296875,0.0,0.0,0.0,0.0,0.0,0.0,0.0,0.038513184,0.0,0.0,0.0,0.0,0.0,-0.007502836,0.21918765,-0.429929,0.001523463,-0.001583234,3.516674e-06,0.0,0.0,0.0,0.0,0.0,0.0
6107000,5955000,0.010631512,0.007669927,0.0059095398,0.001686159,0.0027787916,0.0029296875,0.0,0.0,0.0,0.0,0.0,0.0,0.0,0.038513184,0.0,0.0,0.0,0.0,0.0,-0.007502836,0.21918765,-0.429929,0.017248353,-0.017003002,-0.0002245307,0.0,0.0,0.0,0.0,0.0,0.0
6115000,5963000,0.010631512,0.007669927,0.0059095398,0.001686159,0.0027787916,0.0029296875,0.0,0.0,0.0,0.0,0.0,0.0,0.0,0.038513184,0.0,0.0,0.0,0.0,0.0,-0.007502836,0.21918765,-0.429929,0.012537583,-0.015020837,-0.00012868643,0.0,0.0,0.0,0.0,0.0,0.0
6123000,5971000,0.010631512,0.007669927,0.0059095398,0.001686159,0.0027787916,0.0029296875,0.0,0.0,0.0,0.0,0.0,0.0,0.0,0.038513184,0.0,0.0,0.0,0.0,0.0,-0.007502836,0.21918765,-0.429929,0.0020859172,0.0010991062,-3.516674e-06,0.0,0.0,0.0,0.0,0.0,0.0
6131000,5979000,0.010631512,0.007669927,0.0059095398,0.001686159,0.0027787916,0.0029296875,0.0,0.0,0.0,0.0,0.0,0.0,0.0,0.038513184,0.0,0.0,0.0,0.0,0.0,-0.007502836,0.21918765,-0.429929,0.011918924,0.013722289,-0.00019580126,0.0,0.0,0.0,0.0,0.0,0.0
6147000,5995000,0.010631512,0.007669927,0.0059095398,0.001686159,0.0027787916,0.0029296875,0.0,0.0,0.0,0.0,0.0,0.0,0.0,0.038513184,0.0,0.0,0.0,0.0,0.0,-0.007502836,0.21918765,-0.429929,0.017813627,0.0012185585,-0.00014030933,0.0,0.0,0.0,0.0,0.0,0.0
6155000,6003000,0.010631512,0.007669927,0.0059095398,0.001686159,0.0027787916,0.0029296875,0.0,0.0,0.0,0.0,0.0,0.0,0.0,0.0047302246,0.0,0.0,0.0,0.0,0.0,-0.007502836,0.21918765,-0.429929,0.0054337354,0.003077366,-2.1517277e-05,0.0,0.0,0.0,0.0,0.0,0.0
6163000,6011000,0.010631512,0.007669927,0.0059095398,0.001686159,0.0027787916,0.0029296875,0.0,0.0,0.0,0.0,0.0,0.0,0.0,0.0047302246,0.0,0.0,0.0,0.0,0.0,-0.01108777,0.21717659,-0.42713636,0.0018552418,-0.008631944,-1.001358e-05,0.0,0.0,0.0,0.0,0.0,0.0
6171000,6019000,0.010631512,0.007669927,0.0059095398,0.001686159,0.0027787916,0.0029296875,0.0,0.0,0.0,0.0,0.0,0.0,0.0,0.0047302246,0.0,0.0,0.0,0.0,0.0,-0.01108777,0.21717659,-0.42713636,0.009250789,0.01423384,-0.00016862154,0.0,0.0,0.0,0.0,0.0,0.0
6187000,6035000,0.010631512,0.007669927,0.0059095398,0.001686159,0.0027787916,0.0029296875,0.0,0.0,0.0,0.0,0.0,0.0,0.0,0.0047302246,0.0,0.0,0.0,0.0,0.0,-0.01108777,0.21717659,-0.42713636,0.017556943,0.014632016,-0.0002759695,0.0,0.0,0.0,0.0,0.0,0.0
6195000,6043000,0.010631512,0.007669927,0.0059095398,0.001686159,0.0027787916,0.0029296875,0.0,0.0,0.0,0.0,0.0,0.0,0.0,0.0047302246,0.0,0.0,0.0,0.0,0.0,-0.01108777,0.21717659,-0.42713636,-0.009467469,-0.0069861664,-6.455183e-05,0.0,0.0,0.0,0.0,0.0,0.0
6203000,6051000,0.010631512,0.007669927,0.0059095398,0.001686159,0.0027787916,0.0029296875,0.0,0.0,0.0,0.0,0.0,0.0,0.0,0.0047302246,0.0,0.0,0.0,0.0,0.0,-0.01108777,0.21717659,-0.42713636,-0.009308162,0.0034884631,-7.379055e-05,0.0,0.0,0.0,0.0,0.0,0.0
6211000,6059000,0.010631512,0.007669927,0.0059095398,0.001686159,0.0027787916,0.0029296875,0.0,0.0,0.0,0.0,0.0,0.0,0.0,-0.03286743,0.0,0.0,0.0,0.0,0.0,-0.01108777,0.21717659,-0.42713636,0.027123105,-0.0017793514,-0.00032132864,0.0,0.0,0.0,0.0,0.0,0.0
6227000,6075000,0.010631512,0.007669927,0.0059095398,0.001686159,0.0027787916,0.0029296875,0.0,0.0,0.0,0.0,0.0,0.0,0.0,-0.03286743,0.0,0.0,0.0,0.0,0.0,-0.01108777,0.21717659,-0.42713636,-0.0016425384,-0.007961946,-1.4364719e-05,0.0,0.0,0.0,0.0,0.0,0.0
6235000,6083000,0.010631512,0.007669927,0.0059095398,0.001686159,0.0027787916,0.0029296875,0.0,0.0,0.0,0.0,0.0,0.0,0.0,-0.03286743,0.0,0.0,0.0,0.0,0.0,-0.009028042,0.21299879,-0.42939702,0.011248692,-0.01877121,-0.00017893314,0.0,0.0,0.0,0.0,0.0,0.0
6243000,6091000,0.010631512,0.007669927,0.0059095398,0.001686159,0.0027787916,0.0029296875,0.0,0.0,0.0,0.0,0.0,0.0,0.0,-0.03286743,0.0,0.0,0.0,0.0,0.0,-0.009028042,0.21299879,-0.42939702,-0.0012280776,-0.014085388,-6.4492226e-05,0.0,0.0,0.0,0.0,0.0,0.0
6251000,6099000,0.010631512,0.007669927,0.0059095398,0.001686159,0.0027787916,0.0029296875,0.0,0.0,0.0,0.0,0.0,0.0,0.0,-0.03286743,0.0,0.0,0.0,0.0,0.0,-0.009028042,0.21299879,-0.42939702,0.010646919,-0.002505046,-4.464388e-05,0.0,0.0,0.0,0.0,0.0,0.0
6267000,6115000,0.010631512,0.007669927,0.0059095398,0.001686159,0.0027787916,0.0029296875,0.0,0.0,0.0,0.0,0.0,0.0,0.0,-0.03286743,0.0,0.0,0.0,0.0,0.0,-0.009028042,0.21299879,-0.42939702,-0.014648531,-0.0042120805,-0.00011718273,0.0,0.0,0.0,0.0,0.0,0.0
6275000,6123000,0.010631512,0.007669927,0.0059095398,0.001686159,0.0027787916,0.0029296875,0.0,0.0,0.0,0.0,0.0,0.0,0.0,-0.036102295,0.0,0.0,0.0,0.0,0.0,-0.009028042,0.21299879,-0.42939702,0.00042245229,-0.01775317,-0.00011885166,0.0,0.0,0.0,0.0,0.0,0.0
6283000,6131000,0.010631512,0.007669927,0.0059095398,0.001686159,0.0027787916,0.0029296875,0.0,0.0,0.0,0.0,0.0,0.0,0.0,-0.036102295,0.0,0.0,0.0,0.0,0.0,-0.009028042,0.21299879,-0.42939702,0.0017370175,-0.02977786,-0.00038206577,0.0,0.0,0.0,0.0,0.0,0.0
6291000,6139000,0.010631512,0.007669927,0.0059095398,0.001686159,0.0027787916,0.0029296875,0.0,0.0,0.0,0.0,0.0,0.0,0.0,-0.036102295,0.0,0.0,0.0,0.0,0.0,-0.009028042,0.21299879,-0.42939702,-0.015080513,-0.021629881,-0.00031882524,0.0,0.0,0.0,0.0,0.0,0.0
6307000,6155000,-0.013155301,0.020215668,0.013125002,-0.0010385244,0.007216866,0.004119873,0.0,0.0,0.0,0.0,0.0,0.0,0.0,-0.036102295,0.0,0.0,0.0,0.0,0.0,-0.010300393,0.21702261,-0.42746165,-0.0012099876,0.025900152,-0.00038290024,0.0,0.0,0.0,0.0,0.0,0.0
6315000,6163000,-0.013155301,0.020215668,0.013125002,-0.0010385244,0.007216866,0.004119873,0.0,0.0,0.0,0.0,0.0,0.0,0.0,-0.036102295,0.0,0.0,0.0,0.0,0.0,-0.010300393,0.21702261,-0.42746165,0.0075659417,0.00970732,-8.4519386e-05,0.0,0.0,0.0,0.0,0.0,0.0
6323000,6171000,-0.013155301,0.020215668,0.013125002,-0.0010385244,0.007216866,0.004119873,0.0,0.0,0.0,0.0,0.0,0.0,0.0,-0.036102295,0.0,0.0,0.0,0.0,0.0,-0.010300393,0.21702261,-0.42746165,-0.010536175,0.018906198,-0.00028020144,0.0,0.0,0.0,0.0,0.0,0.0
6331000,6179000,-0.013155301,0.020215668,0.013125002,-0.0010385244,0.007216866,0.004119873,0.0,0.0,0.0,0.0,0.0,0.0,0.0,-0.036102295,0.0,0.0,0.0,0.0,0.0,-0.010300393,0.21702261,-0.42746165,-0.014739084,0.009696128,-0.00018763542,0.0,0.0,0.0,0.0,0.0,0.0
6347000,6195000,-0.013155301,0.020215668,0.013125002,-0.0010385244,0.007216866,0.004119873,0.0,0.0,0.0,0.0,0.0,0.0,0.0,0.0068969727,0.0,0.0,0.0,0.0,0.0,-0.010300393,0.21702261,-0.42746165,0.009154812,-0.01645691,-0.00013941526,0.0,0.0,0.0,0.0,0.0,0.0
6355000,6203000,-0.013155301,0.020215668,0.013125002,-0.0010385244,0.007216866,0.004119873,0.0,0.0,0.0,0.0,0.0,0.0,0.0,0.0068969727,0.0,0.0,0.0,0.0,0.0,-0.010300393,0.21702261,-0.42746165,-0.004028562,-0.024296675,-0.00026208162,0.0,0.0,0.0,0.0,0.0,0.0
6363000,6211000,-0.013155301,0.020215668,0.013125002,-0.0010385244,0.007216866,0.004119873,0.0,0.0,0.0,0.0,0.0,0.0,0.0,0.0068969727,0.0,0.0,0.0,0.0,0.0,-0.010300393,0.21702261,-0.42746165,-0.008075665,-0.0025934028,-3.5345554e-05,0.0,0.0,0.0,0.0,0.0,0.0
6371000,6219000,-0.013155301,0.020215668,0.013125002,-0.0010385244,0.007216866,0.004119873,0.0,0.0,0.0,0.0,0.0,0.0,0.0,0.0068969727,0.0,0.0,0.0,0.0,0.0,-0.010300393,0.21702261,-0.42746165,-0.004913961,-0.0023986604,-1.3589859e-05,0.0,0.0,0.0,0.0,0.0,0.0
6387000,6235000,-0.013155301,0.020215668,0.013125002,-0.0010385244,0.007216866,0.004119873,0.0,0.0,0.0,0.0,0.0,0.0,0.0,0.0068969727,0.0,0.0,0.0,0.0,0.0,0.0,0.0,0.0,0.0048194095,-0.005279643,-1.7166138e-05,0.0,0.0,0.0,0.0,0.0,0.0
6395000,6243000,-0.013155301,0.020215668,0.013125002,-0.0010385244,0.007216866,0.004119873,0.0,0.0,0.0,0.0,0.0,0.0,0.0,0.0068969727,0.0,0.0,0.0,0.0,0.0,0.0,0.0,0.0,0.00038874318,-0.0031244447,-5.9604645e-07,0.0,0.0,0.0,0.0,0.0,0.0
6403000,6251000,-0.013155301,0.020215668,0.013125002,-0.0010385244,0.007216866,0.004119873,0.0,0.0,0.0,0.0,0.0,0.0,0.0,-0.058258057,0.0,0.0,0.0,0.0,0.0,0.0,0.0,0.0,-0.014189382,-0.02375663,-0.00035506487,0.0,0.0,0.0,0.0,0.0,0.0
6411000,6259000,-0.013155301,0.020215668,0.013125002,-0.0010385244,0.007216866,0.004119873,0.0,0.0,0.0,0.0,0.0,0.0,0.0,-0.058258057,0.0,0.0,0.0,0.0,0.0,0.0,0.0,0.0,-0.017561555,0.013752002,-0.00027120113,0.0,0.0,0.0,0.0,0.0,0.0
6427000,6275000,-0.013155301,0.020215668,0.013125002,-0.0010385244,0.007216866,0.004119873,0.0,0.0,0.0,0.0,0.0,0.0,0.0,-0.058258057,0.0,0.0,0.0,0.0,0.0,0.0,0.0,0.0,-0.008430568,-0.004321991,-4.0352345e-05,0.0,0.0,0.0,0.0,0.0,0.0
6435000,6283000,-0.013155301,0.020215668,0.013125002,-0.0010385244,0.007216866,0.004119873,0.0,0.0,0.0,0.0,0.0,0.0,0.0,-0.058258057,0.0,0.0,0.0,0.0,0.0,0.0,0.0,0.0,-0.0072850254,-0.0071764565,-4.416704e-05,0.0,0.0,0.0,0.0,0.0,0.0
6443000,6291000,-0.013155301,0.020215668,0.013125002,-0.0010385244,0.007216866,0.004119873,0.0,0.0,0.0,0.0,0.0,0.0,0.0,-0.058258057,0.0,0.0,0.0,0.0,0.0,0.0,0.0,0.0,-0.0075872135,0.013419747,-0.00013035536,0.0,0.0,0.0,0.0,0.0,0.0
6451000,6299000,-0.013155301,0.020215668,0.013125002,-0.0010385244,0.007216866,0.004119873,0.0,0.0,0.0,0.0,0.0,0.0,0.0,-0.058258057,0.0,0.0,0.0,0.0,0.0019816756,0.001641932,-0.0009520352,0.0019816756,-0.021038242,0.012973096,-0.00031208992,0.0,0.0,0.0,0.0,0.0,0.0
6467000,6315000,-0.013155301,0.020215668,0.013125002,-0.0010385244,0.007216866,0.004119873,0.0,0.0,0.0,0.0,0.0,0.0,0.0,0.051635742,0.0,0.0,0.0,0.0,0.0019816756,0.001641932,-0.0009520352,0.0019816756,-0.009543303,0.0026787205,-4.7802925e-05,0.0,0.0,0.0,0.0,0.0,0.0
6475000,6323000,-0.013155301,0.020215668,0.013125002,-0.0010385244,0.007216866,0.004119873,0.0,0.0,0.0,0.0,0.0,0.0,0.0,0.051635742,0.0,0.0,0.0,0.0,0.0019816756,0.001641932,-0.0009520352,0.0019816756,0.000611936,-0.010874011,-4.941225e-05,0.0,0.0,0.0,0.0,0.0,0.0
6483000,6331000,-0.013155301,0.020215668,0.013125002,-0.0010385244,0.007216866,0.004119873,0.0,0.0,0.0,0.0,0.0,0.0,0.0,0.051635742,0.0,0.0,0.0,0.0,0.0019816756,0.001641932,-0.0009520352,0.0019816756,0.018058037,0.00725279,-0.00020694733,0.0,0.0,0.0,0.0,0.0,0.0
6491000,6339000,-0.013155301,0.020215668,0.013125002,-0.0010385244,0.007216866,0.004119873,0.0,0.0,0.0,0.0,0.0,0.0,0.0,0.051635742,0.0,0.0,0.0,0.0,0.0019816756,0.001641932,-0.0009520352,0.0019816756,0.009840183,-0.0020967785,-5.2154064e-05,0.0,0.0,0.0,0.0,0.0,0.0
6507000,6355000,-0.013155301,0.020215668,0.013125002,-0.0010385244,0.007216866,0.004119873,0.0,0.0,0.0,0.0,0.0,0.0,0.0,0.051635742,0.0,0.0,0.0,0.0,0.0019816756,0.001641932,-0.0009520352,0.0019816756,-0.0062637054,0.0057054637,-3.9935112e-05,0.0,0.0,0.0,0.0,0.0,0.0
6515000,6363000,-0.013155301,0.020215668,0.013125002,-0.0010385244,0.007216866,0.004119873,0.0,0.0,0.0,0.0,0.0,0.0,0.0,0.051635742,0.0,0.0,0.0,0.0,0.0019816756,0.001641932,-0.0009520352,0.0019816756,0.0035595417,-0.00094412576,-6.0796738e-06,0.0,0.0,0.0,0.0,0.0,0.0
6523000,6371000,-0.013155301,0.020215668,0.013125002,-0.0010385244,0.007216866,0.004119873,0.0,0.0,0.0,0.0,0.0,0.0,0.0,0.051635742,0.0,0.0,0.0,0.0,-0.00033415266,-0.00033415266,-0.0033557862,-0.0010153651,0.008836585,-0.0065837353,-5.3822994e-05,0.0,0.0,0.0,0.0,0.0,0.0
6531000,6379000,-0.013155301,0.020215668,0.013125002,-0.0010385244,0.007216866,0.004119873,0.0,0.0,0.0,0.0,0.0,0.0,0.0,-0.0007324219,0.0,0.0,0.0,0.0,-0.00033415266,-0.00033415266,-0.0033557862,-0.0010153651,0.015186473,0.00022968638,-0.00010943413,0.0,0.0,0.0,0.0,0.0,0.0
6547000,6395000,-0.013155301,0.020215668,0.013125002,-0.0010385244,0.007216866,0.004119873,0.0,0.0,0.0,0.0,0.0,0.0,0.0,-0.0007324219,0.0,0.0,0.0,0.0,-0.00033415266,-0.00033415266,-0.0033557862,-0.0010153651,0.015023133,-0.008176731,-0.0001335144,0.0,0.0,0.0,0.0,0.0,0.0
6555000,6403000,-0.013155301,0.020215668,0.013125002,-0.0010385244,0.007216866,0.004119873,0.0,0.0,0.0,0.0,0.0,0.0,0.0,-0.0007324219,0.0,0.0,0.0,0.0,-0.00033415266,-0.00033415266,-0.0033557862,-0.0010153651,0.000104134815,-0.0026452986,-1.847744e-06,0.0,0.0,0.0,0.0,0.0,0.0
6563000,6411000,-0.013155301,0.020215668,0.013125002,-0.0010385244,0.007216866,0.004119873,0.0,0.0,0.0,0.0,0.0,0.0,0.0,-0.0007324219,0.0,0.0,0.0,0.0,-0.00033415266,-0.00033415266,-0.0033557862,-0.0010153651,0.0018568041,-0.0010662834,-1.013279e-06,0.0,0.0,0.0,0.0,0.0,0.0
6571000,6419000,-0.013155301,0.020215668,0.013125002,-0.0010385244,0.007216866,0.004119873,0.0,0.0,0.0,0.0,0.0,0.0,0.0,-0.0007324219,0.0,0.0,0.0,0.0,-0.00033415266,-0.00033415266,-0.0033557862,-0.0010153651,0.0035219977,0.0040811114,-1.5735626e-05,0.0,0.0,0.0,0.0,0.0,0.0
6587000,6435000,-0.013155301,0.020215668,0.013125002,-0.0010385244,0.007216866,0.004119873,0.0,0.0,0.0,0.0,0.0,0.0,0.0,-0.0007324219,0.0,0.0,0.0,0.0,-0.00033415266,-0.00033415266,-0.0033557862,-0.0010153651,0.007861389,-0.002169962,-3.1232834e-05,0.0,0.0,0.0,0.0,0.0,0.0
6595000,6443000,-0.013155301,0.020215668,0.013125002,-0.0010385244,0.007216866,0.004119873,0.0,0.0,0.0,0.0,0.0,0.0,0.0,0.01361084,0.0,0.0,0.0,0.0,-7.325411e-05,-0.001869292,-0.0011644214,-7.325411e-05,0.004481447,0.0029421456,-1.4841557e-05,0.0,0.0,0.0,0.0,0.0,0.0
6603000,6451000,-0.013155301,0.020215668,0.013125002,-0.0010385244,0.007216866,0.004119873,0.0,0.0,0.0,0.0,0.0,0.0,0.0,0.01361084,0.0,0.0,0.0,0.0,-7.325411e-05,-0.001869292,-0.0011644214,-7.325411e-05,0.0054022404,0.012659815,-0.000100672245,0.0,0.0,0.0,0.0,0.0,0.0
6611000,6459000,-0.013155301,0.020215668,0.013125002,-0.0010385244,0.007216866,0.004119873,0.0,0.0,0.0,0.0,0.0,0.0,0.0,0.01361084,0.0,0.0,0.0,0.0,-7.325411e-05,-0.001869292,-0.0011644214,-7.325411e-05,0.029397396,0.0011500905,-0.0004336238,0.0,0.0,0.0,0.0,0.0,0.0
6627000,6475000,-0.013155301,0.020215668,0.013125002,-0.0010385244,0.007216866,0.004119873,0.0,0.0,0.0,0.0,0.0,0.0,0.0,0.01361084,0.0,0.0,0.0,0.0,-7.325411e-05,-0.001869292,-0.0011644214,-7.325411e-05,0.03042603,0.0037722006,-0.0004813671,0.0,0.0,0.0,0.0,0.0,0.0
6635000,6483000,-0.013155301,0.020215668,0.013125002,-0.0010385244,0.007216866,0.004119873,0.0,0.0,0.0,0.0,0.0,0.0,0.0,0.01361084,0.0,0.0,0.0,0.0,-7.325411e-05,-0.001869292,-0.0011644214,-7.325411e-05,-0.0023559527,0.0018296074,-4.887581e-06,0.0,0.0,0.0,0.0,0.0,0.0
6643000,6491000,-0.013155301,0.020215668,0.013125002,-0.0010385244,0.007216866,0.004119873,0.0,0.0,0.0,0.0,0.0,0.0,0.0,0.01361084,0.0,0.0,0.0,0.0,-7.325411e-05,-0.001869292,-0.0011644214,-7.325411e-05,-0.006116644,-0.012756566,-9.059906e-05,0.0,0.0,0.0,0.0,0.0,0.0
6651000,6499000,-0.013155301,0.020215668,0.013125002,-0.0010385244,0.007216866,0.004119873,0.0,0.0,0.0,0.0,0.0,0.0,0.0,0.01361084,0.0,0.0,0.0,0.0,-7.325411e-05,-0.001869292,-0.0011644214,-7.325411e-05,0.0031710349,-0.015261611,-0.00011640787,0.0,0.0,0.0,0.0,0.0,0.0
6667000,6515000,-0.013155301,0.020215668,0.013125002,-0.0010385244,0.007216866,0.004119873,0.0,0.0,0.0,0.0,0.0,0.0,0.0,-0.03338623,0.0,0.0,0.0,0.0,0.0035945773,0.0024274234,5.2824616e-05,0.0035945773,0.007904131,0.006433808,-6.0141087e-05,0.0,0.0,0.0,0.0,0.0,0.0
6675000,6523000,-0.013155301,0.020215668,0.013125002,-0.0010385244,0.007216866,0.004119873,0.0,0.0,0.0,0.0,0.0,0.0,0.0,-0.03338623,0.0,0.0,0.0,0.0,0.0035945773,0.0024274234,5.2824616e-05,0.0035945773,-0.0114669725,0.013512288,-0.00015246868,0.0,0.0,0.0,0.0,0.0,0.0
6683000,6531000,-0.013155301,0.020215668,0.013125002,-0.0010385244,0.007216866,0.004119873,0.0,0.0,0.0,0.0,0.0,0.0,0.0,-0.03338623,0.0,0.0,0.0,0.0,0.0035945773,0.0024274234,5.2824616e-05,0.0035945773,-0.0091285175,0.008271115,-7.1287155e-05,0.0,0.0,0.0,0.0,0.0,0.0
6691000,6539000,-0.013155301,0.020215668,0.013125002,-0.0010385244,0.007216866,0.004119873,0.0,0.0,0.0,0.0,0.0,0.0,0.0,-0.03338623,0.0,0.0,0.0,0.0,0.0035945773,0.0024274234,5.2824616e-05,0.0035945773,-0.008638665,0.012246161,-0.000109136105,0.0,0.0,0.0,0.0,0.0,0.0
6707000,6555000,-0.009436955,0.011567622,0.029875975,-0.005838874,0.014524034,0.0060424805,0.0,0.0,0.0,0.0,0.0,0.0,0.0,-0.03338623,0.0,0.0,0.0,0.0,0.0035945773,0.0024274234,5.2824616e-05,0.0035945773,0.0013392628,0.0047296463,-1.3113022e-05,0.0,0.0,0.0,0.0,0.0,0.0
6715000,6563000,-0.009436955,0.011567622,0.029875975,-0.005838874,0.014524034,0.0060424805,0.0,0.0,0.0,0.0,0.0,0.0,0.0,0.0647583,0.0,0.0,0.0,0.0,0.0035945773,0.0024274234,5.2824616e-05,0.0035945773,0.007497561,-0.0006421946,-3.552437e-05,0.0,0.0,0.0,0.0,0.0,0.0
6723000,6571000,-0.009436955,0.011567622,0.029875975,-0.005838874,0.014524034,0.0060424805,0.0,0.0,0.0,0.0,0.0,0.0,0.0,0.0647583,0.0,0.0,0.0,0.0,0.0035945773,0.0024274234,5.2824616e-05,0.0035945773,-0.0032227128,0.013861874,-9.572506e-05,0.0,0.0,0.0,0.0,0.0,0.0
6731000,6579000,-0.009436955,0.011567622,0.029875975,-0.005838874,0.014524034,0.0060424805,0.0,0.0,0.0,0.0,0.0,0.0,0.0,0.0647583,0.0,0.0,0.0,0.0,0.0035945773,0.0024274234,5.2824616e-05,0.0035945773,-0.010222313,0.0033811037,-4.774332e-05,0.0,0.0,0.0,0.0,0.0,0.0
6747000,6595000,-0.009436955,0.011567622,0.029875975,-0.005838874,0.014524034,0.0060424805,0.0,0.0,0.0,0.0,0.0,0.0,0.0,0.0647583,0.0,0.0,0.0,0.0,0.0025639832,-0.00039244324,0.0025639832,-0.00016781688,-0.02749852,-0.005847344,-0.00037407875,0.0,0.0,0.0,0.0,0.0,0.0
6755000,6603000,-0.009436955,0.011567622,0.029875975,-0.005838874,0.014524034,0.0060424805,0.0,0.0,0.0,0.0,0.0,0.0,0.0,0.0647583,0.0,0.0,0.0,0.0,0.0025639832,-0.00039244324,0.0025639832,-0.00016781688,-0.0026494067,-0.014195124,-0.000108122826,0.0,0.0,0.0,0.0,0.0,0.0
6763000,6611000,-0.009436955,0.011567622,0.029875975,-0.005838874,0.014524034,0.0060424805,0.0,0.0,0.0,0.0,0.0,0.0,0.0,0.0647583,0.0,0.0,0.0,0.0,0.0025639832,-0.00039244324,0.0025639832,-0.00016781688,0.002042452,-0.013986939,-0.0001065135,0.0,0.0,0.0,0.0,0.0,0.0
6771000,6619000,-0.009436955,0.011567622,0.029875975,-0.005838874,0.014524034,0.0060424805,0.0,0.0,0.0,0.0,0.0,0.0,0.0,0.0647583,0.0,0.0,0.0,0.0,0.0025639832,-0.00039244324,0.0025639832,-0.00016781688,0.004649412,-0.0148855345,-0.00013035536,0.0,0.0,0.0,0.0,0.0,0.0
6787000,6635000,-0.009436955,0.011567622,0.029875975,-0.005838874,0.014524034,0.0060424805,0.0,0.0,0.0,0.0,0.0,0.0,0.0,0.026855469,0.0,0.0,0.0,0.0,0.0025639832,-0.00039244324,0.0025639832,-0.00016781688,0.012664353,-0.008662415,-0.00012642145,0.0,0.0,0.0,0.0,0.0,0.0
6795000,6643000,-0.009436955,0.011567622,0.029875975,-0.005838874,0.014524034,0.0060424805,0.0,0.0,0.0,0.0,0.0,0.0,0.0,0.026855469,0.0,0.0,0.0,0.0,0.0025639832,-0.00039244324,0.0025639832,-0.00016781688,0.008734552,-0.008923937,-8.660555e-05,0.0,0.0,0.0,0.0,0.0,0.0
6803000,6651000,-0.009436955,0.011567622,0.029875975,-0.005838874,0.014524034,0.0060424805,0.0,0.0,0.0,0.0,0.0,0.0,0.0,0.026855469,0.0,0.0,0.0,0.0,0.0025639832,-0.00039244324,0.0025639832,-0.00016781688,-0.0077065052,0.0026769144,-2.783537e-05,0.0,0.0,0.0,0.0,0.0,0.0
6811000,6659000,-0.009436955,0.011567622,0.029875975,-0.005838874,0.014524034,0.0060424805,0.0,0.0,0.0,0.0,0.0,0.0,0.0,0.026855469,0.0,0.0,0.0,0.0,0.0006495416,-0.0014763194,-0.00076787174,0.0006495416,-0.016991936,-0.0072122132,-0.00016587973,0.0,0.0,0.0,0.0,0.0,0.0
6827000,6675000,-0.009436955,0.011567622,0.029875975,-0.005838874,0.014524034,0.0060424805,0.0,0.0,0.0,0.0,0.0,0.0,0.0,0.026855469,0.0,0.0,0.0,0.0,0.0006495416,-0.0014763194,-0.00076787174,0.0006495416,-0.016984586,0.0050303964,-0.00013905764,0.0,0.0,0.0,0.0,0.0,0.0
6835000,6683000,-0.009436955,0.011567622,0.029875975,-0.005838874,0.014524034,0.0060424805,0.0,0.0,0.0,0.0,0.0,0.0,0.0,0.026855469,0.0,0.0,0.0,0.0,0.0006495416,-0.0014763194,-0.00076787174,0.0006495416,-0.016108178,-0.0019501825,-0.00011855364,0.0,0.0,0.0,0.0,0.0,0.0
6843000,6691000,-0.009436955,0.011567622,0.029875975,-0.005838874,0.014524034,0.0060424805,0.0,0.0,0.0,0.0,0.0,0.0,0.0,-0.024627686,0.0,0.0,0.0,0.0,0.0006495416,-0.0014763194,-0.00076787174,0.0006495416,-0.0058858786,0.002037948,-1.2993813e-05,0.0,0.0,0.0,0.0,0.0,0.0
6851000,6699000,-0.009436955,0.011567622,0.029875975,-0.005838874,0.014524034,0.0060424805,0.0,0.0,0.0,0.0,0.0,0.0,0.0,-0.024627686,0.0,0.0,0.0,0.0,0.0006495416,-0.0014763194,-0.00076787174,0.0006495416,0.0041617546,-0.0064859763,-3.8206577e-05,0.0,0.0,0.0,0.0,0.0,0.0
6867000,6715000,-0.009436955,0.011567622,0.029875975,-0.005838874,0.014524034,0.0060424805,0.0,0.0,0.0,0.0,0.0,0.0,0.0,-0.024627686,0.0,0.0,0.0,0.0,0.0006495416,-0.0014763194,-0.00076787174,0.0006495416,-0.0095177265,-0.009247916,-8.2194805e-05,0.0,0.0,0.0,0.0,0.0,0.0
6875000,6723000,-0.009436955,0.011567622,0.029875975,-0.005838874,0.014524034,0.0060424805,0.0,0.0,0.0,0.0,0.0,0.0,0.0,-0.024627686,0.0,0.0,0.0,0.0,0.0006495416,-0.0014763194,-0.00076787174,0.0006495416,-0.007702784,0.00084355794,-1.8179417e-05,0.0,0.0,0.0,0.0,0.0,0.0
6883000,6731000,-0.009436955,0.011567622,0.029875975,-0.005838874,0.014524034,0.0060424805,0.0,0.0,0.0,0.0,0.0,0.0,0.0,-0.024627686,0.0,0.0,0.0,0.0,0.0016393563,0.0016393563,-0.00039295852,-0.0021017492,0.0046618823,-0.016065635,-0.00016504526,0.0,0.0,0.0,0.0,0.0,0.0
6891000,6739000,-0.009436955,0.011567622,0.029875975,-0.005838874,0.014524034,0.0060424805,0.0,0.0,0.0,0.0,0.0,0.0,0.0,-0.024627686,0.0,0.0,0.0,0.0,0.0016393563,0.0016393563,-0.00039295852,-0.0021017492,0.010373463,0.017569449,-0.00020033121,0.0,0.0,0.0,0.0,0.0,0.0
6907000,6755000,-0.009436955,0.011567622,0.029875975,-0.005838874,0.014524034,0.0060424805,0.0,0.0,0.0,0.0,0.0,0.0,0.0,-0.03756714,0.0,0.0,0.0,0.0,0.0016393563,0.0016393563,-0.00039295852,-0.0021017492,0.0039459793,0.011436177,-6.66976e-05,0.0,0.0,0.0,0.0,0.0,0.0
