timestamp,timestamp_sample,q[0],q[1],q[2],q[3],delta_q_reset[0],delta_q_reset[1],delta_q_reset[2],delta_q_reset[3],quat_reset_counter
5311000,5311000,0.99994767,-0.009149274,-0.0036864805,-0.0027481697,1.0,0.0,0.0,0.0,0
5315000,5315000,0.9999494,-0.008992924,-0.003640234,-0.0026535704,1.0,0.0,0.0,0.0,0
5323000,5323000,0.9999526,-0.008666488,-0.003597742,-0.002615956,1.0,0.0,0.0,0.0,0
5331000,5331000,0.9999562,-0.008260289,-0.0035980304,-0.0025668505,1.0,0.0,0.0,0.0,0
5343000,5343000,0.9999601,-0.007858338,-0.0034799005,-0.002438668,1.0,0.0,0.0,0.0,0
5351000,5351000,0.99996275,-0.0076365187,-0.0033323884,-0.002272243,1.0,0.0,0.0,0.0,0
5363000,5363000,0.9999674,-0.00723652,-0.0030286824,-0.0019298396,1.0,0.0,0.0,0.0,0
5371000,5371000,0.9999701,-0.006899309,-0.0029717507,-0.0018345136,1.0,0.0,0.0,0.0,0
5383000,5383000,0.9999735,-0.0064962264,-0.0027942322,-0.0017931026,1.0,0.0,0.0,0.0,0
5391000,5391000,0.9999755,-0.0062340014,-0.0027444034,-0.0016635036,1.0,0.0,0.0,0.0,0
5403000,5403000,0.99997836,-0.005843944,-0.002646035,-0.0015070215,1.0,0.0,0.0,0.0,0
5411000,5411000,0.99997973,-0.0056245634,-0.00257277,-0.0015205282,1.0,0.0,0.0,0.0,0
5423000,5423000,0.9999828,-0.0051929783,-0.0023687785,-0.001403945,1.0,0.0,0.0,0.0,0
5431000,5431000,0.9999848,-0.004850996,-0.002247304,-0.0013864327,1.0,0.0,0.0,0.0,0
5443000,5443000,0.9999872,-0.0044766264,-0.0020357948,-0.0012378228,1.0,0.0,0.0,0.0,0
5451000,5451000,0.9999881,-0.004364166,-0.001909615,-0.0011156606,1.0,0.0,0.0,0.0,0
5463000,5463000,0.9999906,-0.0038511693,-0.0017615822,-0.0009452251,1.0,0.0,0.0,0.0,0
5471000,5471000,0.9999921,-0.0035075475,-0.0016509866,-0.0009869403,1.0,0.0,0.0,0.0,0
5483000,5483000,0.9999936,-0.0030941018,-0.0014679747,-0.0010601245,1.0,0.0,0.0,0.0,0
5491000,5491000,0.99999464,-0.0027870715,-0.0014059535,-0.0010707643,1.0,0.0,0.0,0.0,0
5503000,5503000,0.99999595,-0.0023192842,-0.00134105,-0.0010259283,1.0,0.0,0.0,0.0,0
5511000,5511000,0.9999968,-0.0020322124,-0.0012008237,-0.0010146882,1.0,0.0,0.0,0.0,0
5523000,5523000,0.9999973,-0.0018938,-0.0010043648,-0.0008744616,1.0,0.0,0.0,0.0,0
5531000,5531000,0.9999979,-0.001631692,-0.000836512,-0.00087057217,1.0,0.0,0.0,0.0,0
5543000,5543000,0.99999887,-0.0011744364,-0.00063676864,-0.0008254405,1.0,0.0,0.0,0.0,0
5551000,5551000,0.99999917,-0.0009485475,-0.0005582896,-0.00075362495,1.0,0.0,0.0,0.0,0
5563000,5563000,0.9999995,-0.0007243451,-0.00040768425,-0.00066493073,1.0,0.0,0.0,0.0,0
5571000,5571000,0.99999964,-0.00058643013,-0.0002697433,-0.0005595272,1.0,0.0,0.0,0.0,0
5583000,5583000,0.9999999,-0.00030385368,-2.5475356e-05,-0.00042786062,1.0,0.0,0.0,0.0,0
5591000,5591000,0.99999994,-4.4467724e-05,1.552366e-06,-0.00035315988,1.0,0.0,0.0,0.0,0
5603000,5603000,0.99999994,0.00018907334,1.6847682e-05,-0.00045140838,1.0,0.0,0.0,0.0,0
5611000,5611000,0.9999999,0.00035964747,0.00010645643,-0.00053346687,1.0,0.0,0.0,0.0,0
5623000,5623000,0.99999976,0.0006964909,0.00021098093,-0.00039963642,1.0,0.0,0.0,0.0,0
5631000,5631000,0.99999976,0.00065613695,0.00032454464,-0.0003596988,1.0,0.0,0.0,0.0,0
5643000,5643000,0.9999995,0.00081214384,0.00041780047,-0.00031155284,1.0,0.0,0.0,0.0,0
5651000,5651000,0.9999995,0.00093666627,0.00041163564,-0.0002401791,1.0,0.0,0.0,0.0,0
5663000,5663000,0.99999934,0.0011468565,0.00037146665,-0.00021680939,1.0,0.0,0.0,0.0,0
5671000,5671000,0.9999992,0.0011620596,0.0003621221,-0.0002579618,1.0,0.0,0.0,0.0,0
5683000,5683000,0.99999905,0.0012967933,0.00044445493,-0.00024600487,1.0,0.0,0.0,0.0,0
5691000,5691000,0.9999988,0.0014558585,0.00045303648,-0.00034625552,1.0,0.0,0.0,0.0,0
5703000,5703000,0.99999857,0.0015759426,0.0005744343,-0.00042101508,1.0,0.0,0.0,0.0,0
5711000,5711000,0.99999845,0.0015718786,0.0006387204,-0.00042766085,1.0,0.0,0.0,0.0,0
5723000,5723000,0.99999815,0.0017456955,0.00071129465,-0.00043634663,1.0,0.0,0.0,0.0,0
5731000,5731000,0.99999803,0.0017946707,0.00068209483,-0.00047309336,1.0,0.0,0.0,0.0,0
5743000,5743000,0.99999774,0.0019443094,0.0007551917,-0.0005332602,1.0,0.0,0.0,0.0,0
5751000,5751000,0.9999974,0.0021047129,0.00080865645,-0.0005772856,1.0,0.0,0.0,0.0,0
5763000,5763000,0.99999756,0.0020540745,0.000723109,-0.00054852135,1.0,0.0,0.0,0.0,0
5771000,5771000,0.9999975,0.0019722187,0.0008961155,-0.0005854407,1.0,0.0,0.0,0.0,0
5783000,5783000,0.9999973,0.0020908557,0.00090890366,-0.00054950867,1.0,0.0,0.0,0.0,0
5791000,5791000,0.99999726,0.0020918984,0.00096631184,-0.00051166693,1.0,0.0,0.0,0.0,0
5803000,5803000,0.9999972,0.0020738407,0.0010101743,-0.0006085337,1.0,0.0,0.0,0.0,0
5811000,5811000,0.9999973,0.0020505488,0.00094944116,-0.00053778087,1.0,0.0,0.0,0.0,0
5823000,5823000,0.9999976,0.0019668087,0.00087712175,-0.00043968597,1.0,0.0,0.0,0.0,0
5831000,5831000,0.99999774,0.0019698734,0.00075668877,-0.000436445,1.0,0.0,0.0,0.0,0
5843000,5843000,0.99999774,0.001987275,0.00073593366,-0.00029034304,1.0,0.0,0.0,0.0,0
5851000,5851000,0.9999978,0.00193219,0.00078035466,-0.00022506806,1.0,0.0,0.0,0.0,0
5863000,5863000,0.99999815,0.0018002494,0.00077336485,-0.00018788807,1.0,0.0,0.0,0.0,0
5871000,5871000,0.9999982,0.0018329741,0.000627513,-0.00013261245,1.0,0.0,0.0,0.0,0
5883000,5883000,0.9999982,0.0017833813,0.00067028735,-0.0001519979,1.0,0.0,0.0,0.0,0
5891000,5891000,0.9999982,0.0018059751,0.0005677893,-9.864074e-05,1.0,0.0,0.0,0.0,0
5903000,5903000,0.9999986,0.0016387557,0.00048635853,-6.389653e-05,1.0,0.0,0.0,0.0,0
5911000,5911000,0.99999845,0.0016808433,0.00055174046,1.0745207e-05,1.0,0.0,0.0,0.0,0
5923000,5923000,0.9999981,0.001813011,0.0007042379,0.00010288686,1.0,0.0,0.0,0.0,0
5931000,5931000,0.99999803,0.0018744564,0.0006843079,5.0906165e-05,1.0,0.0,0.0,0.0,0
5943000,5943000,0.99999803,0.0018490144,0.00072681106,3.135187e-05,1.0,0.0,0.0,0.0,0
5951000,5951000,0.9999979,0.0019004344,0.0007317769,6.876594e-05,1.0,0.0,0.0,0.0,0
5963000,5963000,0.9999976,0.001988358,0.00088235555,2.0411533e-05,1.0,0.0,0.0,0.0,0
5971000,5971000,0.99999756,0.0020282075,0.00086733414,-3.0705873e-05,1.0,0.0,0.0,0.0,0
5983000,5983000,0.9999976,0.00203822,0.0008373973,-1.5497364e-05,1.0,0.0,0.0,0.0,0
5991000,5991000,0.9999978,0.0019324118,0.00083927665,-6.814821e-06,1.0,0.0,0.0,0.0,0
6003000,6003000,0.9999976,0.0020110146,0.00093245745,-2.922277e-05,1.0,0.0,0.0,0.0,0
6011000,6011000,0.99999785,0.0018962967,0.00093109306,-9.45414e-05,1.0,0.0,0.0,0.0,0
6023000,6023000,0.9999981,0.0016813853,0.0010240519,-6.0693288e-05,1.0,0.0,0.0,0.0,0
6031000,6031000,0.99999803,0.0017256716,0.0009860594,6.467528e-06,1.0,0.0,0.0,0.0,0
6043000,6043000,0.9999981,0.0017303324,0.0009887329,-9.608957e-07,1.0,0.0,0.0,0.0,0
6051000,6051000,0.9999982,0.0016380297,0.00097212614,-2.5145953e-05,1.0,0.0,0.0,0.0,0
6063000,6063000,0.9999985,0.0015171877,0.00090371835,-8.5119675e-05,1.0,0.0,0.0,0.0,0
6071000,6071000,0.9999986,0.0014940073,0.00074562465,-0.00015368256,1.0,0.0,0.0,0.0,0
6083000,6083000,0.99999857,0.0015898095,0.00060499937,-0.00022550431,1.0,0.0,0.0,0.0,0
6091000,6091000,0.9999987,0.0015334759,0.00057164335,-0.00024740148,1.0,0.0,0.0,0.0,0
6103000,6103000,0.9999988,0.0014926498,0.0005047,-0.00024902113,1.0,0.0,0.0,0.0,0
6111000,6111000,0.9999989,0.0014380455,0.00048098207,-0.00016583997,1.0,0.0,0.0,0.0,0
6123000,6123000,0.99999905,0.0012813507,0.00044981766,-0.00011548191,1.0,0.0,0.0,0.0,0
6131000,6131000,0.9999992,0.0012278815,0.0004732446,-0.0001141152,1.0,0.0,0.0,0.0,0
6143000,6143000,0.9999993,0.0011072811,0.000496142,-7.5444405e-06,1.0,0.0,0.0,0.0,0
6151000,6151000,0.9999993,0.001051102,0.0005829714,0.00010109898,1.0,0.0,0.0,0.0,0
6163000,6163000,0.9999992,0.001013827,0.0006214881,0.0002483348,1.0,0.0,0.0,0.0,0
6171000,6171000,0.99999917,0.0010730252,0.0006042383,0.00034150176,1.0,0.0,0.0,0.0,0
6183000,6183000,0.99999917,0.001133148,0.00044850813,0.00031930523,1.0,0.0,0.0,0.0,0
6191000,6191000,0.9999993,0.0010943618,0.00045774673,0.0002571677,1.0,0.0,0.0,0.0,0
6203000,6203000,0.99999946,0.0009945452,0.0003099734,0.00013726437,1.0,0.0,0.0,0.0,0
6211000,6211000,0.9999995,0.00094292016,0.00029294795,0.00019667708,1.0,0.0,0.0,0.0,0
6223000,6223000,0.99999964,0.00084088126,0.0002913198,0.00028273775,1.0,0.0,0.0,0.0,0
6231000,6231000,0.9999997,0.0007555002,0.0002152337,0.00034651032,1.0,0.0,0.0,0.0,0
6243000,6243000,0.9999997,0.0007694782,0.00021139134,0.00037360023,1.0,0.0,0.0,0.0,0
6251000,6251000,0.9999997,0.0007831604,0.0002422351,0.0003747065,1.0,0.0,0.0,0.0,0
6263000,6263000,0.99999976,0.0006448169,0.00016151821,0.0004776014,1.0,0.0,0.0,0.0,0
6271000,6271000,0.9999997,0.0007055254,0.00011349528,0.00033495133,1.0,0.0,0.0,0.0,0
6283000,6283000,0.9999998,0.00060046767,-2.1727903e-05,0.00025684483,1.0,0.0,0.0,0.0,0
6291000,6291000,0.99999994,0.00051083276,-3.70081e-05,0.00028903256,1.0,0.0,0.0,0.0,0
6303000,6303000,0.9999998,0.00051919644,-0.00013050604,0.0003059411,1.0,0.0,0.0,0.0,0
6311000,6311000,0.9999998,0.00053298834,-0.00016442391,0.00030253173,1.0,0.0,0.0,0.0,0
6323000,6323000,0.9999998,0.0004947341,-0.00031397212,0.0003823695,1.0,0.0,0.0,0.0,0
6331000,6331000,0.9999998,0.0004999156,-0.00031927938,0.00036787608,1.0,0.0,0.0,0.0,0
6343000,6343000,0.9999997,0.00055351906,-0.00021122202,0.00043202206,1.0,0.0,0.0,0.0,0
6351000,6351000,0.9999998,0.0005129849,-0.00013830903,0.00037769275,1.0,0.0,0.0,0.0,0
6363000,6363000,0.9999999,0.00039872786,-3.7863927e-05,0.00039983116,1.0,0.0,0.0,0.0,0
6371000,6371000,0.9999999,0.0004015445,8.069229e-05,0.0003583689,1.0,0.0,0.0,0.0,0
6383000,6383000,0.7031812,0.00017754377,0.00049012544,0.7110105,0.70346093,-1.1695533e-11,5.592682e-11,0.7107339,1
6391000,6391000,0.70318836,0.00017053734,0.00045742793,0.7110035,0.70346093,-1.1695533e-11,5.592682e-11,0.7107339,1
6403000,6403000,0.70322067,8.674592e-05,0.00035347993,0.71097165,0.70346093,-1.1695533e-11,5.592682e-11,0.7107339,1
6411000,6411000,0.70326674,0.00011203286,0.00031457702,0.71092606,0.70346093,-1.1695533e-11,5.592682e-11,0.7107339,1
6423000,6423000,0.7032433,8.170259e-05,0.00024908362,0.71094924,0.70346093,-1.1695533e-11,5.592682e-11,0.7107339,1
6431000,6431000,0.70320004,7.937137e-05,0.00017367155,0.7109921,0.70346093,-1.1695533e-11,5.592682e-11,0.7107339,1
6443000,6443000,0.7031686,9.846292e-05,0.00021860348,0.7110232,0.70346093,-1.1695533e-11,5.592682e-11,0.7107339,1
6451000,6451000,0.70323014,0.00015157838,0.00019074533,0.7109623,0.70346093,-1.1695533e-11,5.592682e-11,0.7107339,1
6463000,6463000,0.70321524,0.000235344,0.00018559543,0.710977,0.70346093,-1.1695533e-11,5.592682e-11,0.7107339,1
6471000,6471000,0.70319915,0.00033906824,0.0001929711,0.71099293,0.70346093,-1.1695533e-11,5.592682e-11,0.7107339,1
6483000,6483000,0.70318425,0.00038527758,8.992013e-05,0.7110076,0.70346093,-1.1695533e-11,5.592682e-11,0.7107339,1
6491000,6491000,0.70313895,0.00032111214,3.6706842e-05,0.7110524,0.70346093,-1.1695533e-11,5.592682e-11,0.7107339,1
6503000,6503000,0.7030012,0.00030528844,-9.7410004e-05,0.7111886,0.70346093,-1.1695533e-11,5.592682e-11,0.7107339,1
6511000,6511000,0.70291036,0.00032421117,-0.00018391063,0.7112783,0.70346093,-1.1695533e-11,5.592682e-11,0.7107339,1
6523000,6523000,0.702923,0.0004453703,-0.00016165202,0.7112658,0.70346093,-1.1695533e-11,5.592682e-11,0.7107339,1
6531000,6531000,0.7028437,0.00047701632,-0.000157187,0.7113441,0.70346093,-1.1695533e-11,5.592682e-11,0.7107339,1
6543000,6543000,0.7027298,0.00045869214,-0.00019831475,0.7114567,0.70346093,-1.1695533e-11,5.592682e-11,0.7107339,1
6551000,6551000,0.70272315,0.00049081026,-0.0002268957,0.7114633,0.70346093,-1.1695533e-11,5.592682e-11,0.7107339,1
6563000,6563000,0.7027504,0.00043261526,-0.00035551182,0.71143633,0.70346093,-1.1695533e-11,5.592682e-11,0.7107339,1
6571000,6571000,0.7027069,0.0005046135,-0.00036949414,0.71147925,0.70346093,-1.1695533e-11,5.592682e-11,0.7107339,1
6583000,6583000,0.7027504,0.0004996673,-0.00031001278,0.71143633,0.70346093,-1.1695533e-11,5.592682e-11,0.7107339,1
6591000,6591000,0.70275235,0.00045866225,-0.0002967034,0.7114344,0.70346093,-1.1695533e-11,5.592682e-11,0.7107339,1
6603000,6603000,0.70274717,0.00023554581,-0.00025436943,0.71143967,0.70346093,-1.1695533e-11,5.592682e-11,0.7107339,1
6611000,6611000,0.70281523,0.00015880603,-0.00021065059,0.71137244,0.70346093,-1.1695533e-11,5.592682e-11,0.7107339,1
6623000,6623000,0.7028884,0.00010252279,-0.00025171664,0.71130013,0.70346093,-1.1695533e-11,5.592682e-11,0.7107339,1
6631000,6631000,0.70295966,2.0060834e-05,-0.00024259195,0.71122974,0.70346093,-1.1695533e-11,5.592682e-11,0.7107339,1
6643000,6643000,0.70291054,5.8711783e-05,-0.0002739602,0.71127826,0.70346093,-1.1695533e-11,5.592682e-11,0.7107339,1
6651000,6651000,0.702877,0.00014231222,-0.00032041853,0.71131146,0.70346093,-1.1695533e-11,5.592682e-11,0.7107339,1
6663000,6663000,0.70284826,0.0001358176,-0.00050220604,0.7113397,0.70346093,-1.1695533e-11,5.592682e-11,0.7107339,1
6671000,6671000,0.70284855,0.00016429847,-0.00050175114,0.7113394,0.70346093,-1.1695533e-11,5.592682e-11,0.7107339,1
6683000,6683000,0.70269746,0.00018642163,-0.0005843152,0.7114886,0.70346093,-1.1695533e-11,5.592682e-11,0.7107339,1
6691000,6691000,0.70268625,0.00017724207,-0.0005134192,0.7114997,0.70346093,-1.1695533e-11,5.592682e-11,0.7107339,1
6703000,6703000,0.70261675,0.0003408417,-0.00062373333,0.7115682,0.70346093,-1.1695533e-11,5.592682e-11,0.7107339,1
6711000,6711000,0.70255715,0.00035239104,-0.0006976766,0.711627,0.70346093,-1.1695533e-11,5.592682e-11,0.7107339,1
6723000,6723000,0.70260024,0.00037330383,-0.00075843895,0.7115843,0.70346093,-1.1695533e-11,5.592682e-11,0.7107339,1
6731000,6731000,0.7025804,0.00027048626,-0.0008444282,0.7116038,0.70346093,-1.1695533e-11,5.592682e-11,0.7107339,1
6743000,6743000,0.70246845,0.0001517673,-0.00082749885,0.7117144,0.70346093,-1.1695533e-11,5.592682e-11,0.7107339,1
6751000,6751000,0.70235187,0.00020354844,-0.000781866,0.71182954,0.70346093,-1.1695533e-11,5.592682e-11,0.7107339,1
6763000,6763000,0.702313,0.00032038812,-0.00083123776,0.71186775,0.70346093,-1.1695533e-11,5.592682e-11,0.7107339,1
6771000,6771000,0.70233035,0.00025817662,-0.0007837608,0.7118507,0.70346093,-1.1695533e-11,5.592682e-11,0.7107339,1
6783000,6783000,0.7023342,6.828346e-05,-0.0007512838,0.71184695,0.70346093,-1.1695533e-11,5.592682e-11,0.7107339,1
6791000,6791000,0.70228124,0.000102894264,-0.0007792931,0.7118992,0.70346093,-1.1695533e-11,5.592682e-11,0.7107339,1
6803000,6803000,0.70216244,0.00016667746,-0.0008035508,0.71201634,0.70346093,-1.1695533e-11,5.592682e-11,0.7107339,1
6811000,6811000,0.70212585,0.00014073943,-0.00084745,0.71205235,0.70346093,-1.1695533e-11,5.592682e-11,0.7107339,1
6823000,6823000,0.70206016,0.00025472135,-0.0008359767,0.7121172,0.70346093,-1.1695533e-11,5.592682e-11,0.7107339,1
6831000,6831000,0.7020413,0.00023961418,-0.00081730034,0.7121357,0.70346093,-1.1695533e-11,5.592682e-11,0.7107339,1
6843000,6843000,0.70210636,0.00016474239,-0.00072053215,0.7120717,0.70346093,-1.1695533e-11,5.592682e-11,0.7107339,1
6851000,6851000,0.7021819,0.0002506116,-0.00075424934,0.71199715,0.70346093,-1.1695533e-11,5.592682e-11,0.7107339,1
6863000,6863000,0.7021438,0.0003176354,-0.000713792,0.7120348,0.70346093,-1.1695533e-11,5.592682e-11,0.7107339,1
6871000,6871000,0.7022032,0.00025654494,-0.0007714585,0.7119762,0.70346093,-1.1695533e-11,5.592682e-11,0.7107339,1
6883000,6883000,0.7022436,0.00011407644,-0.00081022375,0.71193624,0.70346093,-1.1695533e-11,5.592682e-11,0.7107339,1
6891000,6891000,0.7022354,8.51827e-05,-0.0007511933,0.7119445,0.70346093,-1.1695533e-11,5.592682e-11,0.7107339,1
6903000,6903000,0.70227075,-9.011816e-06,-0.00056308496,0.71190983,0.70346093,-1.1695533e-11,5.592682e-11,0.7107339,1
6911000,6911000,0.70227975,0.00010623364,-0.00044155828,0.71190095,0.70346093,-1.1695533e-11,5.592682e-11,0.7107339,1
6923000,6923000,0.7023084,0.00027273467,-0.00059236394,0.71187264,0.70346093,-1.1695533e-11,5.592682e-11,0.7107339,1
6931000,6931000,0.70228416,0.00034981567,-0.00063407456,0.71189636,0.70346093,-1.1695533e-11,5.592682e-11,0.7107339,1
6943000,6943000,0.70226246,0.00040353488,-0.00069620943,0.71191776,0.70346093,-1.1695533e-11,5.592682e-11,0.7107339,1
6951000,6951000,0.70220464,0.00035535553,-0.0007778416,0.71197474,0.70346093,-1.1695533e-11,5.592682e-11,0.7107339,1
6963000,6963000,0.70207554,0.00030347847,-0.0008326716,0.712102,0.70346093,-1.1695533e-11,5.592682e-11,0.7107339,1
6971000,6971000,0.70211864,0.00024320507,-0.00084944535,0.71205944,0.70346093,-1.1695533e-11,5.592682e-11,0.7107339,1
6983000,6983000,0.7021926,0.00030596234,-0.0009272836,0.7119865,0.70346093,-1.1695533e-11,5.592682e-11,0.7107339,1
6991000,6991000,0.70227253,0.0003121619,-0.00091933826,0.71190757,0.70346093,-1.1695533e-11,5.592682e-11,0.7107339,1
7003000,7003000,0.70222986,0.00028201926,-0.0009223583,0.7119497,0.70346093,-1.1695533e-11,5.592682e-11,0.7107339,1
7011000,7011000,0.7021384,0.0003062478,-0.0008400316,0.71203995,0.70346093,-1.1695533e-11,5.592682e-11,0.7107339,1
7023000,7023000,0.702126,0.0003059431,-0.0008320855,0.7120522,0.70346093,-1.1695533e-11,5.592682e-11,0.7107339,1
7031000,7031000,0.70211416,0.00029939789,-0.0009230687,0.7120638,0.70346093,-1.1695533e-11,5.592682e-11,0.7107339,1
7043000,7043000,0.70215744,0.00038607258,-0.0010563069,0.7120209,0.70346093,-1.1695533e-11,5.592682e-11,0.7107339,1
7051000,7051000,0.702157,0.00042874974,-0.001088442,0.7120212,0.70346093,-1.1695533e-11,5.592682e-11,0.7107339,1
7063000,7063000,0.7021138,0.00052705815,-0.0010636485,0.7120638,0.70346093,-1.1695533e-11,5.592682e-11,0.7107339,1
7071000,7071000,0.70208377,0.00053317106,-0.0010063077,0.71209353,0.70346093,-1.1695533e-11,5.592682e-11,0.7107339,1
7083000,7083000,0.7020783,0.00062405766,-0.0010454105,0.71209884,0.70346093,-1.1695533e-11,5.592682e-11,0.7107339,1
7091000,7091000,0.70204073,0.00061645644,-0.0010931537,0.71213573,0.70346093,-1.1695533e-11,5.592682e-11,0.7107339,1
7103000,7103000,0.7020029,0.00048673403,-0.0010577362,0.71217316,0.70346093,-1.1695533e-11,5.592682e-11,0.7107339,1
7111000,7111000,0.70201623,0.00043881792,-0.0011329952,0.71216,0.70346093,-1.1695533e-11,5.592682e-11,0.7107339,1
7123000,7123000,0.7019394,0.00038576245,-0.0012749467,0.7122355,0.70346093,-1.1695533e-11,5.592682e-11,0.7107339,1
7131000,7131000,0.70192075,0.0004052421,-0.0012227613,0.712254,0.70346093,-1.1695533e-11,5.592682e-11,0.7107339,1
7143000,7143000,0.7019278,0.00036683632,-0.0012933234,0.71224684,0.70346093,-1.1695533e-11,5.592682e-11,0.7107339,1
7151000,7151000,0.7018748,0.00033286208,-0.0013311482,0.712299,0.70346093,-1.1695533e-11,5.592682e-11,0.7107339,1
7163000,7163000,0.70186585,0.0004269629,-0.0015148183,0.71230745,0.70346093,-1.1695533e-11,5.592682e-11,0.7107339,1
7171000,7171000,0.70188004,0.00051912875,-0.001559937,0.7122933,0.70346093,-1.1695533e-11,5.592682e-11,0.7107339,1
7183000,7183000,0.70186734,0.000495713,-0.0015580013,0.7123059,0.70346093,-1.1695533e-11,5.592682e-11,0.7107339,1
7191000,7191000,0.70191383,0.0005064019,-0.001506126,0.7122602,0.70346093,-1.1695533e-11,5.592682e-11,0.7107339,1
7203000,7203000,0.7018495,0.00036468793,-0.0015400948,0.7123235,0.70346093,-1.1695533e-11,5.592682e-11,0.7107339,1
7211000,7211000,0.7018268,0.00038596877,-0.0015996537,0.7123457,0.70346093,-1.1695533e-11,5.592682e-11,0.7107339,1
7223000,7223000,0.7018034,0.00042724048,-0.0017410757,0.7123685,0.70346093,-1.1695533e-11,5.592682e-11,0.7107339,1
7231000,7231000,0.7017553,0.00038005164,-0.0017555817,0.7124159,0.70346093,-1.1695533e-11,5.592682e-11,0.7107339,1
7243000,7243000,0.70163566,0.0003755647,-0.0018348659,0.71253353,0.70346093,-1.1695533e-11,5.592682e-11,0.7107339,1
7251000,7251000,0.70153576,0.0004868274,-0.0018402755,0.7126317,0.70346093,-1.1695533e-11,5.592682e-11,0.7107339,1
7263000,7263000,0.7014556,0.000573945,-0.001840423,0.71271056,0.70346093,-1.1695533e-11,5.592682e-11,0.7107339,1
7271000,7271000,0.70142895,0.00044803703,-0.0017931919,0.71273696,0.70346093,-1.1695533e-11,5.592682e-11,0.7107339,1
7283000,7283000,0.7014574,0.0004084488,-0.0017409725,0.7127091,0.70346093,-1.1695533e-11,5.592682e-11,0.7107339,1
7291000,7291000,0.70145524,0.00036145904,-0.0016934414,0.71271145,0.70346093,-1.1695533e-11,5.592682e-11,0.7107339,1
7303000,7303000,0.70145947,0.0004737977,-0.0018484223,0.7127068,0.70346093,-1.1695533e-11,5.592682e-11,0.7107339,1
7311000,7311000,0.7015042,0.00052248256,-0.0019134452,0.71266264,0.70346093,-1.1695533e-11,5.592682e-11,0.7107339,1
7323000,7323000,0.7013661,0.000391685,-0.002101165,0.712798,0.70346093,-1.1695533e-11,5.592682e-11,0.7107339,1
7331000,7331000,0.7013441,0.0003445451,-0.0022483347,0.7128193,0.70346093,-1.1695533e-11,5.592682e-11,0.7107339,1
7343000,7343000,0.7013637,0.0004420475,-0.0022432809,0.7127999,0.70346093,-1.1695533e-11,5.592682e-11,0.7107339,1
7351000,7351000,0.7013668,0.00048649329,-0.0022823391,0.71279675,0.70346093,-1.1695533e-11,5.592682e-11,0.7107339,1
7363000,7363000,0.70139676,0.00048347886,-0.0023355456,0.7127671,0.70346093,-1.1695533e-11,5.592682e-11,0.7107339,1
7371000,7371000,0.70143497,0.00046764076,-0.0023456716,0.7127295,0.70346093,-1.1695533e-11,5.592682e-11,0.7107339,1
7383000,7383000,0.7014764,0.00027916988,-0.0023756071,0.71268874,0.70346093,-1.1695533e-11,5.592682e-11,0.7107339,1
7391000,7391000,0.70150036,0.00024512917,-0.002410355,0.712665,0.70346093,-1.1695533e-11,5.592682e-11,0.7107339,1
7403000,7403000,0.70149696,0.00027837037,-0.0023114544,0.71266866,0.70346093,-1.1695533e-11,5.592682e-11,0.7107339,1
7411000,7411000,0.70152295,0.00027609046,-0.002255537,0.71264327,0.70346093,-1.1695533e-11,5.592682e-11,0.7107339,1
7423000,7423000,0.70151263,0.00021717846,-0.002320953,0.7126532,0.70346093,-1.1695533e-11,5.592682e-11,0.7107339,1
7431000,7431000,0.7015058,0.00028472178,-0.0023360502,0.7126599,0.70346093,-1.1695533e-11,5.592682e-11,0.7107339,1
7443000,7443000,0.70144314,0.00026920313,-0.002405141,0.7127213,0.70346093,-1.1695533e-11,5.592682e-11,0.7107339,1
7451000,7451000,0.7014165,0.0002810118,-0.002566461,0.71274704,0.70346093,-1.1695533e-11,5.592682e-11,0.7107339,1
7463000,7463000,0.7013593,0.00024862832,-0.0026155578,0.7128031,0.70346093,-1.1695533e-11,5.592682e-11,0.7107339,1
7471000,7471000,0.701299,0.00025375022,-0.0026636203,0.7128623,0.70346093,-1.1695533e-11,5.592682e-11,0.7107339,1
7483000,7483000,0.7012145,0.00030986557,-0.0027533544,0.7129451,0.70346093,-1.1695533e-11,5.592682e-11,0.7107339,1
7491000,7491000,0.7011919,0.0002870815,-0.0028292013,0.7129669,0.70346093,-1.1695533e-11,5.592682e-11,0.7107339,1
7503000,7503000,0.7011199,0.00028899792,-0.002838585,0.7130378,0.70346093,-1.1695533e-11,5.592682e-11,0.7107339,1
7511000,7511000,0.7011341,0.00025667273,-0.0028127022,0.71302384,0.70346093,-1.1695533e-11,5.592682e-11,0.7107339,1
7523000,7523000,0.70110047,0.00023372391,-0.002857507,0.7130568,0.70346093,-1.1695533e-11,5.592682e-11,0.7107339,1
7531000,7531000,0.7010899,0.00025522689,-0.0028042065,0.71306735,0.70346093,-1.1695533e-11,5.592682e-11,0.7107339,1
7543000,7543000,0.70109516,0.00022620316,-0.002860008,0.713062,0.70346093,-1.1695533e-11,5.592682e-11,0.7107339,1
7551000,7551000,0.7010962,0.00026225403,-0.0028899957,0.7130609,0.70346093,-1.1695533e-11,5.592682e-11,0.7107339,1
7563000,7563000,0.701092,7.3082876e-05,-0.0029050787,0.71306497,0.70346093,-1.1695533e-11,5.592682e-11,0.7107339,1
7571000,7571000,0.70104784,6.0484293e-05,-0.0027914252,0.7131088,0.70346093,-1.1695533e-11,5.592682e-11,0.7107339,1
7583000,7583000,0.7009869,0.00014989119,-0.0027797827,0.7131687,0.70346093,-1.1695533e-11,5.592682e-11,0.7107339,1
7591000,7591000,0.7009367,0.00019290895,-0.0028093853,0.713218,0.70346093,-1.1695533e-11,5.592682e-11,0.7107339,1
7603000,7603000,0.70078737,0.00019922067,-0.002739908,0.713365,0.70346093,-1.1695533e-11,5.592682e-11,0.7107339,1
7611000,7611000,0.7007819,0.00013855642,-0.0027604897,0.7133703,0.70346093,-1.1695533e-11,5.592682e-11,0.7107339,1
7623000,7623000,0.7008195,-8.756495e-05,-0.002875144,0.7133329,0.70346093,-1.1695533e-11,5.592682e-11,0.7107339,1
7631000,7631000,0.70081806,-0.000114235314,-0.0028907952,0.7133342,0.70346093,-1.1695533e-11,5.592682e-11,0.7107339,1
7643000,7643000,0.7008716,-0.00014239775,-0.0029628873,0.7132814,0.70346093,-1.1695533e-11,5.592682e-11,0.7107339,1
7651000,7651000,0.7009518,-0.00022286427,-0.002978189,0.7132024,0.70346093,-1.1695533e-11,5.592682e-11,0.7107339,1
7663000,7663000,0.70105726,-0.00020257688,-0.0029837973,0.7130987,0.70346093,-1.1695533e-11,5.592682e-11,0.7107339,1
7671000,7671000,0.70098513,-0.00019449717,-0.003038347,0.71316946,0.70346093,-1.1695533e-11,5.592682e-11,0.7107339,1
7683000,7683000,0.7009728,-0.000309352,-0.0030702131,0.7131813,0.70346093,-1.1695533e-11,5.592682e-11,0.7107339,1
7691000,7691000,0.7009526,-0.00027441606,-0.003055282,0.7132013,0.70346093,-1.1695533e-11,5.592682e-11,0.7107339,1
7703000,7703000,0.700977,-0.00014048004,-0.0031345831,0.71317697,0.70346093,-1.1695533e-11,5.592682e-11,0.7107339,1
7711000,7711000,0.7009775,-0.00015982366,-0.0031804503,0.71317637,0.70346093,-1.1695533e-11,5.592682e-11,0.7107339,1
7723000,7723000,0.7010255,-0.00018267913,-0.0032896723,0.7131286,0.70346093,-1.1695533e-11,5.592682e-11,0.7107339,1
7731000,7731000,0.701047,-0.00029775867,-0.0033511207,0.71310717,0.70346093,-1.1695533e-11,5.592682e-11,0.7107339,1
7743000,7743000,0.70102155,-0.00027684149,-0.00329411,0.7131325,0.70346093,-1.1695533e-11,5.592682e-11,0.7107339,1
7751000,7751000,0.70100623,-0.0003104762,-0.0033342126,0.7131474,0.70346093,-1.1695533e-11,5.592682e-11,0.7107339,1
7763000,7763000,0.7010351,-0.0002790538,-0.003346778,0.71311885,0.70346093,-1.1695533e-11,5.592682e-11,0.7107339,1
7771000,7771000,0.70104235,-0.0002601422,-0.0033466045,0.7131118,0.70346093,-1.1695533e-11,5.592682e-11,0.7107339,1
7783000,7783000,0.70107317,-0.00021493784,-0.0034806367,0.7130809,0.70346093,-1.1695533e-11,5.592682e-11,0.7107339,1
7791000,7791000,0.70107204,-0.00012894643,-0.0035278248,0.7130818,0.70346093,-1.1695533e-11,5.592682e-11,0.7107339,1
7803000,7803000,0.70107055,-0.00019033146,-0.003610015,0.71308285,0.70346093,-1.1695533e-11,5.592682e-11,0.7107339,1
7811000,7811000,0.7010036,-0.00017995338,-0.0037019972,0.7131482,0.70346093,-1.1695533e-11,5.592682e-11,0.7107339,1
7823000,7823000,0.7008921,-2.000329e-05,-0.0038853888,0.71325684,0.70346093,-1.1695533e-11,5.592682e-11,0.7107339,1
7831000,7831000,0.7008513,0.00026204597,-0.0038387803,0.71329707,0.70346093,-1.1695533e-11,5.592682e-11,0.7107339,1
7843000,7843000,0.7008755,0.00029279187,-0.003830121,0.7132733,0.70346093,-1.1695533e-11,5.592682e-11,0.7107339,1
7851000,7851000,0.70090026,0.00016337444,-0.0038531553,0.71324885,0.70346093,-1.1695533e-11,5.592682e-11,0.7107339,1
7863000,7863000,0.70090204,9.429587e-05,-0.0038777776,0.713247,0.70346093,-1.1695533e-11,5.592682e-11,0.7107339,1
7871000,7871000,0.7008814,1.8196288e-05,-0.0039140643,0.71326715,0.70346093,-1.1695533e-11,5.592682e-11,0.7107339,1
7883000,7883000,0.7008296,-3.5112524e-05,-0.0039574625,0.7133178,0.70346093,-1.1695533e-11,5.592682e-11,0.7107339,1
7891000,7891000,0.7008487,7.854067e-05,-0.003969663,0.7132989,0.70346093,-1.1695533e-11,5.592682e-11,0.7107339,1
7903000,7903000,0.7007928,0.00018486273,-0.0040086573,0.7133536,0.70346093,-1.1695533e-11,5.592682e-11,0.7107339,1
7911000,7911000,0.7007384,0.00025235006,-0.00406954,0.7134067,0.70346093,-1.1695533e-11,5.592682e-11,0.7107339,1
7923000,7923000,0.7007203,0.00026852096,-0.004087103,0.7134243,0.70346093,-1.1695533e-11,5.592682e-11,0.7107339,1
7931000,7931000,0.7007317,0.00031713617,-0.004116707,0.713413,0.70346093,-1.1695533e-11,5.592682e-11,0.7107339,1
7943000,7943000,0.70066166,0.0005525271,-0.004128318,0.7134816,0.70346093,-1.1695533e-11,5.592682e-11,0.7107339,1
7951000,7951000,0.70066327,0.0005552409,-0.0042700516,0.71347916,0.70346093,-1.1695533e-11,5.592682e-11,0.7107339,1
7963000,7963000,0.7006557,0.000499398,-0.00432925,0.71348625,0.70346093,-1.1695533e-11,5.592682e-11,0.7107339,1
7971000,7971000,0.70071816,0.0005205786,-0.004413773,0.7134244,0.70346093,-1.1695533e-11,5.592682e-11,0.7107339,1
7983000,7983000,0.7007015,0.00045484747,-0.004482285,0.71344036,0.70346093,-1.1695533e-11,5.592682e-11,0.7107339,1
7991000,7991000,0.70072186,0.00040890745,-0.0044859783,0.7134204,0.70346093,-1.1695533e-11,5.592682e-11,0.7107339,1
8003000,8003000,0.70072997,0.0004415075,-0.0043929988,0.713413,0.70346093,-1.1695533e-11,5.592682e-11,0.7107339,1
8011000,8011000,0.7007371,0.0006372453,-0.004377113,0.7134059,0.70346093,-1.1695533e-11,5.592682e-11,0.7107339,1
8023000,8023000,0.7007201,0.00086157786,-0.004365527,0.7134225,0.70346093,-1.1695533e-11,5.592682e-11,0.7107339,1
8031000,8031000,0.70073855,0.0008915562,-0.0044090273,0.71340406,0.70346093,-1.1695533e-11,5.592682e-11,0.7107339,1
8043000,8043000,0.7007143,0.0008476712,-0.004463784,0.71342754,0.70346093,-1.1695533e-11,5.592682e-11,0.7107339,1
8051000,8051000,0.7006451,0.00086462166,-0.004574098,0.71349484,0.70346093,-1.1695533e-11,5.592682e-11,0.7107339,1
8063000,8063000,0.7005286,0.0008506285,-0.004649716,0.71360874,0.70346093,-1.1695533e-11,5.592682e-11,0.7107339,1
8071000,8071000,0.7004798,0.00083074445,-0.0046108286,0.7136569,0.70346093,-1.1695533e-11,5.592682e-11,0.7107339,1
8083000,8083000,0.7005837,0.0007611594,-0.0046694796,0.71355456,0.70346093,-1.1695533e-11,5.592682e-11,0.7107339,1
8091000,8091000,0.7006174,0.00077668735,-0.00470783,0.71352124,0.70346093,-1.1695533e-11,5.592682e-11,0.7107339,1
8103000,8103000,0.70067614,0.0009621738,-0.004886329,0.7134621,0.70346093,-1.1695533e-11,5.592682e-11,0.7107339,1
8111000,8111000,0.7007451,0.00094284053,-0.0050526946,0.7133932,0.70346093,-1.1695533e-11,5.592682e-11,0.7107339,1
8123000,8123000,0.7007709,0.0009901244,-0.0051365597,0.7133673,0.70346093,-1.1695533e-11,5.592682e-11,0.7107339,1
8131000,8131000,0.70080113,0.00094749825,-0.0051458264,0.71333754,0.70346093,-1.1695533e-11,5.592682e-11,0.7107339,1
8143000,8143000,0.7008262,0.0008948619,-0.0052627367,0.7133121,0.70346093,-1.1695533e-11,5.592682e-11,0.7107339,1
8151000,8151000,0.7007547,0.0008964245,-0.005260152,0.7133824,0.70346093,-1.1695533e-11,5.592682e-11,0.7107339,1
8163000,8163000,0.70066714,0.0008420049,-0.00523423,0.7134687,0.70346093,-1.1695533e-11,5.592682e-11,0.7107339,1
8171000,8171000,0.70062107,0.00079421996,-0.0052694413,0.7135137,0.70346093,-1.1695533e-11,5.592682e-11,0.7107339,1
8183000,8183000,0.70058435,0.0008211217,-0.005328,0.7135492,0.70346093,-1.1695533e-11,5.592682e-11,0.7107339,1
8191000,8191000,0.7005942,0.0008260921,-0.005339049,0.71353954,0.70346093,-1.1695533e-11,5.592682e-11,0.7107339,1
8203000,8203000,0.7006404,0.00085530535,-0.005346046,0.7134941,0.70346093,-1.1695533e-11,5.592682e-11,0.7107339,1
8211000,8211000,0.700587,0.0009984138,-0.005418539,0.71354586,0.70346093,-1.1695533e-11,5.592682e-11,0.7107339,1
8223000,8223000,0.70047885,0.0009992049,-0.0055003637,0.71365136,0.70346093,-1.1695533e-11,5.592682e-11,0.7107339,1
8231000,8231000,0.70043373,0.0010202798,-0.005464845,0.7136959,0.70346093,-1.1695533e-11,5.592682e-11,0.7107339,1
8243000,8243000,0.70046836,0.0010378683,-0.005304293,0.713663,0.70346093,-1.1695533e-11,5.592682e-11,0.7107339,1
8251000,8251000,0.70040154,0.0009921333,-0.0052906265,0.7137288,0.70346093,-1.1695533e-11,5.592682e-11,0.7107339,1
8263000,8263000,0.70034057,0.001035619,-0.0053689037,0.71378803,0.70346093,-1.1695533e-11,5.592682e-11,0.7107339,1
8271000,8271000,0.70031196,0.0010961225,-0.005470289,0.7138152,0.70346093,-1.1695533e-11,5.592682e-11,0.7107339,1
8283000,8283000,0.70025164,0.0010070931,-0.0055737086,0.7138737,0.70346093,-1.1695533e-11,5.592682e-11,0.7107339,1
8291000,8291000,0.7002888,0.0009767972,-0.005565237,0.7138373,0.70346093,-1.1695533e-11,5.592682e-11,0.7107339,1
8303000,8303000,0.70033675,0.00094119244,-0.0055932784,0.7137901,0.70346093,-1.1695533e-11,5.592682e-11,0.7107339,1
8311000,8311000,0.70036197,0.0009353603,-0.0056605437,0.71376485,0.70346093,-1.1695533e-11,5.592682e-11,0.7107339,1
8323000,8323000,0.7003157,0.001015037,-0.0057936898,0.7138091,0.70346093,-1.1695533e-11,5.592682e-11,0.7107339,1
8331000,8331000,0.70034325,0.001065716,-0.005808101,0.71378183,0.70346093,-1.1695533e-11,5.592682e-11,0.7107339,1
8343000,8343000,0.7002847,0.0009642023,-0.005973193,0.71383804,0.70346093,-1.1695533e-11,5.592682e-11,0.7107339,1
8351000,8351000,0.7001842,0.0009865621,-0.0060035265,0.71393627,0.70346093,-1.1695533e-11,5.592682e-11,0.7107339,1
8363000,8363000,0.7001288,0.0009927815,-0.00592132,0.7139914,0.70346093,-1.1695533e-11,5.592682e-11,0.7107339,1
8371000,8371000,0.70009106,0.00094083307,-0.005840093,0.7140291,0.70346093,-1.1695533e-11,5.592682e-11,0.7107339,1
8383000,8383000,0.7000805,0.0010092151,-0.005895856,0.7140389,0.70346093,-1.1695533e-11,5.592682e-11,0.7107339,1
8391000,8391000,0.70006037,0.0009608,-0.0059573418,0.7140582,0.70346093,-1.1695533e-11,5.592682e-11,0.7107339,1
8403000,8403000,0.6999542,0.0009627922,-0.0060383934,0.71416163,0.70346093,-1.1695533e-11,5.592682e-11,0.7107339,1
8411000,8411000,0.6999039,0.00084457814,-0.0060332306,0.7142111,0.70346093,-1.1695533e-11,5.592682e-11,0.7107339,1
8423000,8423000,0.70000887,0.00086243293,-0.0060822694,0.71410775,0.70346093,-1.1695533e-11,5.592682e-11,0.7107339,1
8431000,8431000,0.7001042,0.0008882674,-0.0060028085,0.71401495,0.70346093,-1.1695533e-11,5.592682e-11,0.7107339,1
8443000,8443000,0.7000616,0.00090355944,-0.0060671144,0.71405613,0.70346093,-1.1695533e-11,5.592682e-11,0.7107339,1
8451000,8451000,0.70006084,0.0008603271,-0.0060803383,0.7140568,0.70346093,-1.1695533e-11,5.592682e-11,0.7107339,1
8463000,8463000,0.7000378,0.00080267055,-0.0060787564,0.71407956,0.70346093,-1.1695533e-11,5.592682e-11,0.7107339,1
8471000,8471000,0.7000002,0.0008473123,-0.0061204406,0.714116,0.70346093,-1.1695533e-11,5.592682e-11,0.7107339,1
8483000,8483000,0.70002896,0.00091913535,-0.006259804,0.71408653,0.70346093,-1.1695533e-11,5.592682e-11,0.7107339,1
8491000,8491000,0.7000547,0.00081971014,-0.006206155,0.71406186,0.70346093,-1.1695533e-11,5.592682e-11,0.7107339,1
8503000,8503000,0.70000714,0.0008439933,-0.006180746,0.7141086,0.70346093,-1.1695533e-11,5.592682e-11,0.7107339,1
8511000,8511000,0.6999263,0.0009526747,-0.006255567,0.7141871,0.70346093,-1.1695533e-11,5.592682e-11,0.7107339,1
8523000,8523000,0.6997968,0.0009975709,-0.00637612,0.71431285,0.70346093,-1.1695533e-11,5.592682e-11,0.7107339,1
8531000,8531000,0.6997351,0.0010441289,-0.0063446714,0.7143735,0.70346093,-1.1695533e-11,5.592682e-11,0.7107339,1
8543000,8543000,0.6996547,0.0009793444,-0.006310741,0.7144526,0.70346093,-1.1695533e-11,5.592682e-11,0.7107339,1
8551000,8551000,0.6996466,0.0009841458,-0.0063275825,0.7144604,0.70346093,-1.1695533e-11,5.592682e-11,0.7107339,1
8563000,8563000,0.69971186,0.0010185906,-0.006376335,0.714396,0.70346093,-1.1695533e-11,5.592682e-11,0.7107339,1
8571000,8571000,0.69973844,0.0010289998,-0.006376975,0.71436995,0.70346093,-1.1695533e-11,5.592682e-11,0.7107339,1
8583000,8583000,0.6997558,0.0009834424,-0.006422854,0.71435267,0.70346093,-1.1695533e-11,5.592682e-11,0.7107339,1
8591000,8591000,0.69969636,0.00100421,-0.0063878107,0.71441114,0.70346093,-1.1695533e-11,5.592682e-11,0.7107339,1
8603000,8603000,0.6996741,0.0011854651,-0.0064083217,0.7144325,0.70346093,-1.1695533e-11,5.592682e-11,0.7107339,1
8611000,8611000,0.6996013,0.001168241,-0.0064788912,0.71450317,0.70346093,-1.1695533e-11,5.592682e-11,0.7107339,1
8623000,8623000,0.699569,0.0011654744,-0.0065314663,0.7145343,0.70346093,-1.1695533e-11,5.592682e-11,0.7107339,1
8631000,8631000,0.69955677,0.0011555948,-0.0065865084,0.7145457,0.70346093,-1.1695533e-11,5.592682e-11,0.7107339,1
8643000,8643000,0.6995264,0.0012193782,-0.006603969,0.7145752,0.70346093,-1.1695533e-11,5.592682e-11,0.7107339,1
8651000,8651000,0.69952166,0.0012664649,-0.006645647,0.71457946,0.70346093,-1.1695533e-11,5.592682e-11,0.7107339,1
8663000,8663000,0.699434,0.0012373801,-0.0068802983,0.7146631,0.70346093,-1.1695533e-11,5.592682e-11,0.7107339,1
8671000,8671000,0.6994054,0.0012041164,-0.00680952,0.71469176,0.70346093,-1.1695533e-11,5.592682e-11,0.7107339,1
8683000,8683000,0.69933933,0.0010937823,-0.0069766073,0.714755,0.70346093,-1.1695533e-11,5.592682e-11,0.7107339,1
8691000,8691000,0.6993655,0.0011220041,-0.0069566676,0.71472955,0.70346093,-1.1695533e-11,5.592682e-11,0.7107339,1
8703000,8703000,0.69934464,0.0011522841,-0.006950079,0.71474993,0.70346093,-1.1695533e-11,5.592682e-11,0.7107339,1
8711000,8711000,0.6993169,0.001113455,-0.006889913,0.7147777,0.70346093,-1.1695533e-11,5.592682e-11,0.7107339,1
8723000,8723000,0.699343,0.0010511562,-0.0067596533,0.7147535,0.70346093,-1.1695533e-11,5.592682e-11,0.7107339,1
8731000,8731000,0.6993756,0.0010462055,-0.006808847,0.7147212,0.70346093,-1.1695533e-11,5.592682e-11,0.7107339,1
8743000,8743000,0.699443,0.00096607785,-0.0067837257,0.7146556,0.70346093,-1.1695533e-11,5.592682e-11,0.7107339,1
8751000,8751000,0.6994176,0.0010008406,-0.0067830198,0.7146804,0.70346093,-1.1695533e-11,5.592682e-11,0.7107339,1
8763000,8763000,0.69937116,0.0011553403,-0.0067064017,0.7147263,0.70346093,-1.1695533e-11,5.592682e-11,0.7107339,1
8771000,8771000,0.69931865,0.0010236205,-0.0066877357,0.71477807,0.70346093,-1.1695533e-11,5.592682e-11,0.7107339,1
8783000,8783000,0.69927466,0.0009457259,-0.006737758,0.7148208,0.70346093,-1.1695533e-11,5.592682e-11,0.7107339,1
8791000,8791000,0.6992806,0.0009478885,-0.0067138975,0.7148152,0.70346093,-1.1695533e-11,5.592682e-11,0.7107339,1
8803000,8803000,0.6992831,0.0009625751,-0.006574665,0.71481395,0.70346093,-1.1695533e-11,5.592682e-11,0.7107339,1
8811000,8811000,0.6993681,0.00094369875,-0.006448192,0.71473205,0.70346093,-1.1695533e-11,5.592682e-11,0.7107339,1
8823000,8823000,0.69925493,0.00090496155,-0.0063286177,0.7148438,0.70346093,-1.1695533e-11,5.592682e-11,0.7107339,1
8831000,8831000,0.69929636,0.0010446147,-0.0063696327,0.7148028,0.70346093,-1.1695533e-11,5.592682e-11,0.7107339,1
8843000,8843000,0.6993062,0.0011363782,-0.006471151,0.7147921,0.70346093,-1.1695533e-11,5.592682e-11,0.7107339,1
8851000,8851000,0.6992301,0.0010478604,-0.006545758,0.714866,0.70346093,-1.1695533e-11,5.592682e-11,0.7107339,1
8863000,8863000,0.69907373,0.0009666938,-0.006566401,0.71501887,0.70346093,-1.1695533e-11,5.592682e-11,0.7107339,1
8871000,8871000,0.6990087,0.0009425651,-0.006608131,0.7150821,0.70346093,-1.1695533e-11,5.592682e-11,0.7107339,1
8883000,8883000,0.69886607,0.0009084103,-0.0067290775,0.71522033,0.70346093,-1.1695533e-11,5.592682e-11,0.7107339,1
8891000,8891000,0.6988432,0.0009891149,-0.006842112,0.71524155,0.70346093,-1.1695533e-11,5.592682e-11,0.7107339,1
8903000,8903000,0.6988437,0.00091242866,-0.006829415,0.71524125,0.70346093,-1.1695533e-11,5.592682e-11,0.7107339,1
8911000,8911000,0.69886076,0.0009921881,-0.006797276,0.71522474,0.70346093,-1.1695533e-11,5.592682e-11,0.7107339,1
8923000,8923000,0.6988097,0.0011365202,-0.006905875,0.7152735,0.70346093,-1.1695533e-11,5.592682e-11,0.7107339,1
8931000,8931000,0.69877094,0.0011589949,-0.006757196,0.71531266,0.70346093,-1.1695533e-11,5.592682e-11,0.7107339,1
8943000,8943000,0.6987099,0.001211957,-0.006772399,0.7153721,0.70346093,-1.1695533e-11,5.592682e-11,0.7107339,1
8951000,8951000,0.69877386,0.0012454375,-0.0068059494,0.71530914,0.70346093,-1.1695533e-11,5.592682e-11,0.7107339,1
8963000,8963000,0.6988113,0.0012444996,-0.006759344,0.7152731,0.70346093,-1.1695533e-11,5.592682e-11,0.7107339,1
8971000,8971000,0.698814,0.001236525,-0.0067142267,0.71527094,0.70346093,-1.1695533e-11,5.592682e-11,0.7107339,1
8983000,8983000,0.69889194,0.0011325707,-0.0067328443,0.7151947,0.70346093,-1.1695533e-11,5.592682e-11,0.7107339,1
8991000,8991000,0.69889665,0.0010854542,-0.0066582565,0.7151908,0.70346093,-1.1695533e-11,5.592682e-11,0.7107339,1
9003000,9003000,0.6989557,0.0011097639,-0.0068323235,0.7151315,0.70346093,-1.1695533e-11,5.592682e-11,0.7107339,1
9011000,9011000,0.69889504,0.0011249984,-0.0068646707,0.7151905,0.70346093,-1.1695533e-11,5.592682e-11,0.7107339,1
9023000,9023000,0.6987925,0.001079683,-0.0068974243,0.71529037,0.70346093,-1.1695533e-11,5.592682e-11,0.7107339,1
9031000,9031000,0.698846,0.001032448,-0.006871763,0.7152385,0.70346093,-1.1695533e-11,5.592682e-11,0.7107339,1
9043000,9043000,0.69882923,0.001007743,-0.006975859,0.7152539,0.70346093,-1.1695533e-11,5.592682e-11,0.7107339,1
9051000,9051000,0.6988041,0.0009945765,-0.0069059636,0.7152792,0.70346093,-1.1695533e-11,5.592682e-11,0.7107339,1
9063000,9063000,0.6988039,0.0010423072,-0.0068350323,0.7152799,0.70346093,-1.1695533e-11,5.592682e-11,0.7107339,1
9071000,9071000,0.6986707,0.0009995623,-0.0068116393,0.7154103,0.70346093,-1.1695533e-11,5.592682e-11,0.7107339,1
9083000,9083000,0.69858354,0.0009674772,-0.006877305,0.7154948,0.70346093,-1.1695533e-11,5.592682e-11,0.7107339,1
9091000,9091000,0.69857556,0.00092817424,-0.006827332,0.7155032,0.70346093,-1.1695533e-11,5.592682e-11,0.7107339,1
9103000,9103000,0.6985528,0.0010330814,-0.0067455457,0.71552604,0.70346093,-1.1695533e-11,5.592682e-11,0.7107339,1
9111000,9111000,0.6985102,0.0011417059,-0.0067578414,0.71556735,0.70346093,-1.1695533e-11,5.592682e-11,0.7107339,1
9123000,9123000,0.6984629,0.0013654359,-0.006779824,0.7156128,0.70346093,-1.1695533e-11,5.592682e-11,0.7107339,1
9131000,9131000,0.698435,0.001328967,-0.006727323,0.71564066,0.70346093,-1.1695533e-11,5.592682e-11,0.7107339,1
9143000,9143000,0.6983159,0.0011554115,-0.0067870473,0.71575665,0.70346093,-1.1695533e-11,5.592682e-11,0.7107339,1
9151000,9151000,0.6982289,0.0011155689,-0.006889916,0.71584064,0.70346093,-1.1695533e-11,5.592682e-11,0.7107339,1
9163000,9163000,0.6982373,0.0010650685,-0.006882597,0.71583253,0.70346093,-1.1695533e-11,5.592682e-11,0.7107339,1
9171000,9171000,0.6983174,0.001011934,-0.0067722145,0.7157556,0.70346093,-1.1695533e-11,5.592682e-11,0.7107339,1
9183000,9183000,0.6982998,0.0010884401,-0.006922857,0.71577114,0.70346093,-1.1695533e-11,5.592682e-11,0.7107339,1
9191000,9191000,0.69825125,0.0010744492,-0.006959369,0.71581817,0.70346093,-1.1695533e-11,5.592682e-11,0.7107339,1
9203000,9203000,0.698138,0.0011413932,-0.006856409,0.71592957,0.70346093,-1.1695533e-11,5.592682e-11,0.7107339,1
9211000,9211000,0.6981703,0.0012485253,-0.0068086786,0.71589833,0.70346093,-1.1695533e-11,5.592682e-11,0.7107339,1
9223000,9223000,0.6982777,0.0013202628,-0.0069663296,0.71579194,0.70346093,-1.1695533e-11,5.592682e-11,0.7107339,1
9231000,9231000,0.6982592,0.001336246,-0.0069791614,0.7158098,0.70346093,-1.1695533e-11,5.592682e-11,0.7107339,1
9243000,9243000,0.6982886,0.0012982325,-0.0070195324,0.7157808,0.70346093,-1.1695533e-11,5.592682e-11,0.7107339,1
9251000,9251000,0.69828534,0.0013307694,-0.0070111915,0.715784,0.70346093,-1.1695533e-11,5.592682e-11,0.7107339,1
9263000,9263000,0.6982573,0.001339926,-0.0069110077,0.7158123,0.70346093,-1.1695533e-11,5.592682e-11,0.7107339,1
9271000,9271000,0.6982145,0.0013345497,-0.0068079154,0.71585506,0.70346093,-1.1695533e-11,5.592682e-11,0.7107339,1
9283000,9283000,0.6981349,0.0013270193,-0.0067974254,0.7159328,0.70346093,-1.1695533e-11,5.592682e-11,0.7107339,1
9291000,9291000,0.6981367,0.0013830855,-0.006733808,0.7159316,0.70346093,-1.1695533e-11,5.592682e-11,0.7107339,1
9303000,9303000,0.698197,0.0012545277,-0.0066653984,0.7158736,0.70346093,-1.1695533e-11,5.592682e-11,0.7107339,1
9311000,9311000,0.6981415,0.001262103,-0.0066593527,0.7159278,0.70346093,-1.1695533e-11,5.592682e-11,0.7107339,1
9323000,9323000,0.6981422,0.0012439637,-0.0067592044,0.7159262,0.70346093,-1.1695533e-11,5.592682e-11,0.7107339,1
9331000,9331000,0.69815534,0.0013670655,-0.0068242596,0.7159125,0.70346093,-1.1695533e-11,5.592682e-11,0.7107339,1
9343000,9343000,0.6982088,0.0014218651,-0.006754971,0.71586096,0.70346093,-1.1695533e-11,5.592682e-11,0.7107339,1
9351000,9351000,0.6982076,0.0014646002,-0.006862445,0.71586096,0.70346093,-1.1695533e-11,5.592682e-11,0.7107339,1
9363000,9363000,0.69824696,0.0014230924,-0.006907371,0.7158222,0.70346093,-1.1695533e-11,5.592682e-11,0.7107339,1
9371000,9371000,0.6982482,0.0014768793,-0.006885067,0.7158211,0.70346093,-1.1695533e-11,5.592682e-11,0.7107339,1
9383000,9383000,0.6982086,0.0016362529,-0.0069413795,0.7158589,0.70346093,-1.1695533e-11,5.592682e-11,0.7107339,1
9391000,9391000,0.69817364,0.0017265094,-0.0069536394,0.7158926,0.70346093,-1.1695533e-11,5.592682e-11,0.7107339,1
9403000,9403000,0.698153,0.0016952704,-0.0069105555,0.71591324,0.70346093,-1.1695533e-11,5.592682e-11,0.7107339,1
9411000,9411000,0.69825995,0.0017359053,-0.006864641,0.7158093,0.70346093,-1.1695533e-11,5.592682e-11,0.7107339,1
9423000,9423000,0.6982382,0.0017493821,-0.0068471236,0.7158306,0.70346093,-1.1695533e-11,5.592682e-11,0.7107339,1
9431000,9431000,0.6981949,0.0017112123,-0.006895065,0.71587247,0.70346093,-1.1695533e-11,5.592682e-11,0.7107339,1
9443000,9443000,0.6981753,0.0016741713,-0.006911917,0.7158916,0.70346093,-1.1695533e-11,5.592682e-11,0.7107339,1
9451000,9451000,0.6981829,0.0016515995,-0.0067958757,0.7158853,0.70346093,-1.1695533e-11,5.592682e-11,0.7107339,1
9463000,9463000,0.69823104,0.0015608743,-0.0066900062,0.71583956,0.70346093,-1.1695533e-11,5.592682e-11,0.7107339,1
9471000,9471000,0.6982904,0.0016142173,-0.0066585154,0.7157818,0.70346093,-1.1695533e-11,5.592682e-11,0.7107339,1
9483000,9483000,0.6982205,0.0016969908,-0.006580499,0.7158506,0.70346093,-1.1695533e-11,5.592682e-11,0.7107339,1
9491000,9491000,0.69823486,0.001765251,-0.0066197463,0.715836,0.70346093,-1.1695533e-11,5.592682e-11,0.7107339,1
9503000,9503000,0.6982787,0.0018414912,-0.0066437703,0.7157929,0.70346093,-1.1695533e-11,5.592682e-11,0.7107339,1
9511000,9511000,0.6982291,0.0019181164,-0.0066123526,0.71584135,0.70346093,-1.1695533e-11,5.592682e-11,0.7107339,1
9523000,9523000,0.69820595,0.0017489167,-0.0065064696,0.7158654,0.70346093,-1.1695533e-11,5.592682e-11,0.7107339,1
9531000,9531000,0.69813156,0.0016421403,-0.0063324966,0.71593964,0.70346093,-1.1695533e-11,5.592682e-11,0.7107339,1
9543000,9543000,0.6981467,0.001773738,-0.006112392,0.71592647,0.70346093,-1.1695533e-11,5.592682e-11,0.7107339,1
9551000,9551000,0.6980676,0.0017464606,-0.0060832603,0.71600395,0.70346093,-1.1695533e-11,5.592682e-11,0.7107339,1
9563000,9563000,0.6979716,0.001758417,-0.0060010687,0.7160982,0.70346093,-1.1695533e-11,5.592682e-11,0.7107339,1
9571000,9571000,0.6980068,0.0016352383,-0.0060203555,0.71606404,0.70346093,-1.1695533e-11,5.592682e-11,0.7107339,1
9583000,9583000,0.69796056,0.0016612741,-0.006026903,0.716109,0.70346093,-1.1695533e-11,5.592682e-11,0.7107339,1
9591000,9591000,0.69798654,0.0016844651,-0.006091709,0.71608305,0.70346093,-1.1695533e-11,5.592682e-11,0.7107339,1
9603000,9603000,0.69807684,0.0015959872,-0.006112585,0.715995,0.70346093,-1.1695533e-11,5.592682e-11,0.7107339,1
9611000,9611000,0.6981067,0.0016397017,-0.006036119,0.7159664,0.70346093,-1.1695533e-11,5.592682e-11,0.7107339,1
9623000,9623000,0.6982024,0.001578401,-0.006084462,0.7158729,0.70346093,-1.1695533e-11,5.592682e-11,0.7107339,1
9631000,9631000,0.6982536,0.0014531205,-0.0060908543,0.7158232,0.70346093,-1.1695533e-11,5.592682e-11,0.7107339,1
9643000,9643000,0.69814926,0.0013952359,-0.0062154653,0.71592396,0.70346093,-1.1695533e-11,5.592682e-11,0.7107339,1
9651000,9651000,0.69812876,0.0013836166,-0.0061416165,0.7159446,0.70346093,-1.1695533e-11,5.592682e-11,0.7107339,1
9663000,9663000,0.6980679,0.0013843974,-0.0062518995,0.716003,0.70346093,-1.1695533e-11,5.592682e-11,0.7107339,1
9671000,9671000,0.69798464,0.00144292,-0.006251588,0.71608406,0.70346093,-1.1695533e-11,5.592682e-11,0.7107339,1
9683000,9683000,0.6978915,0.0014988894,-0.0061239963,0.71617585,0.70346093,-1.1695533e-11,5.592682e-11,0.7107339,1
9691000,9691000,0.6978678,0.0015306462,-0.00619271,0.71619827,0.70346093,-1.1695533e-11,5.592682e-11,0.7107339,1
9703000,9703000,0.69782,0.0015610134,-0.0060886266,0.71624565,0.70346093,-1.1695533e-11,5.592682e-11,0.7107339,1
9711000,9711000,0.6978479,0.0016085078,-0.0060261637,0.7162189,0.70346093,-1.1695533e-11,5.592682e-11,0.7107339,1
9723000,9723000,0.69786114,0.0017196244,-0.0059438595,0.7162064,0.70346093,-1.1695533e-11,5.592682e-11,0.7107339,1
9731000,9731000,0.6978645,0.0016657783,-0.0059209974,0.71620345,0.70346093,-1.1695533e-11,5.592682e-11,0.7107339,1
9743000,9743000,0.697788,0.001782294,-0.0058684046,0.71627814,0.70346093,-1.1695533e-11,5.592682e-11,0.7107339,1
9751000,9751000,0.6977498,0.0017317106,-0.0058860667,0.7163153,0.70346093,-1.1695533e-11,5.592682e-11,0.7107339,1
9763000,9763000,0.6977275,0.0016734177,-0.005879245,0.7163372,0.70346093,-1.1695533e-11,5.592682e-11,0.7107339,1
9771000,9771000,0.6977119,0.0016951213,-0.005820345,0.7163528,0.70346093,-1.1695533e-11,5.592682e-11,0.7107339,1
9783000,9783000,0.69764805,0.0016981951,-0.0057188044,0.7164159,0.70346093,-1.1695533e-11,5.592682e-11,0.7107339,1
9791000,9791000,0.6975554,0.0017592671,-0.005633329,0.71650654,0.70346093,-1.1695533e-11,5.592682e-11,0.7107339,1
9803000,9803000,0.6975683,0.0017907922,-0.0056102155,0.71649414,0.70346093,-1.1695533e-11,5.592682e-11,0.7107339,1
9811000,9811000,0.6975158,0.0018239903,-0.0055526407,0.71654564,0.70346093,-1.1695533e-11,5.592682e-11,0.7107339,1
9823000,9823000,0.69752055,0.0018201873,-0.0055052675,0.71654135,0.70346093,-1.1695533e-11,5.592682e-11,0.7107339,1
9831000,9831000,0.6974421,0.0018210816,-0.0056064776,0.7166169,0.70346093,-1.1695533e-11,5.592682e-11,0.7107339,1
9843000,9843000,0.69732064,0.0018542381,-0.005604626,0.71673506,0.70346093,-1.1695533e-11,5.592682e-11,0.7107339,1
9851000,9851000,0.6973214,0.0018148891,-0.0055517727,0.7167348,0.70346093,-1.1695533e-11,5.592682e-11,0.7107339,1
9863000,9863000,0.69736683,0.001686956,-0.0054890634,0.7166914,0.70346093,-1.1695533e-11,5.592682e-11,0.7107339,1
9871000,9871000,0.69743174,0.001601269,-0.005508175,0.7166283,0.70346093,-1.1695533e-11,5.592682e-11,0.7107339,1
9883000,9883000,0.69742113,0.0016459381,-0.005564029,0.71663815,0.70346093,-1.1695533e-11,5.592682e-11,0.7107339,1
9891000,9891000,0.6974304,0.0016502864,-0.0055585112,0.71662915,0.70346093,-1.1695533e-11,5.592682e-11,0.7107339,1
9903000,9903000,0.69735134,0.0017060527,-0.0056283236,0.7167054,0.70346093,-1.1695533e-11,5.592682e-11,0.7107339,1
9911000,9911000,0.69730747,0.0017052337,-0.005588556,0.71674836,0.70346093,-1.1695533e-11,5.592682e-11,0.7107339,1
9923000,9923000,0.69726527,0.0017578747,-0.0055845226,0.71678936,0.70346093,-1.1695533e-11,5.592682e-11,0.7107339,1
9931000,9931000,0.69724894,0.0017718463,-0.005618978,0.7168049,0.70346093,-1.1695533e-11,5.592682e-11,0.7107339,1
9943000,9943000,0.69731975,0.0017983861,-0.0055983253,0.71673614,0.70346093,-1.1695533e-11,5.592682e-11,0.7107339,1
9951000,9951000,0.69731957,0.0017876866,-0.005554934,0.7167367,0.70346093,-1.1695533e-11,5.592682e-11,0.7107339,1
9963000,9963000,0.6973748,0.0017032698,-0.0056627663,0.71668226,0.70346093,-1.1695533e-11,5.592682e-11,0.7107339,1
9971000,9971000,0.69739026,0.0016578,-0.005601472,0.71666783,0.70346093,-1.1695533e-11,5.592682e-11,0.7107339,1
9983000,9983000,0.6972788,0.0015632543,-0.005617137,0.7167764,0.70346093,-1.1695533e-11,5.592682e-11,0.7107339,1
9991000,9991000,0.6972079,0.0014921622,-0.005634009,0.71684533,0.70346093,-1.1695533e-11,5.592682e-11,0.7107339,1
10003000,10003000,0.697122,0.0015049394,-0.0055537308,0.7169295,0.70346093,-1.1695533e-11,5.592682e-11,0.7107339,1
10011000,10011000,0.6970556,0.0015191631,-0.005581802,0.71699387,0.70346093,-1.1695533e-11,5.592682e-11,0.7107339,1
10023000,10023000,0.6970238,0.0015596086,-0.0056472695,0.717024,0.70346093,-1.1695533e-11,5.592682e-11,0.7107339,1
10031000,10031000,0.6969787,0.001592534,-0.005656471,0.71706784,0.70346093,-1.1695533e-11,5.592682e-11,0.7107339,1
10043000,10043000,0.69703144,0.0016405031,-0.005544578,0.7170173,0.70346093,-1.1695533e-11,5.592682e-11,0.7107339,1
10051000,10051000,0.6970114,0.0016341902,-0.005483678,0.7170372,0.70346093,-1.1695533e-11,5.592682e-11,0.7107339,1
10063000,10063000,0.69698864,0.001701701,-0.0055176015,0.717059,0.70346093,-1.1695533e-11,5.592682e-11,0.7107339,1
10071000,10071000,0.6970072,0.0016626667,-0.0055962545,0.71704036,0.70346093,-1.1695533e-11,5.592682e-11,0.7107339,1
10083000,10083000,0.6971099,0.0016022619,-0.00553921,0.7169411,0.70346093,-1.1695533e-11,5.592682e-11,0.7107339,1
10091000,10091000,0.6971257,0.0015407741,-0.005572904,0.7169257,0.70346093,-1.1695533e-11,5.592682e-11,0.7107339,1
10103000,10103000,0.6971307,0.001550852,-0.0055384114,0.71692103,0.70346093,-1.1695533e-11,5.592682e-11,0.7107339,1
10111000,10111000,0.6971669,0.0015163533,-0.0055467016,0.71688586,0.70346093,-1.1695533e-11,5.592682e-11,0.7107339,1
10123000,10123000,0.6970892,0.0014815269,-0.0055736797,0.7169613,0.70346093,-1.1695533e-11,5.592682e-11,0.7107339,1
10131000,10131000,0.69714826,0.0014606502,-0.005596278,0.7169037,0.70346093,-1.1695533e-11,5.592682e-11,0.7107339,1
10143000,10143000,0.69720596,0.0015743197,-0.0056012203,0.7168473,0.70346093,-1.1695533e-11,5.592682e-11,0.7107339,1
10151000,10151000,0.6971768,0.0015930587,-0.005457156,0.71687675,0.70346093,-1.1695533e-11,5.592682e-11,0.7107339,1
10163000,10163000,0.6971272,0.0015540612,-0.005372119,0.7169256,0.70346093,-1.1695533e-11,5.592682e-11,0.7107339,1
10171000,10171000,0.697102,0.0015505578,-0.005300466,0.7169507,0.70346093,-1.1695533e-11,5.592682e-11,0.7107339,1
10183000,10183000,0.6971257,0.0014630215,-0.0053061596,0.7169279,0.70346093,-1.1695533e-11,5.592682e-11,0.7107339,1
10191000,10191000,0.6971406,0.0015278229,-0.0052445447,0.71691364,0.70346093,-1.1695533e-11,5.592682e-11,0.7107339,1
10203000,10203000,0.697094,0.0015180771,-0.00526802,0.71695876,0.70346093,-1.1695533e-11,5.592682e-11,0.7107339,1
10211000,10211000,0.69702685,0.0015657251,-0.005257796,0.717024,0.70346093,-1.1695533e-11,5.592682e-11,0.7107339,1
10223000,10223000,0.69707507,0.001447138,-0.005172766,0.716978,0.70346093,-1.1695533e-11,5.592682e-11,0.7107339,1
10231000,10231000,0.69705147,0.0014164338,-0.0051346486,0.7170013,0.70346093,-1.1695533e-11,5.592682e-11,0.7107339,1
10243000,10243000,0.6969408,0.0014969414,-0.005086442,0.71710914,0.70346093,-1.1695533e-11,5.592682e-11,0.7107339,1
10251000,10251000,0.69687766,0.0015260992,-0.005141355,0.71717,0.70346093,-1.1695533e-11,5.592682e-11,0.7107339,1
10263000,10263000,0.6968202,0.0015117928,-0.00506902,0.71722645,0.70346093,-1.1695533e-11,5.592682e-11,0.7107339,1
10271000,10271000,0.696865,0.0015443697,-0.005042596,0.717183,0.70346093,-1.1695533e-11,5.592682e-11,0.7107339,1
10283000,10283000,0.6967655,0.0015299204,-0.0051581995,0.71727884,0.70346093,-1.1695533e-11,5.592682e-11,0.7107339,1
10291000,10291000,0.6967846,0.0015431029,-0.0050761867,0.71726084,0.70346093,-1.1695533e-11,5.592682e-11,0.7107339,1
10303000,10303000,0.6967644,0.0016849131,-0.0049135783,0.7172813,0.70346093,-1.1695533e-11,5.592682e-11,0.7107339,1
10311000,10311000,0.6967664,0.0017122778,-0.0049666525,0.71727896,0.70346093,-1.1695533e-11,5.592682e-11,0.7107339,1
10323000,10323000,0.69683903,0.0016333582,-0.005127431,0.71720743,0.70346093,-1.1695533e-11,5.592682e-11,0.7107339,1
10331000,10331000,0.69689053,0.0016074962,-0.005092571,0.71715766,0.70346093,-1.1695533e-11,5.592682e-11,0.7107339,1
10343000,10343000,0.6968854,0.0016782915,-0.005090784,0.71716255,0.70346093,-1.1695533e-11,5.592682e-11,0.7107339,1
10351000,10351000,0.69683284,0.0016958021,-0.0050564893,0.7172138,0.70346093,-1.1695533e-11,5.592682e-11,0.7107339,1
10363000,10363000,0.6969443,0.0017155474,-0.00500621,0.71710575,0.70346093,-1.1695533e-11,5.592682e-11,0.7107339,1
10371000,10371000,0.6969203,0.0017660282,-0.004968495,0.71712923,0.70346093,-1.1695533e-11,5.592682e-11,0.7107339,1
10383000,10383000,0.6969252,0.001846243,-0.004797423,0.7171254,0.70346093,-1.1695533e-11,5.592682e-11,0.7107339,1
10391000,10391000,0.6969421,0.0019351782,-0.0048201247,0.7171086,0.70346093,-1.1695533e-11,5.592682e-11,0.7107339,1
10403000,10403000,0.69689316,0.0020057464,-0.0047342367,0.71715665,0.70346093,-1.1695533e-11,5.592682e-11,0.7107339,1
10411000,10411000,0.6969149,0.0021186261,-0.0047670873,0.71713483,0.70346093,-1.1695533e-11,5.592682e-11,0.7107339,1
10423000,10423000,0.6969501,0.0021738566,-0.004750609,0.7171007,0.70346093,-1.1695533e-11,5.592682e-11,0.7107339,1
10431000,10431000,0.69695556,0.002225909,-0.0046972656,0.71709555,0.70346093,-1.1695533e-11,5.592682e-11,0.7107339,1
10443000,10443000,0.6968775,0.002161925,-0.0046650795,0.7171718,0.70346093,-1.1695533e-11,5.592682e-11,0.7107339,1
10451000,10451000,0.6969089,0.0021591461,-0.0046631265,0.71714133,0.70346093,-1.1695533e-11,5.592682e-11,0.7107339,1
10463000,10463000,0.69692963,0.0019804812,-0.004470871,0.7171229,0.70346093,-1.1695533e-11,5.592682e-11,0.7107339,1
10471000,10471000,0.69696,0.001921977,-0.004480412,0.7170935,0.70346093,-1.1695533e-11,5.592682e-11,0.7107339,1
10483000,10483000,0.69690037,0.0018901314,-0.004471599,0.7171516,0.70346093,-1.1695533e-11,5.592682e-11,0.7107339,1
10491000,10491000,0.6968761,0.001980046,-0.004390478,0.71717536,0.70346093,-1.1695533e-11,5.592682e-11,0.7107339,1
10503000,10503000,0.6968506,0.0020331328,-0.004325985,0.7172004,0.70346093,-1.1695533e-11,5.592682e-11,0.7107339,1
10511000,10511000,0.6968295,0.0020219227,-0.0043515735,0.7172208,0.70346093,-1.1695533e-11,5.592682e-11,0.7107339,1
10523000,10523000,0.69681203,0.002043225,-0.0043725506,0.7172376,0.70346093,-1.1695533e-11,5.592682e-11,0.7107339,1
10531000,10531000,0.696799,0.002067616,-0.0043442477,0.7172504,0.70346093,-1.1695533e-11,5.592682e-11,0.7107339,1
10543000,10543000,0.6968044,0.00213755,-0.0042786985,0.71724534,0.70346093,-1.1695533e-11,5.592682e-11,0.7107339,1
10551000,10551000,0.69678706,0.0020415145,-0.0041712793,0.71726304,0.70346093,-1.1695533e-11,5.592682e-11,0.7107339,1
10563000,10563000,0.6966714,0.0018011517,-0.004182345,0.71737593,0.70346093,-1.1695533e-11,5.592682e-11,0.7107339,1
10571000,10571000,0.6966671,0.0017819015,-0.004211725,0.71738005,0.70346093,-1.1695533e-11,5.592682e-11,0.7107339,1
10583000,10583000,0.696636,0.0016600067,-0.00420281,0.71741056,0.70346093,-1.1695533e-11,5.592682e-11,0.7107339,1
10591000,10591000,0.696691,0.0017230962,-0.0042655678,0.7173566,0.70346093,-1.1695533e-11,5.592682e-11,0.7107339,1
10603000,10603000,0.6967315,0.0016220688,-0.004414903,0.71731657,0.70346093,-1.1695533e-11,5.592682e-11,0.7107339,1
10611000,10611000,0.6967508,0.0016598509,-0.004425815,0.7172977,0.70346093,-1.1695533e-11,5.592682e-11,0.7107339,1
10623000,10623000,0.6968101,0.0016066153,-0.0043578246,0.71724063,0.70346093,-1.1695533e-11,5.592682e-11,0.7107339,1
10631000,10631000,0.69686186,0.0015408418,-0.0044519124,0.71718997,0.70346093,-1.1695533e-11,5.592682e-11,0.7107339,1
10643000,10643000,0.69690037,0.0014966641,-0.0043887654,0.717153,0.70346093,-1.1695533e-11,5.592682e-11,0.7107339,1
10651000,10651000,0.6969858,0.0013543802,-0.004402074,0.71707016,0.70346093,-1.1695533e-11,5.592682e-11,0.7107339,1
10663000,10663000,0.6970858,0.0013949028,-0.004595744,0.7169717,0.70346093,-1.1695533e-11,5.592682e-11,0.7107339,1
10671000,10671000,0.6970785,0.0014199348,-0.004694818,0.7169781,0.70346093,-1.1695533e-11,5.592682e-11,0.7107339,1
10683000,10683000,0.69704646,0.0016568799,-0.0047120983,0.71700865,0.70346093,-1.1695533e-11,5.592682e-11,0.7107339,1
10691000,10691000,0.69701135,0.0017683703,-0.004691501,0.71704257,0.70346093,-1.1695533e-11,5.592682e-11,0.7107339,1
10703000,10703000,0.69704694,0.0018866605,-0.004602031,0.71700835,0.70346093,-1.1695533e-11,5.592682e-11,0.7107339,1
10711000,10711000,0.69707584,0.0019214831,-0.0045439554,0.7169805,0.70346093,-1.1695533e-11,5.592682e-11,0.7107339,1
10723000,10723000,0.6970573,0.0020289437,-0.0044696582,0.71699864,0.70346093,-1.1695533e-11,5.592682e-11,0.7107339,1
10731000,10731000,0.6970499,0.0021110366,-0.004426685,0.71700585,0.70346093,-1.1695533e-11,5.592682e-11,0.7107339,1
10743000,10743000,0.6969369,0.0021007531,-0.004371438,0.71711606,0.70346093,-1.1695533e-11,5.592682e-11,0.7107339,1
10751000,10751000,0.69683176,0.002156861,-0.004330763,0.71721834,0.70346093,-1.1695533e-11,5.592682e-11,0.7107339,1
10763000,10763000,0.69683254,0.0021232336,-0.0042965594,0.7172179,0.70346093,-1.1695533e-11,5.592682e-11,0.7107339,1
10771000,10771000,0.6968237,0.0020624667,-0.004270552,0.7172268,0.70346093,-1.1695533e-11,5.592682e-11,0.7107339,1
