timestamp,timestamp_sample,control[0],control[1],control[2],control[3],control[4],control[5],control[6],control[7],control[8],control[9],control[10],control[11],reversible_flags
4435000,4435000,0.0,4.656613e-10,0.0,0.0,nan,nan,nan,nan,nan,nan,nan,nan,0
4439000,4439000,3.4419734e-10,0.0,0.0,0.0,nan,nan,nan,nan,nan,nan,nan,nan,0
4535000,4535000,0.0,2.3283064e-10,0.0,2.3283064e-10,nan,nan,nan,nan,nan,nan,nan,nan,0
4635000,4635000,7.0561945e-10,0.0,0.0,0.0,nan,nan,nan,nan,nan,nan,nan,nan,0
4735000,4735000,2.2273343e-11,0.0,0.0,2.910383e-11,nan,nan,nan,nan,nan,nan,nan,nan,0
4835000,4835000,3.1836025e-10,0.0,0.0,0.0,nan,nan,nan,nan,nan,nan,nan,nan,0
4935000,4935000,1.6333783e-09,0.0,6.9492817e-10,0.0,nan,nan,nan,nan,nan,nan,nan,nan,0
5035000,5035000,0.0,0.0,0.0,0.0,nan,nan,nan,nan,nan,nan,nan,nan,0
5135000,5135000,0.0,5.7742e-10,0.0,0.0,nan,nan,nan,nan,nan,nan,nan,nan,0
5235000,5235000,1.1641532e-10,0.0,0.0,0.0,nan,nan,nan,nan,nan,nan,nan,nan,0
5335000,5335000,0.0020000003,0.0,0.0020000003,0.0,nan,nan,nan,nan,nan,nan,nan,nan,0
5431000,5431000,0.0019999999,0.0,0.0019999999,0.0,nan,nan,nan,nan,nan,nan,nan,nan,0
5535000,5535000,0.0,0.0019999994,0.0,0.0020000003,nan,nan,nan,nan,nan,nan,nan,nan,0
5635000,5635000,0.0,0.0020000006,0.0,0.0019999996,nan,nan,nan,nan,nan,nan,nan,nan,0
5735000,5735000,0.0006650665,0.0013349332,0.0,0.0019999996,nan,nan,nan,nan,nan,nan,nan,nan,0
5835000,5835000,0.0019999999,0.0,0.0019999994,2.3283064e-10,nan,nan,nan,nan,nan,nan,nan,nan,0
5935000,5935000,0.0010816572,0.0,0.0023981254,0.0005202171,nan,nan,nan,nan,nan,nan,nan,nan,0
6035000,6035000,0.0020000003,0.0,0.0020000003,0.0,nan,nan,nan,nan,nan,nan,nan,nan,0
6135000,6135000,0.0,0.0019999994,0.0,0.0020000008,nan,nan,nan,nan,nan,nan,nan,nan,0
6235000,6235000,0.0019999994,0.0,0.0020000003,4.656613e-10,nan,nan,nan,nan,nan,nan,nan,nan,0
6335000,6335000,0.0,0.0020000008,0.0,0.001999999,nan,nan,nan,nan,nan,nan,nan,nan,0
6435000,6435000,0.0023475867,0.00045417994,0.001198234,0.0,nan,nan,nan,nan,nan,nan,nan,nan,0
6535000,6535000,0.0019999994,0.0,0.0019999999,0.0,nan,nan,nan,nan,nan,nan,nan,nan,0
6635000,6635000,0.0015965442,0.0021514255,0.0,0.0002520301,nan,nan,nan,nan,nan,nan,nan,nan,0
6731000,6731000,0.0,0.0019999999,0.0,0.0019999996,nan,nan,nan,nan,nan,nan,nan,nan,0
6835000,6835000,0.0,0.0019999985,0.0,0.0020000003,nan,nan,nan,nan,nan,nan,nan,nan,0
6935000,6935000,0.0019999999,0.0,0.0019999999,0.0,nan,nan,nan,nan,nan,nan,nan,nan,0
7035000,7035000,0.0020000003,0.0,0.0019999987,4.656613e-10,nan,nan,nan,nan,nan,nan,nan,nan,0
7135000,7135000,0.0010419718,0.0,0.00241533,0.00054269773,nan,nan,nan,nan,nan,nan,nan,nan,0
7235000,7235000,0.0,0.0019999999,0.0,0.0019999999,nan,nan,nan,nan,nan,nan,nan,nan,0
7335000,7335000,0.0019999994,0.0,0.0019999994,0.0,nan,nan,nan,nan,nan,nan,nan,nan,0
7435000,7435000,0.0019999999,0.0,0.0019999994,0.0,nan,nan,nan,nan,nan,nan,nan,nan,0
7531000,7531000,0.0019999999,0.0,0.0017024507,0.00029754918,nan,nan,nan,nan,nan,nan,nan,nan,0
7635000,7635000,0.0020000008,0.0,0.0019999999,0.0,nan,nan,nan,nan,nan,nan,nan,nan,0
7735000,7735000,0.0,0.0019999994,0.0,0.0019999994,nan,nan,nan,nan,nan,nan,nan,nan,0
7835000,7835000,0.0019999999,0.0,0.0019999999,0.0,nan,nan,nan,nan,nan,nan,nan,nan,0
7935000,7935000,0.002,0.0,0.002,0.0,nan,nan,nan,nan,nan,nan,nan,nan,0
8035000,8035000,5.336538e-05,0.0017615405,0.0020802424,0.000104850355,nan,nan,nan,nan,nan,nan,nan,nan,0
8135000,8135000,0.00034794305,0.0024546455,0.0,0.0011974119,nan,nan,nan,nan,nan,nan,nan,nan,0
8235000,8235000,0.0,0.0019999999,0.0,0.0019999999,nan,nan,nan,nan,nan,nan,nan,nan,0
8335000,8335000,0.0020000008,0.0,0.0019999999,2.3283064e-10,nan,nan,nan,nan,nan,nan,nan,nan,0
8435000,8435000,0.002,0.0,0.0019999996,2.3283064e-10,nan,nan,nan,nan,nan,nan,nan,nan,0
8535000,8535000,0.0,0.0019999996,0.0018924149,0.00010758522,nan,nan,nan,nan,nan,nan,nan,nan,0
8635000,8635000,0.0019999994,0.0,0.0020000003,0.0,nan,nan,nan,nan,nan,nan,nan,nan,0
8735000,8735000,0.0020000003,0.0,0.0020000003,0.0,nan,nan,nan,nan,nan,nan,nan,nan,0
8835000,8835000,0.0020000003,0.0,0.0020000003,0.0,nan,nan,nan,nan,nan,nan,nan,nan,0
8935000,8935000,0.002,0.0,0.0020000003,0.0,nan,nan,nan,nan,nan,nan,nan,nan,0
9035000,9035000,0.0019999999,0.0,0.0019999999,0.0,nan,nan,nan,nan,nan,nan,nan,nan,0
9135000,9135000,0.0,0.0020000008,0.0,0.001999999,nan,nan,nan,nan,nan,nan,nan,nan,0
9235000,9235000,0.0019999999,0.0,0.0020000008,0.0,nan,nan,nan,nan,nan,nan,nan,nan,0
9335000,9335000,0.0019999987,0.0,0.002,9.313226e-10,nan,nan,nan,nan,nan,nan,nan,nan,0
9435000,9435000,0.0020000006,0.0,0.0020000006,0.0,nan,nan,nan,nan,nan,nan,nan,nan,0
9535000,9535000,0.002,0.0,0.002,2.3283064e-10,nan,nan,nan,nan,nan,nan,nan,nan,0
9635000,9635000,0.0019999999,0.0,0.0020000008,0.0,nan,nan,nan,nan,nan,nan,nan,nan,0
9735000,9735000,0.0019999999,0.0,0.0019999999,0.0,nan,nan,nan,nan,nan,nan,nan,nan,0
9835000,9835000,0.0019999994,0.0,0.0019999994,4.656613e-10,nan,nan,nan,nan,nan,nan,nan,nan,0
9935000,9935000,0.0019999999,0.0,0.0019999999,0.0,nan,nan,nan,nan,nan,nan,nan,nan,0
10035000,10035000,0.0020000003,0.0,0.0019999999,0.0,nan,nan,nan,nan,nan,nan,nan,nan,0
10135000,10135000,0.0019999999,0.0,0.0020000003,0.0,nan,nan,nan,nan,nan,nan,nan,nan,0
10235000,10235000,0.0019999999,0.0,0.0019999987,9.313226e-10,nan,nan,nan,nan,nan,nan,nan,nan,0
10335000,10335000,0.0019999999,0.0,0.0020000003,0.0,nan,nan,nan,nan,nan,nan,nan,nan,0
10435000,10435000,0.0019999999,0.0,0.002,0.0,nan,nan,nan,nan,nan,nan,nan,nan,0
10535000,10535000,0.0020000003,0.0,0.0019999999,4.656613e-10,nan,nan,nan,nan,nan,nan,nan,nan,0
10635000,10635000,0.0019999999,0.0,0.0019999999,0.0,nan,nan,nan,nan,nan,nan,nan,nan,0
10735000,10735000,0.0019999999,0.0,0.0019999999,0.0,nan,nan,nan,nan,nan,nan,nan,nan,0
10835000,10835000,0.0020000003,0.0,0.0020000003,0.0,nan,nan,nan,nan,nan,nan,nan,nan,0
10935000,10935000,0.0,0.0020000006,0.0,0.0019999996,nan,nan,nan,nan,nan,nan,nan,nan,0
11035000,11035000,0.0020000003,0.0,0.0020000003,0.0,nan,nan,nan,nan,nan,nan,nan,nan,0
11135000,11135000,0.0020000003,0.0,0.0020000003,0.0,nan,nan,nan,nan,nan,nan,nan,nan,0
11235000,11235000,0.0019999994,0.0,0.0019999999,2.3283064e-10,nan,nan,nan,nan,nan,nan,nan,nan,0
11331000,11331000,0.0019999994,0.0,0.0020000013,0.0,nan,nan,nan,nan,nan,nan,nan,nan,0
11435000,11435000,0.0020000003,0.0,0.0019999994,0.0,nan,nan,nan,nan,nan,nan,nan,nan,0
11535000,11535000,0.0,0.0020000006,4.656613e-10,0.0019999999,nan,nan,nan,nan,nan,nan,nan,nan,0
11635000,11635000,0.0020000003,0.0,0.0020000003,0.0,nan,nan,nan,nan,nan,nan,nan,nan,0
11735000,11735000,0.0020000003,0.0,0.0020000003,0.0,nan,nan,nan,nan,nan,nan,nan,nan,0
11835000,11835000,0.0019999999,0.0,0.0019999999,0.0,nan,nan,nan,nan,nan,nan,nan,nan,0
11935000,11935000,0.0020000003,0.0,0.0020000003,0.0,nan,nan,nan,nan,nan,nan,nan,nan,0
12035000,12035000,0.0019999987,0.0,0.002,1.3969839e-09,nan,nan,nan,nan,nan,nan,nan,nan,0
12135000,12135000,0.0019999987,0.0,0.0020000006,0.0,nan,nan,nan,nan,nan,nan,nan,nan,0
12235000,12235000,0.002,0.0,0.002,0.0,nan,nan,nan,nan,nan,nan,nan,nan,0
12335000,12335000,0.0,0.0019999999,0.0,0.0019999999,nan,nan,nan,nan,nan,nan,nan,nan,0
12435000,12435000,0.0019999994,0.0,0.0020000003,0.0,nan,nan,nan,nan,nan,nan,nan,nan,0
12531000,12531000,0.00092566304,0.00056239875,0.00022193848,0.002289999,nan,nan,nan,nan,nan,nan,nan,nan,0
12635000,12635000,0.0019999999,0.0,0.002,0.0,nan,nan,nan,nan,nan,nan,nan,nan,0
12735000,12735000,0.00011976762,0.0005155143,0.0025916407,0.00077307713,nan,nan,nan,nan,nan,nan,nan,nan,0
12835000,12835000,0.0019999999,0.0,0.0019999999,0.0,nan,nan,nan,nan,nan,nan,nan,nan,0
12935000,12935000,0.0019999994,0.0,0.0019999996,0.0,nan,nan,nan,nan,nan,nan,nan,nan,0
13035000,13035000,0.0,0.0019999999,0.00023013423,0.0017698656,nan,nan,nan,nan,nan,nan,nan,nan,0
13135000,13135000,0.002,0.0,0.002000001,0.0,nan,nan,nan,nan,nan,nan,nan,nan,0
13235000,13235000,0.0,0.0019999999,0.0,0.0019999999,nan,nan,nan,nan,nan,nan,nan,nan,0
13335000,13335000,0.0,0.0019999999,0.0,0.0019999994,nan,nan,nan,nan,nan,nan,nan,nan,0
13435000,13435000,0.0019999996,0.0,0.0019999999,0.0,nan,nan,nan,nan,nan,nan,nan,nan,0
13535000,13535000,0.0,0.002,0.0,0.0019999996,nan,nan,nan,nan,nan,nan,nan,nan,0
13635000,13635000,0.0012221172,0.0010314627,0.00018605244,0.0015603673,nan,nan,nan,nan,nan,nan,nan,nan,0
13735000,13735000,0.0014918701,0.00050812954,0.0019999999,0.0,nan,nan,nan,nan,nan,nan,nan,nan,0
13835000,13835000,0.0020000003,0.0,0.0019999994,1.3969839e-09,nan,nan,nan,nan,nan,nan,nan,nan,0
13935000,13935000,0.0014952434,0.0005047564,0.0019999999,0.0,nan,nan,nan,nan,nan,nan,nan,nan,0
14035000,14035000,0.0019999999,0.0,0.0019999994,0.0,nan,nan,nan,nan,nan,nan,nan,nan,0
14135000,14135000,0.0010448575,0.0,0.000414079,0.0025410631,nan,nan,nan,nan,nan,nan,nan,nan,0
14235000,14235000,0.002,0.0,0.0019999999,0.0,nan,nan,nan,nan,nan,nan,nan,nan,0
14335000,14335000,0.0019999999,0.0,0.0019999996,0.0,nan,nan,nan,nan,nan,nan,nan,nan,0
14435000,14435000,0.0,0.0019999996,0.0,0.002000001,nan,nan,nan,nan,nan,nan,nan,nan,0
14535000,14535000,0.0019999994,0.0,0.0020000003,0.0,nan,nan,nan,nan,nan,nan,nan,nan,0
14635000,14635000,0.0,0.0019999999,0.0,0.0019999999,nan,nan,nan,nan,nan,nan,nan,nan,0
14735000,14735000,0.0020000003,0.0,0.0020000003,0.0,nan,nan,nan,nan,nan,nan,nan,nan,0
14835000,14835000,0.0,0.0020000003,0.0,0.0019999999,nan,nan,nan,nan,nan,nan,nan,nan,0
14935000,14935000,0.0020000003,0.0,0.0020000003,0.0,nan,nan,nan,nan,nan,nan,nan,nan,0
15035000,15035000,0.0,0.0019999999,5.820766e-11,0.0019999999,nan,nan,nan,nan,nan,nan,nan,nan,0
15135000,15135000,0.0021712226,0.0002237309,0.0013096893,0.00029535705,nan,nan,nan,nan,nan,nan,nan,nan,0
15235000,15235000,0.0019999994,0.0,0.0020000003,9.313226e-10,nan,nan,nan,nan,nan,nan,nan,nan,0
15331000,15331000,0.0019999999,9.313226e-10,0.001999999,0.0,nan,nan,nan,nan,nan,nan,nan,nan,0
15435000,15435000,0.0020000013,0.0,0.002,0.0,nan,nan,nan,nan,nan,nan,nan,nan,0
15535000,15535000,0.0019999994,0.0,0.0019999999,2.3283064e-10,nan,nan,nan,nan,nan,nan,nan,nan,0
15635000,15635000,0.0,0.00095844653,0.0022237038,0.00081784965,nan,nan,nan,nan,nan,nan,nan,nan,0
15735000,15735000,0.0019999999,0.0,0.0019999999,0.0,nan,nan,nan,nan,nan,nan,nan,nan,0
15835000,15835000,0.0016152716,0.0003847283,0.0,0.0019999999,nan,nan,nan,nan,nan,nan,nan,nan,0
15935000,15935000,0.001526251,0.00047374898,0.0,0.0019999999,nan,nan,nan,nan,nan,nan,nan,nan,0
16035000,16035000,0.0019999999,0.0,0.001999999,0.0,nan,nan,nan,nan,nan,nan,nan,nan,0
16135000,16135000,0.0019999994,0.0,0.0020000013,0.0,nan,nan,nan,nan,nan,nan,nan,nan,0
16235000,16235000,0.0020000006,0.0,0.0019999996,0.0,nan,nan,nan,nan,nan,nan,nan,nan,0
16331000,16331000,0.0019999999,0.0,0.0019999999,0.0,nan,nan,nan,nan,nan,nan,nan,nan,0
16435000,16435000,0.0020000003,0.0,0.0019999994,0.0,nan,nan,nan,nan,nan,nan,nan,nan,0
16535000,16535000,0.0019999996,0.0,0.0020000015,0.0,nan,nan,nan,nan,nan,nan,nan,nan,0
16635000,16635000,0.001999999,4.656613e-10,0.0020000008,0.0,nan,nan,nan,nan,nan,nan,nan,nan,0
16735000,16735000,0.0,0.002,0.0,0.0019999999,nan,nan,nan,nan,nan,nan,nan,nan,0
16835000,16835000,4.656613e-10,0.0020000006,0.0,0.0019999999,nan,nan,nan,nan,nan,nan,nan,nan,0
16935000,16935000,0.0,0.0020000003,0.0,0.0019999999,nan,nan,nan,nan,nan,nan,nan,nan,0
17035000,17035000,0.002,0.0,0.0019999996,0.0,nan,nan,nan,nan,nan,nan,nan,nan,0
17135000,17135000,0.0014604179,0.0005395821,0.0019999999,0.0,nan,nan,nan,nan,nan,nan,nan,nan,0
17231000,17231000,0.0019999994,0.0,0.0019999994,2.3283064e-10,nan,nan,nan,nan,nan,nan,nan,nan,0
17335000,17335000,0.0020000003,0.0,0.0020000003,0.0,nan,nan,nan,nan,nan,nan,nan,nan,0
17435000,17435000,0.0,0.001999999,0.0,0.0020000017,nan,nan,nan,nan,nan,nan,nan,nan,0
17535000,17535000,0.0019999999,0.0,0.0019999999,0.0,nan,nan,nan,nan,nan,nan,nan,nan,0
17635000,17635000,0.0,0.0020000006,0.0,0.0019999999,nan,nan,nan,nan,nan,nan,nan,nan,0
17731000,17731000,0.0019999996,0.0,0.0019999996,0.0,nan,nan,nan,nan,nan,nan,nan,nan,0
17835000,17835000,0.0,0.002,0.0,0.002,nan,nan,nan,nan,nan,nan,nan,nan,0
17935000,17935000,1.8626451e-09,0.0019999999,0.0,0.0019999987,nan,nan,nan,nan,nan,nan,nan,nan,0
18035000,18035000,0.0019999994,0.0,0.0019999999,0.0,nan,nan,nan,nan,nan,nan,nan,nan,0
18135000,18135000,0.0,0.0019999999,0.0,0.0019999994,nan,nan,nan,nan,nan,nan,nan,nan,0
18235000,18235000,0.0,0.002,0.0,0.0019999994,nan,nan,nan,nan,nan,nan,nan,nan,0
18335000,18335000,0.0,0.0020000003,0.0,0.0020000003,nan,nan,nan,nan,nan,nan,nan,nan,0
18435000,18435000,0.0020000008,0.0,0.0019999999,0.0,nan,nan,nan,nan,nan,nan,nan,nan,0
18535000,18535000,0.0020000006,0.0,0.0019999996,0.0,nan,nan,nan,nan,nan,nan,nan,nan,0
18635000,18635000,8.888575e-05,0.0021161437,0.0012782781,0.000516692,nan,nan,nan,nan,nan,nan,nan,nan,0
18735000,18735000,1.1641532e-10,0.0019999996,0.0,0.0019999994,nan,nan,nan,nan,nan,nan,nan,nan,0
18835000,18835000,0.0,0.0020000003,0.0,0.0020000013,nan,nan,nan,nan,nan,nan,nan,nan,0
18935000,18935000,0.0,0.0020000006,0.0,0.0019999994,nan,nan,nan,nan,nan,nan,nan,nan,0
19035000,19035000,0.0,0.0019999999,0.0,0.0019999999,nan,nan,nan,nan,nan,nan,nan,nan,0
19135000,19135000,0.0019999999,0.0,0.0020000008,0.0,nan,nan,nan,nan,nan,nan,nan,nan,0
19235000,19235000,0.0019999999,0.0,0.0019999999,0.0,nan,nan,nan,nan,nan,nan,nan,nan,0
19331000,19331000,0.0020000003,0.0,0.0020000003,0.0,nan,nan,nan,nan,nan,nan,nan,nan,0
19435000,19435000,0.0019999994,0.0,0.0019999994,0.0,nan,nan,nan,nan,nan,nan,nan,nan,0
19535000,19535000,0.0019999994,0.0,0.0020000013,0.0,nan,nan,nan,nan,nan,nan,nan,nan,0
19635000,19635000,0.0019999999,0.0,0.002,2.3283064e-10,nan,nan,nan,nan,nan,nan,nan,nan,0
19735000,19735000,0.0020000003,0.0,0.0020000003,0.0,nan,nan,nan,nan,nan,nan,nan,nan,0
19835000,19835000,0.0019999999,0.0,0.0019999999,0.0,nan,nan,nan,nan,nan,nan,nan,nan,0
19935000,19935000,0.0019999999,0.0,0.0019999999,0.0,nan,nan,nan,nan,nan,nan,nan,nan,0
20035000,20035000,0.0,0.0019999996,0.0,0.002,nan,nan,nan,nan,nan,nan,nan,nan,0
20135000,20135000,0.0,0.0019999994,0.0,0.0019999999,nan,nan,nan,nan,nan,nan,nan,nan,0
20235000,20235000,0.0019999999,0.0,0.0019999999,0.0,nan,nan,nan,nan,nan,nan,nan,nan,0
20335000,20335000,0.0,0.0019999999,0.0,0.0019999999,nan,nan,nan,nan,nan,nan,nan,nan,0
20435000,20435000,0.0,0.0016848074,0.0012667852,0.0010484073,nan,nan,nan,nan,nan,nan,nan,nan,0
20535000,20535000,0.0,0.0020000003,0.0,0.0020000003,nan,nan,nan,nan,nan,nan,nan,nan,0
20631000,20631000,0.0014666622,0.0005333377,0.0,0.0019999999,nan,nan,nan,nan,nan,nan,nan,nan,0
20735000,20735000,0.0019999992,1.8626451e-09,0.0019999996,0.0,nan,nan,nan,nan,nan,nan,nan,nan,0
20835000,20835000,0.0019999985,0.0,0.0020000003,9.313226e-10,nan,nan,nan,nan,nan,nan,nan,nan,0
20935000,20935000,0.00080221775,0.0001349952,0.0024607454,0.00060204114,nan,nan,nan,nan,nan,nan,nan,nan,0
21035000,21035000,0.0019999999,4.656613e-10,0.0019999994,0.0,nan,nan,nan,nan,nan,nan,nan,nan,0
21131000,21131000,0.0019999996,0.0,0.002,0.0,nan,nan,nan,nan,nan,nan,nan,nan,0
21235000,21235000,0.0020000003,0.0,0.0020000003,0.0,nan,nan,nan,nan,nan,nan,nan,nan,0
21335000,21335000,0.0,0.0020000006,4.5474735e-13,0.0020000006,nan,nan,nan,nan,nan,nan,nan,nan,0
21435000,21435000,0.0019999996,0.0,0.0019999994,0.0,nan,nan,nan,nan,nan,nan,nan,nan,0
21531000,21531000,0.0,0.0019999996,0.0,0.0019999999,nan,nan,nan,nan,nan,nan,nan,nan,0
21635000,21635000,0.0019999992,0.0,0.002000001,0.0,nan,nan,nan,nan,nan,nan,nan,nan,0
21735000,21735000,0.0020000003,0.0,0.0020000003,0.0,nan,nan,nan,nan,nan,nan,nan,nan,0
21835000,21835000,0.0019999994,0.0,0.0019999994,0.0,nan,nan,nan,nan,nan,nan,nan,nan,0
21935000,21935000,0.0007358284,0.0022491717,0.00026680678,0.0007481927,nan,nan,nan,nan,nan,nan,nan,nan,0
22035000,22035000,0.0019999999,0.0,0.0019999999,0.0,nan,nan,nan,nan,nan,nan,nan,nan,0
22135000,22135000,0.0019999996,0.0,0.0020000006,0.0,nan,nan,nan,nan,nan,nan,nan,nan,0
22235000,22235000,0.0020000013,0.0,0.0019999994,0.0,nan,nan,nan,nan,nan,nan,nan,nan,0
22335000,22335000,0.0020000003,0.0,0.0020000003,0.0,nan,nan,nan,nan,nan,nan,nan,nan,0
22435000,22435000,0.0019999994,0.0,0.0019999996,0.0,nan,nan,nan,nan,nan,nan,nan,nan,0
22535000,22535000,0.0020000003,0.0,0.0020000003,0.0,nan,nan,nan,nan,nan,nan,nan,nan,0
22635000,22635000,0.0019999994,4.656613e-10,0.0019999999,0.0,nan,nan,nan,nan,nan,nan,nan,nan,0
22735000,22735000,0.0019999999,0.0,0.0019999999,0.0,nan,nan,nan,nan,nan,nan,nan,nan,0
22835000,22835000,0.0,0.002000001,2.3283064e-10,0.0019999996,nan,nan,nan,nan,nan,nan,nan,nan,0
22931000,22931000,0.0,0.0020000008,0.0,0.0019999999,nan,nan,nan,nan,nan,nan,nan,nan,0
23035000,23035000,0.0010441649,0.0009558351,0.0,0.0019999999,nan,nan,nan,nan,nan,nan,nan,nan,0
23135000,23135000,0.0019999996,0.0,0.0020000006,0.0,nan,nan,nan,nan,nan,nan,nan,nan,0
23235000,23235000,0.002,0.0,0.0019999996,0.0,nan,nan,nan,nan,nan,nan,nan,nan,0
23335000,23335000,0.0,0.0019999996,2.3283064e-10,0.002,nan,nan,nan,nan,nan,nan,nan,nan,0
23435000,23435000,0.0020000003,0.0,0.0020000003,0.0,nan,nan,nan,nan,nan,nan,nan,nan,0
23535000,23535000,0.002,0.0,0.0020000015,0.0,nan,nan,nan,nan,nan,nan,nan,nan,0
23635000,23635000,0.0019999994,0.0,0.0019999999,0.0,nan,nan,nan,nan,nan,nan,nan,nan,0
23731000,23731000,0.0019999999,0.0,0.0019999999,0.0,nan,nan,nan,nan,nan,nan,nan,nan,0
23835000,23835000,0.0019999994,0.0,0.0020000013,0.0,nan,nan,nan,nan,nan,nan,nan,nan,0
23935000,23935000,0.0020000003,0.0,0.0020000003,0.0,nan,nan,nan,nan,nan,nan,nan,nan,0
24035000,24035000,0.0019999999,0.0,0.0019999999,0.0,nan,nan,nan,nan,nan,nan,nan,nan,0
24135000,24135000,0.0019999994,0.0,0.0020000003,0.0,nan,nan,nan,nan,nan,nan,nan,nan,0
24235000,24235000,0.0020000003,0.0,0.0020000003,4.656613e-10,nan,nan,nan,nan,nan,nan,nan,nan,0
24335000,24335000,0.002,0.0,0.002,0.0,nan,nan,nan,nan,nan,nan,nan,nan,0
24435000,24435000,0.0,0.0019999999,0.0,0.0020000003,nan,nan,nan,nan,nan,nan,nan,nan,0
24531000,24531000,0.0019999994,0.0,0.0019999999,0.0,nan,nan,nan,nan,nan,nan,nan,nan,0
24635000,24635000,0.0019999999,0.0,0.0020000008,0.0,nan,nan,nan,nan,nan,nan,nan,nan,0
24735000,24735000,0.0020000003,0.0,0.0017877743,0.00021222513,nan,nan,nan,nan,nan,nan,nan,nan,0
24835000,24835000,0.0019999994,0.0,0.0020000013,0.0,nan,nan,nan,nan,nan,nan,nan,nan,0
24931000,24931000,0.0020000003,0.0,0.0020000003,0.0,nan,nan,nan,nan,nan,nan,nan,nan,0
25035000,25035000,0.0018334298,0.0,0.001894706,0.0002718639,nan,nan,nan,nan,nan,nan,nan,nan,0
25135000,25135000,0.0019999999,0.0,0.0019999999,0.0,nan,nan,nan,nan,nan,nan,nan,nan,0
25235000,25235000,0.0,0.0019999999,0.00016311905,0.0018368809,nan,nan,nan,nan,nan,nan,nan,nan,0
25335000,25335000,0.0,0.0019999999,0.0,0.0019999999,nan,nan,nan,nan,nan,nan,nan,nan,0
25435000,25435000,0.0020000003,0.0,0.0020000003,0.0,nan,nan,nan,nan,nan,nan,nan,nan,0
25535000,25535000,0.0019999999,0.0,0.0019999996,0.0,nan,nan,nan,nan,nan,nan,nan,nan,0
25635000,25635000,0.0019999999,0.0,0.0019999999,0.0,nan,nan,nan,nan,nan,nan,nan,nan,0
25735000,25735000,0.00030036314,0.0023924748,0.0002522194,0.0010549431,nan,nan,nan,nan,nan,nan,nan,nan,0
25835000,25835000,0.0019999999,4.656613e-10,0.0019999994,0.0,nan,nan,nan,nan,nan,nan,nan,nan,0
25935000,25935000,0.002,0.0,0.002,0.0,nan,nan,nan,nan,nan,nan,nan,nan,0
26035000,26035000,0.0,0.0019999999,0.0,0.001999999,nan,nan,nan,nan,nan,nan,nan,nan,0
26135000,26135000,0.0,0.0019999999,0.0,0.0019999996,nan,nan,nan,nan,nan,nan,nan,nan,0
26235000,26235000,0.0020000017,9.313226e-10,0.0019999987,0.0,nan,nan,nan,nan,nan,nan,nan,nan,0
26335000,26335000,0.0,0.002,0.0,0.0020000003,nan,nan,nan,nan,nan,nan,nan,nan,0
26435000,26435000,0.0019999994,0.0,0.0019999999,0.0,nan,nan,nan,nan,nan,nan,nan,nan,0
26535000,26535000,0.0,0.0020000003,0.0,0.0019999999,nan,nan,nan,nan,nan,nan,nan,nan,0
26635000,26635000,0.0019999999,0.0,0.0020000008,0.0,nan,nan,nan,nan,nan,nan,nan,nan,0
26735000,26735000,0.0019999994,4.656613e-10,0.0019999999,0.0,nan,nan,nan,nan,nan,nan,nan,nan,0
26835000,26835000,0.002,0.0,0.0019999996,0.0,nan,nan,nan,nan,nan,nan,nan,nan,0
26935000,26935000,0.0020000022,0.0,0.0019999985,0.0,nan,nan,nan,nan,nan,nan,nan,nan,0
27031000,27031000,0.0019999996,4.656613e-10,0.0019999985,0.0,nan,nan,nan,nan,nan,nan,nan,nan,0
27135000,27135000,0.0020000008,0.0,0.0019999999,0.0,nan,nan,nan,nan,nan,nan,nan,nan,0
27235000,27235000,0.0019999999,0.0,0.002,0.0,nan,nan,nan,nan,nan,nan,nan,nan,0
27335000,27335000,0.0019999999,0.0,0.0019999999,0.0,nan,nan,nan,nan,nan,nan,nan,nan,0
27435000,27435000,0.0019999999,0.0,0.0019999999,0.0,nan,nan,nan,nan,nan,nan,nan,nan,0
27535000,27535000,0.0019999999,2.3283064e-10,0.0019999999,0.0,nan,nan,nan,nan,nan,nan,nan,nan,0
27635000,27635000,0.0,0.002,0.0,0.002,nan,nan,nan,nan,nan,nan,nan,nan,0
27735000,27735000,0.00049550185,0.0002704282,0.00070488686,0.002529183,nan,nan,nan,nan,nan,nan,nan,nan,0
27835000,27835000,0.0,0.0020000003,0.0,0.0019999999,nan,nan,nan,nan,nan,nan,nan,nan,0
27935000,27935000,0.0,0.0019999992,0.0,0.002,nan,nan,nan,nan,nan,nan,nan,nan,0
28035000,28035000,0.0020000003,0.0,0.0020000003,0.0,nan,nan,nan,nan,nan,nan,nan,nan,0
28135000,28135000,0.0006430715,0.00284028,0.00049511204,2.1536543e-05,nan,nan,nan,nan,nan,nan,nan,nan,0
28235000,28235000,0.0020000003,0.0,0.0019999999,0.0,nan,nan,nan,nan,nan,nan,nan,nan,0
28335000,28335000,0.0020000003,0.0,0.0020000003,0.0,nan,nan,nan,nan,nan,nan,nan,nan,0
28435000,28435000,4.656613e-10,0.0020000003,0.0,0.0019999985,nan,nan,nan,nan,nan,nan,nan,nan,0
28535000,28535000,0.0020000003,0.0,0.0020000003,0.0,nan,nan,nan,nan,nan,nan,nan,nan,0
28635000,28635000,0.0019999992,0.0,0.002,2.3283064e-10,nan,nan,nan,nan,nan,nan,nan,nan,0
28735000,28735000,0.0019999999,0.0,0.0020000008,0.0,nan,nan,nan,nan,nan,nan,nan,nan,0
28835000,28835000,0.001999999,9.313226e-10,0.002,0.0,nan,nan,nan,nan,nan,nan,nan,nan,0
28935000,28935000,0.0019999994,0.0,0.0020000013,0.0,nan,nan,nan,nan,nan,nan,nan,nan,0
29035000,29035000,0.0020000013,0.0,0.0019999985,0.0,nan,nan,nan,nan,nan,nan,nan,nan,0
29135000,29135000,0.0017483231,0.00025167665,0.0019999999,0.0,nan,nan,nan,nan,nan,nan,nan,nan,0
29235000,29235000,4.656613e-10,0.0019999999,0.0,0.0019999999,nan,nan,nan,nan,nan,nan,nan,nan,0
29335000,29335000,0.0005446342,0.0027116556,0.0007437109,0.0,nan,nan,nan,nan,nan,nan,nan,nan,0
29435000,29435000,0.0019999996,0.0,0.0019999996,2.3283064e-10,nan,nan,nan,nan,nan,nan,nan,nan,0
29535000,29535000,0.0006903624,0.0013096378,0.0,0.0019999999,nan,nan,nan,nan,nan,nan,nan,nan,0
29631000,29631000,0.0020000003,0.0,0.0020000013,0.0,nan,nan,nan,nan,nan,nan,nan,nan,0
29735000,29735000,0.0019999999,0.0,0.0020000003,0.0,nan,nan,nan,nan,nan,nan,nan,nan,0
29835000,29835000,0.0019999999,0.0,0.0019999999,0.0,nan,nan,nan,nan,nan,nan,nan,nan,0
29935000,29935000,0.0,0.0019999994,0.0,0.0019999994,nan,nan,nan,nan,nan,nan,nan,nan,0
30035000,30035000,0.0019999999,0.0,0.0020000003,0.0,nan,nan,nan,nan,nan,nan,nan,nan,0
30135000,30135000,0.0019999999,0.0,0.0019999999,4.656613e-10,nan,nan,nan,nan,nan,nan,nan,nan,0
30235000,30235000,0.0019999999,0.0,0.0020000008,0.0,nan,nan,nan,nan,nan,nan,nan,nan,0
30335000,30335000,0.0019999999,0.0,0.0019999999,0.0,nan,nan,nan,nan,nan,nan,nan,nan,0
30435000,30435000,0.0020000003,0.0,0.0020000003,0.0,nan,nan,nan,nan,nan,nan,nan,nan,0
30535000,30535000,0.0,0.0019999999,0.0,0.0019999999,nan,nan,nan,nan,nan,nan,nan,nan,0
30635000,30635000,0.0020000006,0.0,0.0020000008,0.0,nan,nan,nan,nan,nan,nan,nan,nan,0
30735000,30735000,0.0019999999,0.0,0.0019999999,0.0,nan,nan,nan,nan,nan,nan,nan,nan,0
30835000,30835000,0.0,0.0020000008,0.0,0.001999999,nan,nan,nan,nan,nan,nan,nan,nan,0
30935000,30935000,0.0,0.0019999999,0.0,0.0019999999,nan,nan,nan,nan,nan,nan,nan,nan,0
31035000,31035000,0.0019999999,4.656613e-10,0.0019999999,0.0,nan,nan,nan,nan,nan,nan,nan,nan,0
31131000,31131000,0.0019999999,0.0,0.0019999999,0.0,nan,nan,nan,nan,nan,nan,nan,nan,0
31235000,31235000,0.0020000003,0.0,0.0020000003,0.0,nan,nan,nan,nan,nan,nan,nan,nan,0
31335000,31335000,0.0,0.0019999994,0.0,0.0020000003,nan,nan,nan,nan,nan,nan,nan,nan,0
31435000,31435000,0.0,0.0019999999,0.0,0.0019999999,nan,nan,nan,nan,nan,nan,nan,nan,0
31535000,31535000,0.0,0.0019999999,0.0,0.0020000003,nan,nan,nan,nan,nan,nan,nan,nan,0
31635000,31635000,0.0019999992,1.3969839e-09,0.0019999985,0.0,nan,nan,nan,nan,nan,nan,nan,nan,0
31735000,31735000,0.0,0.0020000008,0.0,0.0019999994,nan,nan,nan,nan,nan,nan,nan,nan,0
31835000,31835000,0.002,0.0,0.0019999996,0.0,nan,nan,nan,nan,nan,nan,nan,nan,0
31935000,31935000,0.0015718807,0.00042811933,0.0,0.0019999996,nan,nan,nan,nan,nan,nan,nan,nan,0
32035000,32035000,0.0,0.002,0.0,0.0019999996,nan,nan,nan,nan,nan,nan,nan,nan,0
32135000,32135000,0.0006090188,0.0013909815,0.0,0.0020000003,nan,nan,nan,nan,nan,nan,nan,nan,0
32235000,32235000,0.0019999999,0.0,0.0019999999,4.656613e-10,nan,nan,nan,nan,nan,nan,nan,nan,0
32335000,32335000,0.0020000003,0.0,0.0019999994,0.0,nan,nan,nan,nan,nan,nan,nan,nan,0
32435000,32435000,0.0020000003,4.656613e-10,0.002,0.0,nan,nan,nan,nan,nan,nan,nan,nan,0
32535000,32535000,0.0019999996,0.0,0.002,0.0,nan,nan,nan,nan,nan,nan,nan,nan,0
32635000,32635000,0.0019999999,0.0,0.0020000003,4.656613e-10,nan,nan,nan,nan,nan,nan,nan,nan,0
32735000,32735000,0.0,0.0020000003,0.0,0.0020000003,nan,nan,nan,nan,nan,nan,nan,nan,0
32835000,32835000,0.0019999999,0.0,0.0019999999,0.0,nan,nan,nan,nan,nan,nan,nan,nan,0
32935000,32935000,0.0,0.0019999999,0.0,0.0019999994,nan,nan,nan,nan,nan,nan,nan,nan,0
33035000,33035000,0.0,0.0019999999,0.0,0.0019999999,nan,nan,nan,nan,nan,nan,nan,nan,0
33135000,33135000,0.0019999999,9.313226e-10,0.0019999999,0.0,nan,nan,nan,nan,nan,nan,nan,nan,0
33235000,33235000,0.001999999,9.313226e-10,0.0020000008,0.0,nan,nan,nan,nan,nan,nan,nan,nan,0
33335000,33335000,0.0,0.0019999999,0.0,0.0019999994,nan,nan,nan,nan,nan,nan,nan,nan,0
33435000,33435000,0.0019999999,0.0,0.0019999999,0.0,nan,nan,nan,nan,nan,nan,nan,nan,0
33535000,33535000,0.0019999994,0.0,0.0019999994,0.0,nan,nan,nan,nan,nan,nan,nan,nan,0
33635000,33635000,0.0019999996,0.0,0.002,0.0,nan,nan,nan,nan,nan,nan,nan,nan,0
33735000,33735000,0.00096033374,0.0,0.0007935187,0.0022461473,nan,nan,nan,nan,nan,nan,nan,nan,0
33835000,33835000,0.0022512001,0.00032823486,0.001420565,0.0,nan,nan,nan,nan,nan,nan,nan,nan,0
33935000,33935000,0.0019999999,0.0,0.0019999999,0.0,nan,nan,nan,nan,nan,nan,nan,nan,0
34035000,34035000,0.0019999996,1.1641532e-10,0.0019999999,0.0,nan,nan,nan,nan,nan,nan,nan,nan,0
34135000,34135000,0.0019999999,0.0,0.0019999999,1.1641532e-10,nan,nan,nan,nan,nan,nan,nan,nan,0
34235000,34235000,0.0002704557,0.0014302991,0.0021297303,0.00016951447,nan,nan,nan,nan,nan,nan,nan,nan,0
34335000,34335000,0.0020000003,0.0,0.0019999999,0.0,nan,nan,nan,nan,nan,nan,nan,nan,0
34435000,34435000,0.0019999999,0.0,0.002,0.0,nan,nan,nan,nan,nan,nan,nan,nan,0
34535000,34535000,0.0,0.0020000003,0.0,0.0019999994,nan,nan,nan,nan,nan,nan,nan,nan,0
34635000,34635000,0.0019999996,1.1641532e-10,0.0019999996,0.0,nan,nan,nan,nan,nan,nan,nan,nan,0
34735000,34735000,0.002,0.0,0.0020000006,0.0,nan,nan,nan,nan,nan,nan,nan,nan,0
34835000,34835000,0.0020000006,0.0,0.0019999996,0.0,nan,nan,nan,nan,nan,nan,nan,nan,0
34935000,34935000,0.0020000003,0.0,0.0020000003,0.0,nan,nan,nan,nan,nan,nan,nan,nan,0
35035000,35035000,0.0019999994,0.0,0.0019999992,4.656613e-10,nan,nan,nan,nan,nan,nan,nan,nan,0
35135000,35135000,0.002,0.0,0.002,0.0,nan,nan,nan,nan,nan,nan,nan,nan,0
35235000,35235000,0.002,0.0,0.002,0.0,nan,nan,nan,nan,nan,nan,nan,nan,0
35335000,35335000,0.00016409138,0.0022144127,0.00063313753,0.0009883583,nan,nan,nan,nan,nan,nan,nan,nan,0
35435000,35435000,0.0,0.0020000008,0.0,0.0019999999,nan,nan,nan,nan,nan,nan,nan,nan,0
35535000,35535000,0.0019999999,0.0,0.0019999994,0.0,nan,nan,nan,nan,nan,nan,nan,nan,0
35635000,35635000,0.0,0.0019999999,0.0,0.0020000003,nan,nan,nan,nan,nan,nan,nan,nan,0
35735000,35735000,0.0,0.0020000003,0.0,0.002,nan,nan,nan,nan,nan,nan,nan,nan,0
35835000,35835000,0.0020000008,0.0,0.0020000003,0.0,nan,nan,nan,nan,nan,nan,nan,nan,0
35935000,35935000,0.0019999999,4.656613e-10,0.0019999994,0.0,nan,nan,nan,nan,nan,nan,nan,nan,0
36035000,36035000,0.0019999999,0.0,0.00022787915,0.0017721206,nan,nan,nan,nan,nan,nan,nan,nan,0
36135000,36135000,0.0020000003,0.0,0.0020000003,0.0,nan,nan,nan,nan,nan,nan,nan,nan,0
36231000,36231000,0.0009610194,0.0010389804,0.0,0.0019999999,nan,nan,nan,nan,nan,nan,nan,nan,0
36335000,36335000,0.002,0.0,0.002000001,0.0,nan,nan,nan,nan,nan,nan,nan,nan,0
36435000,36435000,0.0015353407,0.0,0.0022014417,0.00026321737,nan,nan,nan,nan,nan,nan,nan,nan,0
36535000,36535000,0.0,0.0019999994,0.0,0.0019999999,nan,nan,nan,nan,nan,nan,nan,nan,0
36635000,36635000,0.0019999999,0.0,0.0019999999,0.0,nan,nan,nan,nan,nan,nan,nan,nan,0
36735000,36735000,0.0008788485,0.0011211513,0.002,0.0,nan,nan,nan,nan,nan,nan,nan,nan,0
36835000,36835000,5.820766e-11,0.0019999996,0.0,0.0019999996,nan,nan,nan,nan,nan,nan,nan,nan,0
36935000,36935000,0.0020000003,0.0,0.0020000003,0.0,nan,nan,nan,nan,nan,nan,nan,nan,0
37035000,37035000,0.002,0.0,0.002,0.0,nan,nan,nan,nan,nan,nan,nan,nan,0
37135000,37135000,0.0019999999,0.0,0.0019999999,0.0,nan,nan,nan,nan,nan,nan,nan,nan,0
37235000,37235000,0.0019999985,0.0,0.0020000003,1.8626451e-09,nan,nan,nan,nan,nan,nan,nan,nan,0
37335000,37335000,0.0,0.0020000003,0.0017251819,0.0002748184,nan,nan,nan,nan,nan,nan,nan,nan,0
37435000,37435000,0.0019999996,0.0,0.0019999999,0.0,nan,nan,nan,nan,nan,nan,nan,nan,0
37535000,37535000,0.0019999999,0.0,0.0020000008,0.0,nan,nan,nan,nan,nan,nan,nan,nan,0
37635000,37635000,0.0019999999,0.0,0.0019999999,0.0,nan,nan,nan,nan,nan,nan,nan,nan,0
37735000,37735000,0.002,0.0,0.0020000003,0.0,nan,nan,nan,nan,nan,nan,nan,nan,0
37835000,37835000,0.0020000003,0.0,0.0019999994,0.0,nan,nan,nan,nan,nan,nan,nan,nan,0
37935000,37935000,0.0,0.0019999999,0.0,0.0019999999,nan,nan,nan,nan,nan,nan,nan,nan,0
38035000,38035000,0.0020000003,0.0,0.0019999994,0.0,nan,nan,nan,nan,nan,nan,nan,nan,0
38135000,38135000,0.0,0.0019999999,0.0,0.0020000008,nan,nan,nan,nan,nan,nan,nan,nan,0
38235000,38235000,0.0019999999,0.0,0.0019999999,0.0,nan,nan,nan,nan,nan,nan,nan,nan,0
38335000,38335000,0.0020000003,0.0,0.0020000022,0.0,nan,nan,nan,nan,nan,nan,nan,nan,0
38431000,38431000,0.0020000003,0.0,0.0020000003,0.0,nan,nan,nan,nan,nan,nan,nan,nan,0
38535000,38535000,0.0019999994,0.0,0.0019999994,0.0,nan,nan,nan,nan,nan,nan,nan,nan,0
38635000,38635000,0.0019999994,0.0,0.0020000003,0.0,nan,nan,nan,nan,nan,nan,nan,nan,0
38735000,38735000,0.0020000008,0.0,0.0019999999,0.0,nan,nan,nan,nan,nan,nan,nan,nan,0
38835000,38835000,0.0019999999,0.0,0.0020000008,0.0,nan,nan,nan,nan,nan,nan,nan,nan,0
38935000,38935000,0.0019999999,0.0,0.0019999999,0.0,nan,nan,nan,nan,nan,nan,nan,nan,0
39035000,39035000,0.0,0.0020000003,4.656613e-10,0.0019999994,nan,nan,nan,nan,nan,nan,nan,nan,0
39135000,39135000,0.0,0.0019999999,0.0,0.0019999999,nan,nan,nan,nan,nan,nan,nan,nan,0
39235000,39235000,0.0018905948,0.00010940526,0.0019999999,0.0,nan,nan,nan,nan,nan,nan,nan,nan,0
39335000,39335000,0.0027653466,0.0010000527,0.00011447427,0.00012012618,nan,nan,nan,nan,nan,nan,nan,nan,0
39435000,39435000,0.0019999999,0.0,0.001999999,0.0,nan,nan,nan,nan,nan,nan,nan,nan,0
39535000,39535000,0.0020370823,0.0017147616,0.00017481612,7.3339674e-05,nan,nan,nan,nan,nan,nan,nan,nan,0
39635000,39635000,0.0019999996,0.0,0.002000001,0.0,nan,nan,nan,nan,nan,nan,nan,nan,0
39735000,39735000,0.0019999996,0.0,0.002,0.0,nan,nan,nan,nan,nan,nan,nan,nan,0
39835000,39835000,0.0,0.0019999999,0.0,0.0019999994,nan,nan,nan,nan,nan,nan,nan,nan,0
39931000,39931000,0.0020000003,0.0,0.0019999994,0.0,nan,nan,nan,nan,nan,nan,nan,nan,0
40035000,40035000,0.0,0.002,0.0,0.0019999994,nan,nan,nan,nan,nan,nan,nan,nan,0
40135000,40135000,0.0019999999,0.0,0.0019999999,0.0,nan,nan,nan,nan,nan,nan,nan,nan,0
40235000,40235000,0.00014340895,0.0021873878,0.0016692029,0.0,nan,nan,nan,nan,nan,nan,nan,nan,0
40335000,40335000,0.0,0.002000001,0.0,0.0019999996,nan,nan,nan,nan,nan,nan,nan,nan,0
40435000,40435000,0.0019999999,0.0,0.0019999996,0.0,nan,nan,nan,nan,nan,nan,nan,nan,0
40535000,40535000,0.0010421621,0.0009578392,0.0019999994,0.0,nan,nan,nan,nan,nan,nan,nan,nan,0
40635000,40635000,2.783275e-05,0.002036368,0.0019357989,0.0,nan,nan,nan,nan,nan,nan,nan,nan,0
40731000,40731000,0.0,0.0019841571,6.868271e-06,0.0020089746,nan,nan,nan,nan,nan,nan,nan,nan,0
40835000,40835000,0.0,0.0019999968,1.8626451e-09,0.002000002,nan,nan,nan,nan,nan,nan,nan,nan,0
40935000,40935000,0.0019999999,0.0,0.0020000008,0.0,nan,nan,nan,nan,nan,nan,nan,nan,0
41035000,41035000,0.0,0.0020000008,0.0,0.0019999999,nan,nan,nan,nan,nan,nan,nan,nan,0
41135000,41135000,0.0,0.0020000003,0.0,0.0020000003,nan,nan,nan,nan,nan,nan,nan,nan,0
41235000,41235000,0.0,0.0019999999,9.313226e-10,0.0019999999,nan,nan,nan,nan,nan,nan,nan,nan,0
41335000,41335000,0.0,0.0020000003,0.0,0.0020000003,nan,nan,nan,nan,nan,nan,nan,nan,0
41435000,41435000,0.0,0.0020000008,0.0,0.0019999999,nan,nan,nan,nan,nan,nan,nan,nan,0
41535000,41535000,0.0,0.0019999996,0.0,0.0019999996,nan,nan,nan,nan,nan,nan,nan,nan,0
41635000,41635000,0.002,0.0,0.002,0.0,nan,nan,nan,nan,nan,nan,nan,nan,0
41735000,41735000,0.0020000013,0.0,0.0019999985,0.0,nan,nan,nan,nan,nan,nan,nan,nan,0
41835000,41835000,0.0,0.0019999999,0.0,0.0020000008,nan,nan,nan,nan,nan,nan,nan,nan,0
41935000,41935000,0.0,0.0020000003,0.00090924837,0.001090752,nan,nan,nan,nan,nan,nan,nan,nan,0
42035000,42035000,0.0019999996,0.0,0.002,0.0,nan,nan,nan,nan,nan,nan,nan,nan,0
42135000,42135000,0.001999999,0.0,0.0020000013,4.656613e-10,nan,nan,nan,nan,nan,nan,nan,nan,0
42235000,42235000,0.0020000003,0.0,0.0020000013,0.0,nan,nan,nan,nan,nan,nan,nan,nan,0
42335000,42335000,0.0,0.0019999992,0.0,0.002,nan,nan,nan,nan,nan,nan,nan,nan,0
42435000,42435000,0.0,0.002,0.0,0.0019999999,nan,nan,nan,nan,nan,nan,nan,nan,0
42531000,42531000,0.0019999999,0.0,0.0020000008,0.0,nan,nan,nan,nan,nan,nan,nan,nan,0
42631000,42631000,0.0020000003,0.0,0.0020000003,0.0,nan,nan,nan,nan,nan,nan,nan,nan,0
42735000,42735000,0.0020000003,0.0,0.0020000003,0.0,nan,nan,nan,nan,nan,nan,nan,nan,0
42835000,42835000,0.0002820976,0.0023686076,0.0,0.0013492948,nan,nan,nan,nan,nan,nan,nan,nan,0
42935000,42935000,0.0,0.0019999996,0.0,0.0019999996,nan,nan,nan,nan,nan,nan,nan,nan,0
43035000,43035000,0.0019999996,0.0,0.002000001,0.0,nan,nan,nan,nan,nan,nan,nan,nan,0
43135000,43135000,0.00020867091,0.0022726632,0.0015186657,0.0,nan,nan,nan,nan,nan,nan,nan,nan,0
43235000,43235000,0.0019999999,0.0,0.0020000008,0.0,nan,nan,nan,nan,nan,nan,nan,nan,0
43335000,43335000,0.002000001,9.313226e-10,0.0019999987,0.0,nan,nan,nan,nan,nan,nan,nan,nan,0
43435000,43435000,0.0,0.0020000003,0.0,0.0019999999,nan,nan,nan,nan,nan,nan,nan,nan,0
43535000,43535000,0.0020000003,0.0,0.0019999994,0.0,nan,nan,nan,nan,nan,nan,nan,nan,0
43635000,43635000,0.00015950855,0.0022084243,0.0,0.0016320668,nan,nan,nan,nan,nan,nan,nan,nan,0
43735000,43735000,0.0019999999,0.0,0.0019999999,0.0,nan,nan,nan,nan,nan,nan,nan,nan,0
43835000,43835000,0.0019999999,0.0,0.0020000003,2.3283064e-10,nan,nan,nan,nan,nan,nan,nan,nan,0
43935000,43935000,0.0,0.0019999999,0.0,0.0020000003,nan,nan,nan,nan,nan,nan,nan,nan,0
44035000,44035000,0.0,0.0019999999,0.0,0.0019999999,nan,nan,nan,nan,nan,nan,nan,nan,0
44135000,44135000,0.0020000013,0.0,0.0020000003,0.0,nan,nan,nan,nan,nan,nan,nan,nan,0
44235000,44235000,0.0018889558,0.0007652376,0.0,0.0013458063,nan,nan,nan,nan,nan,nan,nan,nan,0
44335000,44335000,0.0019999994,0.0,0.0020000003,9.313226e-10,nan,nan,nan,nan,nan,nan,nan,nan,0
44435000,44435000,0.0,0.0019999999,0.0019332737,6.6726e-05,nan,nan,nan,nan,nan,nan,nan,nan,0
44535000,44535000,0.0013963832,0.00060361694,0.0,0.0019999999,nan,nan,nan,nan,nan,nan,nan,nan,0
44635000,44635000,0.0014870507,0.00077261124,0.0017403379,0.0,nan,nan,nan,nan,nan,nan,nan,nan,0
44735000,44735000,0.00279444,0.0010380689,0.0,0.00016749045,nan,nan,nan,nan,nan,nan,nan,nan,0
44835000,44835000,0.0020000008,0.0,0.0019999999,0.0,nan,nan,nan,nan,nan,nan,nan,nan,0
44931000,44931000,0.0019999999,0.0,0.0019999999,0.0,nan,nan,nan,nan,nan,nan,nan,nan,0
45031000,45031000,0.0019999999,0.0,0.0020000008,0.0,nan,nan,nan,nan,nan,nan,nan,nan,0
45135000,45135000,0.0,0.0019999999,0.0,0.0019999999,nan,nan,nan,nan,nan,nan,nan,nan,0
45235000,45235000,0.0,0.0019999996,0.0,0.0019999999,nan,nan,nan,nan,nan,nan,nan,nan,0
45335000,45335000,0.0,0.0019999999,0.0,0.0019999994,nan,nan,nan,nan,nan,nan,nan,nan,0
45435000,45435000,0.0020000003,0.0,0.0020000003,0.0,nan,nan,nan,nan,nan,nan,nan,nan,0
45535000,45535000,0.0019999999,0.0,0.0019999999,0.0,nan,nan,nan,nan,nan,nan,nan,nan,0
45635000,45635000,0.0,0.0019999999,0.0,0.0019999999,nan,nan,nan,nan,nan,nan,nan,nan,0
45731000,45731000,0.0019999999,0.0,0.0019999999,0.0,nan,nan,nan,nan,nan,nan,nan,nan,0
45835000,45835000,4.656613e-10,0.002,0.0,0.0019999996,nan,nan,nan,nan,nan,nan,nan,nan,0
45935000,45935000,0.0,0.0019999999,0.0,0.002,nan,nan,nan,nan,nan,nan,nan,nan,0
46035000,46035000,0.0019999999,0.0,0.0020000003,0.0,nan,nan,nan,nan,nan,nan,nan,nan,0
46135000,46135000,0.0019999999,4.656613e-10,0.0019999999,0.0,nan,nan,nan,nan,nan,nan,nan,nan,0
46235000,46235000,0.00096405996,0.0013946916,0.0,0.0016412481,nan,nan,nan,nan,nan,nan,nan,nan,0
46335000,46335000,0.0019999999,0.0,0.0020000008,0.0,nan,nan,nan,nan,nan,nan,nan,nan,0
46435000,46435000,0.0020000006,0.0,0.0020000008,0.0,nan,nan,nan,nan,nan,nan,nan,nan,0
46535000,46535000,0.0,0.002,0.0,0.0020000003,nan,nan,nan,nan,nan,nan,nan,nan,0
46635000,46635000,0.0020000008,0.0,0.0019999999,0.0,nan,nan,nan,nan,nan,nan,nan,nan,0
46735000,46735000,0.0020000008,0.0,0.0019999999,0.0,nan,nan,nan,nan,nan,nan,nan,nan,0
46835000,46835000,0.0019999994,0.0,0.0020000003,0.0,nan,nan,nan,nan,nan,nan,nan,nan,0
46935000,46935000,0.0020000003,0.0,0.0019999999,0.0,nan,nan,nan,nan,nan,nan,nan,nan,0
47035000,47035000,0.0019999999,9.313226e-10,0.001999999,0.0,nan,nan,nan,nan,nan,nan,nan,nan,0
47135000,47135000,0.0024405066,0.00057559524,0.000983898,0.0,nan,nan,nan,nan,nan,nan,nan,nan,0
47235000,47235000,0.0,0.0019999994,0.0,0.0020000013,nan,nan,nan,nan,nan,nan,nan,nan,0
47335000,47335000,0.0020000003,0.0,0.0020000003,0.0,nan,nan,nan,nan,nan,nan,nan,nan,0
47435000,47435000,0.0020000027,0.0,0.0020000008,0.0,nan,nan,nan,nan,nan,nan,nan,nan,0
47535000,47535000,0.0019999994,0.0,0.0020000013,0.0,nan,nan,nan,nan,nan,nan,nan,nan,0
47635000,47635000,0.0020000003,0.0,0.0019999994,0.0,nan,nan,nan,nan,nan,nan,nan,nan,0
47735000,47735000,0.0020000003,1.8626451e-09,0.0020000003,0.0,nan,nan,nan,nan,nan,nan,nan,nan,0
47835000,47835000,0.0020000003,9.313226e-10,0.0020000003,0.0,nan,nan,nan,nan,nan,nan,nan,nan,0
47935000,47935000,0.0020000006,0.0,0.0020000015,0.0,nan,nan,nan,nan,nan,nan,nan,nan,0
48035000,48035000,0.0,0.0019999996,0.0,0.0019999996,nan,nan,nan,nan,nan,nan,nan,nan,0
48135000,48135000,0.0020000008,0.0,0.0019999999,0.0,nan,nan,nan,nan,nan,nan,nan,nan,0
48235000,48235000,0.001999998,0.0,0.0019999996,9.313226e-10,nan,nan,nan,nan,nan,nan,nan,nan,0
48335000,48335000,0.002,0.0,0.002,0.0,nan,nan,nan,nan,nan,nan,nan,nan,0
48435000,48435000,0.0,0.0019999999,0.0,0.0019999999,nan,nan,nan,nan,nan,nan,nan,nan,0
48535000,48535000,0.0020000013,0.0,0.0020000003,0.0,nan,nan,nan,nan,nan,nan,nan,nan,0
48635000,48635000,0.0020000008,0.0,0.0019999999,0.0,nan,nan,nan,nan,nan,nan,nan,nan,0
48731000,48731000,0.0019999994,0.0,0.0019999994,0.0,nan,nan,nan,nan,nan,nan,nan,nan,0
48831000,48831000,0.0020000003,0.0,0.0019999999,0.0,nan,nan,nan,nan,nan,nan,nan,nan,0
48935000,48935000,0.0019999994,0.0,0.0020000013,0.0,nan,nan,nan,nan,nan,nan,nan,nan,0
49035000,49035000,0.0019999994,0.0,0.0020000003,0.0,nan,nan,nan,nan,nan,nan,nan,nan,0
49135000,49135000,0.0019999999,0.0,0.00094907917,0.0010509207,nan,nan,nan,nan,nan,nan,nan,nan,0
49231000,49231000,0.0019999987,0.0,0.0019999999,9.313226e-10,nan,nan,nan,nan,nan,nan,nan,nan,0
49335000,49335000,0.0019999994,0.0,0.0019999994,0.0,nan,nan,nan,nan,nan,nan,nan,nan,0
49435000,49435000,0.0019999985,0.0,0.0020000003,9.313226e-10,nan,nan,nan,nan,nan,nan,nan,nan,0
49535000,49535000,0.0019999996,0.0,0.0019999996,4.656613e-10,nan,nan,nan,nan,nan,nan,nan,nan,0
49635000,49635000,0.0020000008,0.0,0.0019999999,0.0,nan,nan,nan,nan,nan,nan,nan,nan,0
49735000,49735000,0.0020000003,0.0,0.0002699904,0.0017300098,nan,nan,nan,nan,nan,nan,nan,nan,0
49835000,49835000,0.0020000003,0.0,0.0020000003,0.0,nan,nan,nan,nan,nan,nan,nan,nan,0
49935000,49935000,0.0019999994,0.0,0.0019999994,0.0,nan,nan,nan,nan,nan,nan,nan,nan,0
50035000,50035000,0.0019999999,0.0,0.0020000008,0.0,nan,nan,nan,nan,nan,nan,nan,nan,0
50135000,50135000,0.0020000008,0.0,0.0019999999,0.0,nan,nan,nan,nan,nan,nan,nan,nan,0
50235000,50235000,1.1641532e-10,0.0019999999,0.0,0.0020000006,nan,nan,nan,nan,nan,nan,nan,nan,0
50335000,50335000,0.0020000003,0.0,0.0019999999,0.0,nan,nan,nan,nan,nan,nan,nan,nan,0
50435000,50435000,0.0020000003,0.0,0.0019999994,0.0,nan,nan,nan,nan,nan,nan,nan,nan,0
50535000,50535000,0.0,0.0019999994,0.0,0.0020000003,nan,nan,nan,nan,nan,nan,nan,nan,0
50635000,50635000,0.001999999,9.313226e-10,0.0019999999,0.0,nan,nan,nan,nan,nan,nan,nan,nan,0
50735000,50735000,0.0019999999,4.656613e-10,0.0019999996,0.0,nan,nan,nan,nan,nan,nan,nan,nan,0
50835000,50835000,0.0019999999,0.0,0.0019999999,0.0,nan,nan,nan,nan,nan,nan,nan,nan,0
50935000,50935000,0.0019999994,0.0,0.0020000003,0.0,nan,nan,nan,nan,nan,nan,nan,nan,0
51035000,51035000,0.0019999987,0.0,0.002,9.313226e-10,nan,nan,nan,nan,nan,nan,nan,nan,0
51135000,51135000,0.0020000003,0.0,0.0020000003,0.0,nan,nan,nan,nan,nan,nan,nan,nan,0
51235000,51235000,0.0020000003,0.0,0.0020000003,0.0,nan,nan,nan,nan,nan,nan,nan,nan,0
51335000,51335000,0.0020000008,0.0,0.0019999999,0.0,nan,nan,nan,nan,nan,nan,nan,nan,0
51435000,51435000,0.0019999999,0.0,0.0014308013,0.0005691983,nan,nan,nan,nan,nan,nan,nan,nan,0
51535000,51535000,0.002,9.313226e-10,0.0019999996,0.0,nan,nan,nan,nan,nan,nan,nan,nan,0
51635000,51635000,0.0019999999,2.3283064e-10,0.0019999999,0.0,nan,nan,nan,nan,nan,nan,nan,nan,0
51731000,51731000,0.0019999994,0.0,0.0020000013,0.0,nan,nan,nan,nan,nan,nan,nan,nan,0
51835000,51835000,0.0019999996,0.0,0.0019999996,0.0,nan,nan,nan,nan,nan,nan,nan,nan,0
51935000,51935000,0.0019999999,0.0,0.0020000008,0.0,nan,nan,nan,nan,nan,nan,nan,nan,0
52035000,52035000,0.0020000003,0.0,0.0020000003,0.0,nan,nan,nan,nan,nan,nan,nan,nan,0
52135000,52135000,0.0020000003,0.0,0.0020000003,0.0,nan,nan,nan,nan,nan,nan,nan,nan,0
52235000,52235000,0.0020000003,0.0,0.0020000003,0.0,nan,nan,nan,nan,nan,nan,nan,nan,0
52331000,52331000,0.0019999994,0.0,0.0019999994,4.656613e-10,nan,nan,nan,nan,nan,nan,nan,nan,0
52435000,52435000,0.0020000008,0.0,0.001999999,9.313226e-10,nan,nan,nan,nan,nan,nan,nan,nan,0
52535000,52535000,0.001999999,0.0,0.0019999999,1.8626451e-09,nan,nan,nan,nan,nan,nan,nan,nan,0
52635000,52635000,0.0020000006,0.0,0.0020000006,0.0,nan,nan,nan,nan,nan,nan,nan,nan,0
52735000,52735000,0.0020000008,0.0,0.0019999999,0.0,nan,nan,nan,nan,nan,nan,nan,nan,0
52835000,52835000,0.002,0.0,0.002,0.0,nan,nan,nan,nan,nan,nan,nan,nan,0
52935000,52935000,0.0020000003,0.0,0.0020000003,0.0,nan,nan,nan,nan,nan,nan,nan,nan,0
53035000,53035000,0.0019999994,0.0,0.0020000013,0.0,nan,nan,nan,nan,nan,nan,nan,nan,0
53135000,53135000,0.0020000003,0.0,0.0020000003,0.0,nan,nan,nan,nan,nan,nan,nan,nan,0
53235000,53235000,0.0020000008,0.0,0.0019999999,0.0,nan,nan,nan,nan,nan,nan,nan,nan,0
53335000,53335000,0.0020000003,0.0,0.0020000003,0.0,nan,nan,nan,nan,nan,nan,nan,nan,0
53435000,53435000,0.0019999999,0.0,0.0019999999,0.0,nan,nan,nan,nan,nan,nan,nan,nan,0
53531000,53531000,0.002,0.0,0.002,0.0,nan,nan,nan,nan,nan,nan,nan,nan,0
53635000,53635000,0.0020000003,0.0,0.0020000003,0.0,nan,nan,nan,nan,nan,nan,nan,nan,0
53735000,53735000,0.0020000003,0.0,0.0020000003,0.0,nan,nan,nan,nan,nan,nan,nan,nan,0
53835000,53835000,0.0020000003,0.0,0.0020000003,0.0,nan,nan,nan,nan,nan,nan,nan,nan,0
53935000,53935000,0.0020000003,0.0,0.0020000003,0.0,nan,nan,nan,nan,nan,nan,nan,nan,0
54035000,54035000,0.0019999992,0.0,0.0019999996,4.656613e-10,nan,nan,nan,nan,nan,nan,nan,nan,0
54135000,54135000,0.0020000003,0.0,0.0020000003,0.0,nan,nan,nan,nan,nan,nan,nan,nan,0
54231000,54231000,0.0020000013,0.0,0.0019999994,0.0,nan,nan,nan,nan,nan,nan,nan,nan,0
54335000,54335000,0.0019999999,4.656613e-10,0.0019999999,0.0,nan,nan,nan,nan,nan,nan,nan,nan,0
