timestamp,timestamp_sample,gps_hvel[0],gps_hvel[1],gps_vvel,gps_hpos[0],gps_hpos[1],gps_vpos,ev_hvel[0],ev_hvel[1],ev_vvel,ev_hpos[0],ev_hpos[1],ev_vpos,rng_vpos,baro_vpos,aux_hvel[0],aux_hvel[1],flow[0],flow[1],heading,mag_field[0],mag_field[1],mag_field[2],gravity[0],gravity[1],gravity[2],drag[0],drag[1],airspeed,beta,hagl,hagl_rate
4435000,4283000,0.0,0.0,0.0,0.0,0.0,0.0,0.0,0.0,0.0,0.0,0.0,0.0,0.0,0.0,0.0,0.0,0.0,0.0,0.0,0.0075000003,0.0075000003,0.0075000003,1.0102823,1.0102793,1.0000036,0.0,0.0,0.0,0.0,0.0,0.0
4443000,4291000,0.0,0.0,0.0,0.0,0.0,0.0,0.0,0.0,0.0,0.0,0.0,0.0,0.0,112.53226,0.0,0.0,0.0,0.0,0.0,0.0075000003,0.0075000003,0.0075000003,1.0103098,1.0103068,1.0000036,0.0,0.0,0.0,0.0,0.0,0.0
4451000,4299000,0.0,0.0,0.0,0.0,0.0,0.0,0.0,0.0,0.0,0.0,0.0,0.0,0.0,112.53226,0.0,0.0,0.0,0.0,0.0,0.0075000003,0.0075000003,0.0075000003,1.0103385,1.0103357,1.0000037,0.0,0.0,0.0,0.0,0.0,0.0
4459000,4307000,0.0,0.0,0.0,0.0,0.0,0.0,0.0,0.0,0.0,0.0,0.0,0.0,0.0,112.53226,0.0,0.0,0.0,0.0,0.0,0.0075000003,0.0075000003,0.0075000003,1.0103687,1.0103657,1.0000037,0.0,0.0,0.0,0.0,0.0,0.0
4467000,4315000,0.0,0.0,0.0,0.0,0.0,0.0,0.0,0.0,0.0,0.0,0.0,0.0,0.0,112.53226,0.0,0.0,0.0,0.0,0.0,0.0075000003,0.0075000003,0.0075000003,1.0104,1.0103972,1.0000036,0.0,0.0,0.0,0.0,0.0,0.0
4475000,4323000,0.0,0.0,0.0,0.0,0.0,0.0,0.0,0.0,0.0,0.0,0.0,0.0,0.0,112.53226,0.0,0.0,0.0,0.0,0.0,0.0075000008,0.0075000008,0.0075000003,1.0104327,1.01043,1.0000036,0.0,0.0,0.0,0.0,0.0,0.0
4483000,4331000,0.0,0.0,0.0,0.0,0.0,0.0,0.0,0.0,0.0,0.0,0.0,0.0,0.0,112.53226,0.0,0.0,0.0,0.0,0.0,0.0075000008,0.0075000008,0.0075000003,1.0104667,1.0104638,1.0000035,0.0,0.0,0.0,0.0,0.0,0.0
4491000,4339000,0.0,0.0,0.0,0.0,0.0,0.0,0.0,0.0,0.0,0.0,0.0,0.0,0.0,112.53226,0.0,0.0,0.0,0.0,0.0,0.0075000008,0.0075000008,0.0075000003,1.0105019,1.0104991,1.0000035,0.0,0.0,0.0,0.0,0.0,0.0
4507000,4355000,0.0,0.0,0.0,0.0,0.0,0.0,0.0,0.0,0.0,0.0,0.0,0.0,0.0,112.53226,0.0,0.0,0.0,0.0,0.0,0.0075000008,0.0075000008,0.0075000003,1.0105761,1.0105734,1.0000035,0.0,0.0,0.0,0.0,0.0,0.0
4515000,4363000,0.0,0.0,0.0,0.0,0.0,0.0,0.0,0.0,0.0,0.0,0.0,0.0,0.0,112.82604,0.0,0.0,0.0,0.0,0.0,0.0075000008,0.0075000008,0.0075000003,1.0106151,1.0106124,1.0000035,0.0,0.0,0.0,0.0,0.0,0.0
4523000,4371000,0.0,0.0,0.0,0.0,0.0,0.0,0.0,0.0,0.0,0.0,0.0,0.0,0.0,112.82604,0.0,0.0,0.0,0.0,0.0,0.0075000008,0.0075000008,0.0075000003,1.0106554,1.0106528,1.0000035,0.0,0.0,0.0,0.0,0.0,0.0
4531000,4379000,0.0,0.0,0.0,0.0,0.0,0.0,0.0,0.0,0.0,0.0,0.0,0.0,0.0,112.82604,0.0,0.0,0.0,0.0,0.0,0.0075000008,0.0075000008,0.0075000003,1.0106971,1.0106944,1.0000035,0.0,0.0,0.0,0.0,0.0,0.0
4547000,4395000,0.0,0.0,0.0,0.0,0.0,0.0,0.0,0.0,0.0,0.0,0.0,0.0,0.0,112.82604,0.0,0.0,0.0,0.0,0.0,0.0075000003,0.0075000008,0.0075,1.0107841,1.0107815,1.0000033,0.0,0.0,0.0,0.0,0.0,0.0
4555000,4403000,0.0,0.0,0.0,0.0,0.0,0.0,0.0,0.0,0.0,0.0,0.0,0.0,0.0,112.82604,0.0,0.0,0.0,0.0,0.0,0.0075000003,0.0075000008,0.0075,1.0108296,1.010827,1.0000033,0.0,0.0,0.0,0.0,0.0,0.0
4563000,4411000,0.0,0.0,0.0,0.0,0.0,0.0,0.0,0.0,0.0,0.0,0.0,0.0,0.0,112.82604,0.0,0.0,0.0,0.0,0.0,0.0075000003,0.0075000008,0.0075,1.0108763,1.0108738,1.0000033,0.0,0.0,0.0,0.0,0.0,0.0
4571000,4419000,0.0,0.0,0.0,0.0,0.0,0.0,0.0,0.0,0.0,0.0,0.0,0.0,0.0,112.82604,0.0,0.0,0.0,0.0,0.0,0.0075000003,0.0075000008,0.0075,1.0109243,1.0109218,1.0000033,0.0,0.0,0.0,0.0,0.0,0.0
4587000,4435000,0.0,0.0,0.0,0.0,0.0,0.0,0.0,0.0,0.0,0.0,0.0,0.0,0.0,113.174255,0.0,0.0,0.0,0.0,0.0,0.0075000003,0.0075000008,0.0075,1.0110242,1.0110217,1.0000032,0.0,0.0,0.0,0.0,0.0,0.0
4595000,4443000,0.0,0.0,0.0,0.0,0.0,0.0,0.0,0.0,0.0,0.0,0.0,0.0,0.0,113.174255,0.0,0.0,0.0,0.0,0.0,0.0075000003,0.0075000008,0.0075,1.0110761,1.0110736,1.0000032,0.0,0.0,0.0,0.0,0.0,0.0
4603000,4451000,0.0,0.0,0.0,0.0,0.0,0.0,0.0,0.0,0.0,0.0,0.0,0.0,0.0,113.174255,0.0,0.0,0.0,0.0,0.0,0.0075000003,0.0075000008,0.0075,1.0111293,1.0111266,1.0000033,0.0,0.0,0.0,0.0,0.0,0.0
4611000,4459000,0.0,0.0,0.0,0.0,0.0,0.0,0.0,0.0,0.0,0.0,0.0,0.0,0.0,113.174255,0.0,0.0,0.0,0.0,0.0,0.007500001,0.0075000008,0.0075000003,1.0111836,1.011181,1.0000033,0.0,0.0,0.0,0.0,0.0,0.0
4627000,4475000,0.0,0.0,0.0,0.0,0.0,0.0,0.0,0.0,0.0,0.0,0.0,0.0,0.0,113.174255,0.0,0.0,0.0,0.0,0.0,0.007500001,0.0075000008,0.0075000003,1.0112963,1.0112936,1.0000035,0.0,0.0,0.0,0.0,0.0,0.0
4635000,4483000,0.0,0.0,0.0,0.0,0.0,0.0,0.0,0.0,0.0,0.0,0.0,0.0,0.0,113.174255,0.0,0.0,0.0,0.0,0.0,0.007500001,0.0075000008,0.0075000003,1.0113546,1.011352,1.0000033,0.0,0.0,0.0,0.0,0.0,0.0
4643000,4491000,0.0,0.0,0.0,0.0,0.0,0.0,0.0,0.0,0.0,0.0,0.0,0.0,0.0,62.601215,0.0,0.0,0.0,0.0,0.0,0.007500001,0.0075000008,0.0075000003,1.0114138,1.011411,1.0000033,0.0,0.0,0.0,0.0,0.0,0.0
4651000,4499000,0.0,0.0,0.0,0.0,0.0,0.0,0.0,0.0,0.0,0.0,0.0,0.0,0.0,62.601215,0.0,0.0,0.0,0.0,0.0,0.007500001,0.0075000008,0.0075000003,1.0114746,1.0114717,1.0000035,0.0,0.0,0.0,0.0,0.0,0.0
4667000,4515000,0.0,0.0,0.0,0.0,0.0,0.0,0.0,0.0,0.0,0.0,0.0,0.0,0.0,62.601215,0.0,0.0,0.0,0.0,0.0,0.007500001,0.0075000008,0.0075000003,1.0116,1.0115972,1.0000035,0.0,0.0,0.0,0.0,0.0,0.0
4675000,4523000,0.0,0.0,0.0,0.0,0.0,0.0,0.0,0.0,0.0,0.0,0.0,0.0,0.0,62.601215,0.0,0.0,0.0,0.0,0.0,0.007500001,0.0075000008,0.0075000003,1.0116647,1.0116618,1.0000036,0.0,0.0,0.0,0.0,0.0,0.0
4683000,4531000,0.0,0.0,0.0,0.0,0.0,0.0,0.0,0.0,0.0,0.0,0.0,0.0,0.0,62.601215,0.0,0.0,0.0,0.0,0.0,0.0075000003,0.0075,0.0075000003,1.0117307,1.0117277,1.0000036,0.0,0.0,0.0,0.0,0.0,0.0
4691000,4539000,0.0,0.0,0.0,0.0,0.0,0.0,0.0,0.0,0.0,0.0,0.0,0.0,0.0,62.601215,0.0,0.0,0.0,0.0,0.0,0.0075000003,0.0075,0.0075000003,1.0117978,1.0117948,1.0000035,0.0,0.0,0.0,0.0,0.0,0.0
4707000,4555000,24.492151,24.49215,10.145717,1.352009,1.352009,0.0,0.0,0.0,0.0,0.0,0.0,0.0,0.0,62.84166,0.0,0.0,0.0,0.0,0.0,0.0075000003,0.0075,0.0075000003,1.0119362,1.0119332,1.0000035,0.0,0.0,0.0,0.0,0.0,0.0
4715000,4563000,24.492151,24.49215,10.145717,1.352009,1.352009,0.0,0.0,0.0,0.0,0.0,0.0,0.0,0.0,62.84166,0.0,0.0,0.0,0.0,0.0,0.0075000003,0.0075,0.0075000003,1.0120072,1.0120043,1.0000035,0.0,0.0,0.0,0.0,0.0,0.0
4723000,4571000,24.492151,24.49215,10.145717,1.352009,1.352009,0.0,0.0,0.0,0.0,0.0,0.0,0.0,0.0,62.84166,0.0,0.0,0.0,0.0,0.0,0.0075000003,0.0075,0.0075000003,1.0120795,1.0120766,1.0000035,0.0,0.0,0.0,0.0,0.0,0.0
4731000,4579000,24.492151,24.49215,10.145717,1.352009,1.352009,0.0,0.0,0.0,0.0,0.0,0.0,0.0,0.0,62.84166,0.0,0.0,0.0,0.0,0.0,0.0075000003,0.0075,0.0075000003,1.0121531,1.0121502,1.0000035,0.0,0.0,0.0,0.0,0.0,0.0
4747000,4595000,24.492151,24.49215,10.145717,1.352009,1.352009,0.0,0.0,0.0,0.0,0.0,0.0,0.0,0.0,62.84166,0.0,0.0,0.0,0.0,0.0,0.0075000008,0.0075000003,0.0075000003,1.0123042,1.0123013,1.0000035,0.0,0.0,0.0,0.0,0.0,0.0
4755000,4603000,24.492151,24.49215,10.145717,1.352009,1.352009,0.0,0.0,0.0,0.0,0.0,0.0,0.0,0.0,62.84166,0.0,0.0,0.0,0.0,0.0,0.0075000008,0.0075000003,0.0075000003,1.0123817,1.0123787,1.0000035,0.0,0.0,0.0,0.0,0.0,0.0
4763000,4611000,24.492151,24.49215,10.145717,1.352009,1.352009,0.0,0.0,0.0,0.0,0.0,0.0,0.0,0.0,63.192837,0.0,0.0,0.0,0.0,0.0,0.0075000008,0.0075000003,0.0075000003,1.0124605,1.0124574,1.0000036,0.0,0.0,0.0,0.0,0.0,0.0
4771000,4619000,24.492151,24.49215,10.145717,1.352009,1.352009,0.0,0.0,0.0,0.0,0.0,0.0,0.0,0.0,63.192837,0.0,0.0,0.0,0.0,0.0,0.0075000008,0.0075000003,0.0075000003,1.0125405,1.0125375,1.0000036,0.0,0.0,0.0,0.0,0.0,0.0
4787000,4635000,24.492151,24.49215,10.145717,1.352009,1.352009,0.0,0.0,0.0,0.0,0.0,0.0,0.0,0.0,63.192837,0.0,0.0,0.0,0.0,0.0,0.0075000008,0.0075000003,0.0075000003,1.0127043,1.0127012,1.0000037,0.0,0.0,0.0,0.0,0.0,0.0
4795000,4643000,24.492151,24.49215,10.145717,1.352009,1.352009,0.0,0.0,0.0,0.0,0.0,0.0,0.0,0.0,63.192837,0.0,0.0,0.0,0.0,0.0,0.0075000008,0.0075000003,0.0075000003,1.0127882,1.012785,1.0000037,0.0,0.0,0.0,0.0,0.0,0.0
4803000,4651000,24.492151,24.49215,10.145717,1.352009,1.352009,0.0,0.0,0.0,0.0,0.0,0.0,0.0,0.0,63.192837,0.0,0.0,0.0,0.0,0.0,0.0075000008,0.0075000003,0.0075000003,1.0128733,1.0128701,1.0000037,0.0,0.0,0.0,0.0,0.0,0.0
4811000,4659000,24.492151,24.49215,10.145717,1.352009,1.352009,0.0,0.0,0.0,0.0,0.0,0.0,0.0,0.0,63.192837,0.0,0.0,0.0,0.0,0.0,0.0075000008,0.0075000003,0.0075000003,1.0129597,1.0129565,1.0000038,0.0,0.0,0.0,0.0,0.0,0.0
4827000,4675000,24.492151,24.49215,10.145717,1.352009,1.352009,0.0,0.0,0.0,0.0,0.0,0.0,0.0,0.0,63.625515,0.0,0.0,0.0,0.0,0.0,0.0075000003,0.0075000003,0.0075000008,1.0131364,1.0131332,1.0000038,0.0,0.0,0.0,0.0,0.0,0.0
4835000,4683000,24.492151,24.49215,10.145717,1.352009,1.352009,0.0,0.0,0.0,0.0,0.0,0.0,0.0,0.0,63.625515,0.0,0.0,0.0,0.0,0.0,0.0075000003,0.0075000003,0.0075000008,1.0132266,1.0132234,1.0000037,0.0,0.0,0.0,0.0,0.0,0.0
4843000,4691000,24.492151,24.49215,10.145717,1.352009,1.352009,0.0,0.0,0.0,0.0,0.0,0.0,0.0,0.0,63.625515,0.0,0.0,0.0,0.0,0.0,0.0075000003,0.0075000003,0.0075000008,1.0133182,1.013315,1.0000038,0.0,0.0,0.0,0.0,0.0,0.0
4851000,4699000,24.492151,24.49215,10.145717,1.352009,1.352009,0.0,0.0,0.0,0.0,0.0,0.0,0.0,0.0,63.625515,0.0,0.0,0.0,0.0,0.0,0.0075000003,0.0075000003,0.0075000008,1.013339,1.0133358,1.0000037,0.0,0.0,0.0,0.0,0.0,0.0
4867000,4715000,24.492151,24.49215,10.145717,1.352009,1.352009,0.0,0.0,0.0,0.0,0.0,0.0,0.0,0.0,63.625515,0.0,0.0,0.0,0.0,0.0,0.0075000003,0.0075000003,0.0075000008,1.0135281,1.0135247,1.0000039,0.0,0.0,0.0,0.0,0.0,0.0
4875000,4723000,24.492151,24.49215,10.145717,1.352009,1.352009,0.0,0.0,0.0,0.0,0.0,0.0,0.0,0.0,63.625515,0.0,0.0,0.0,0.0,0.0,0.0075000003,0.0075000003,0.0075000008,1.0136244,1.013621,1.0000039,0.0,0.0,0.0,0.0,0.0,0.0
4883000,4731000,24.492151,24.49215,10.145717,1.352009,1.352009,0.0,0.0,0.0,0.0,0.0,0.0,0.0,0.0,63.625515,0.0,0.0,0.0,0.0,0.0,0.0075000008,0.0075000003,0.0075000008,1.0137222,1.0137188,1.0000039,0.0,0.0,0.0,0.0,0.0,0.0
4891000,4739000,24.492151,24.49215,10.145717,1.352009,1.352009,0.0,0.0,0.0,0.0,0.0,0.0,0.0,0.0,45.58356,0.0,0.0,0.0,0.0,0.0,0.0075000008,0.0075000003,0.0075000008,1.01366,1.0136566,1.0000038,0.0,0.0,0.0,0.0,0.0,0.0
4907000,4755000,24.492151,24.49215,10.145717,1.352009,1.352009,0.0,0.0,0.0,0.0,0.0,0.0,0.0,0.0,45.58356,0.0,0.0,0.0,0.0,0.0,0.0075000008,0.0075000003,0.0075000008,1.0138602,1.013857,1.0000037,0.0,0.0,0.0,0.0,0.0,0.0
4915000,4763000,24.492151,24.49215,10.145717,1.352009,1.352009,0.0,0.0,0.0,0.0,0.0,0.0,0.0,0.0,45.58356,0.0,0.0,0.0,0.0,0.0,0.0075000008,0.0075000003,0.0075000008,1.0139623,1.0139588,1.0000036,0.0,0.0,0.0,0.0,0.0,0.0
4923000,4771000,24.492151,24.49215,10.145717,1.352009,1.352009,0.0,0.0,0.0,0.0,0.0,0.0,0.0,0.0,45.58356,0.0,0.0,0.0,0.0,0.0,0.0075000008,0.0075000003,0.0075000008,1.0140655,1.0140622,1.0000036,0.0,0.0,0.0,0.0,0.0,0.0
4931000,4779000,24.492151,24.49215,10.145717,1.352009,1.352009,0.0,0.0,0.0,0.0,0.0,0.0,0.0,0.0,45.58356,0.0,0.0,0.0,0.0,0.0,0.0075000008,0.0075000003,0.0075000008,1.0141702,1.0141668,1.0000036,0.0,0.0,0.0,0.0,0.0,0.0
4947000,4795000,24.492151,24.49215,10.145717,1.352009,1.352009,0.0,0.0,0.0,0.0,0.0,0.0,0.0,0.0,45.58356,0.0,0.0,0.0,0.0,0.0,0.0075000008,0.0075000003,0.0075000008,1.0143832,1.0143799,1.0000036,0.0,0.0,0.0,0.0,0.0,0.0
4955000,4803000,24.492151,24.49215,10.145717,1.352009,1.352009,0.0,0.0,0.0,0.0,0.0,0.0,0.0,0.0,45.58356,0.0,0.0,0.0,0.0,0.0,0.0075000008,0.0075000008,0.0075000003,1.0144916,1.0144882,1.0000036,0.0,0.0,0.0,0.0,0.0,0.0
4963000,4811000,24.492151,24.49215,10.145717,1.352009,1.352009,0.0,0.0,0.0,0.0,0.0,0.0,0.0,0.0,45.58356,0.0,0.0,0.0,0.0,0.0,0.0075000008,0.0075000008,0.0075000003,1.0146012,1.0145979,1.0000036,0.0,0.0,0.0,0.0,0.0,0.0
4971000,4819000,24.492151,24.49215,10.145717,1.352009,1.352009,0.0,0.0,0.0,0.0,0.0,0.0,0.0,0.0,45.58356,0.0,0.0,0.0,0.0,0.0,0.0075000008,0.0075000008,0.0075000003,1.0147121,1.0147089,1.0000035,0.0,0.0,0.0,0.0,0.0,0.0
4987000,4835000,24.492151,24.49215,10.145717,1.352009,1.352009,0.0,0.0,0.0,0.0,0.0,0.0,0.0,0.0,45.58356,0.0,0.0,0.0,0.0,0.0,0.0075000008,0.0075000008,0.0075000003,1.0149379,1.0149345,1.0000035,0.0,0.0,0.0,0.0,0.0,0.0
4995000,4843000,24.492151,24.49215,10.145717,1.352009,1.352009,0.0,0.0,0.0,0.0,0.0,0.0,0.0,0.0,45.58356,0.0,0.0,0.0,0.0,0.0,0.0075000008,0.0075000008,0.0075000003,1.0150527,1.0150493,1.0000035,0.0,0.0,0.0,0.0,0.0,0.0
5003000,4851000,24.492151,24.49215,10.145717,1.352009,1.352009,0.0,0.0,0.0,0.0,0.0,0.0,0.0,0.0,45.58356,0.0,0.0,0.0,0.0,0.0,0.0075000008,0.0075000008,0.0075000003,1.0151687,1.0151653,1.0000036,0.0,0.0,0.0,0.0,0.0,0.0
5011000,4859000,24.492151,24.49215,10.145717,1.352009,1.352009,0.0,0.0,0.0,0.0,0.0,0.0,0.0,0.0,45.58356,0.0,0.0,0.0,0.0,0.0,0.0075000008,0.0075000008,0.0075000003,1.0152861,1.0152826,1.0000036,0.0,0.0,0.0,0.0,0.0,0.0
5027000,4875000,24.492151,24.49215,10.145717,1.352009,1.352009,0.0,0.0,0.0,0.0,0.0,0.0,0.0,0.0,45.583515,0.0,0.0,0.0,0.0,0.0,0.0075000008,0.0075000003,0.0075000003,1.0155245,1.0155212,1.0000036,0.0,0.0,0.0,0.0,0.0,0.0
5035000,4883000,24.492151,24.49215,10.145717,1.352009,1.352009,0.0,0.0,0.0,0.0,0.0,0.0,0.0,0.0,45.583515,0.0,0.0,0.0,0.0,0.0,0.0075000008,0.0075000003,0.0075000003,1.0156457,1.0156422,1.0000037,0.0,0.0,0.0,0.0,0.0,0.0
5043000,4891000,24.492151,24.49215,10.145717,1.352009,1.352009,0.0,0.0,0.0,0.0,0.0,0.0,0.0,0.0,45.583515,0.0,0.0,0.0,0.0,0.0,0.0075000008,0.0075000003,0.0075000003,1.0157682,1.0157646,1.0000038,0.0,0.0,0.0,0.0,0.0,0.0
5051000,4899000,24.492151,24.49215,10.145717,1.352009,1.352009,0.0,0.0,0.0,0.0,0.0,0.0,0.0,0.0,45.583515,0.0,0.0,0.0,0.0,0.0,0.0075000008,0.0075000003,0.0075000003,1.0158919,1.0158883,1.0000037,0.0,0.0,0.0,0.0,0.0,0.0
5067000,4915000,24.492151,24.49215,10.145717,1.352009,1.352009,0.0,0.0,0.0,0.0,0.0,0.0,0.0,0.0,45.583515,0.0,0.0,0.0,0.0,0.0,0.0075000008,0.0075000003,0.0075000003,1.0161433,1.0161395,1.0000038,0.0,0.0,0.0,0.0,0.0,0.0
5075000,4923000,24.492151,24.49215,10.145717,1.352009,1.352009,0.0,0.0,0.0,0.0,0.0,0.0,0.0,0.0,45.583515,0.0,0.0,0.0,0.0,0.0,0.0075000008,0.0075000003,0.0075000003,1.0099816,1.0099785,1.0000044,0.0,0.0,0.0,0.0,0.0,0.0
5083000,4931000,24.492151,24.49215,10.145717,1.352009,1.352009,0.0,0.0,0.0,0.0,0.0,0.0,0.0,0.0,37.25007,0.0,0.0,0.0,0.0,0.0,0.0075000008,0.0075000003,0.0075000003,1.0099845,1.0099814,1.0000044,0.0,0.0,0.0,0.0,0.0,0.0
5091000,4939000,24.492151,24.49215,10.145717,1.352009,1.352009,0.0,0.0,0.0,0.0,0.0,0.0,0.0,0.0,37.25007,0.0,0.0,0.0,0.0,0.0,0.0075000008,0.0075000003,0.0075000003,1.0099875,1.0099843,1.0000044,0.0,0.0,0.0,0.0,0.0,0.0
5107000,4955000,0.0900748,0.090074524,0.2025092,101.0,101.0,0.0,0.0,0.0,0.0,0.0,0.0,0.0,0.0,37.25007,0.0,0.0,0.0,0.0,0.0,0.0075000003,0.0075000003,0.0075,1.009991,1.0099438,1.0000043,0.0,0.0,0.0,0.0,0.0,0.0
5115000,4963000,0.0900748,0.090074524,0.2025092,101.0,101.0,0.0,0.0,0.0,0.0,0.0,0.0,0.0,0.0,37.25007,0.0,0.0,0.0,0.0,0.0,0.0075000003,0.0075000003,0.0075,1.009994,1.0099467,1.0000044,0.0,0.0,0.0,0.0,0.0,0.0
5123000,4971000,0.0900748,0.090074524,0.2025092,101.0,101.0,0.0,0.0,0.0,0.0,0.0,0.0,0.0,0.0,37.25007,0.0,0.0,0.0,0.0,0.0,0.0075000003,0.0075000003,0.0075,1.0099969,1.0099497,1.0000044,0.0,0.0,0.0,0.0,0.0,0.0
5131000,4979000,0.0900748,0.090074524,0.2025092,101.0,101.0,0.0,0.0,0.0,0.0,0.0,0.0,0.0,0.0,37.25007,0.0,0.0,0.0,0.0,0.0,0.0075000003,0.0075000003,0.0075,1.0099999,1.0099527,1.0000045,0.0,0.0,0.0,0.0,0.0,0.0
5147000,4995000,0.0900748,0.090074524,0.2025092,101.0,101.0,0.0,0.0,0.0,0.0,0.0,0.0,0.0,0.0,37.25002,0.0,0.0,0.0,0.0,0.0,0.0075000003,0.0075000003,0.0075,1.010006,1.0099589,1.0000044,0.0,0.0,0.0,0.0,0.0,0.0
5155000,5003000,0.0900748,0.090074524,0.2025092,101.0,101.0,0.0,0.0,0.0,0.0,0.0,0.0,0.0,0.0,37.25002,0.0,0.0,0.0,0.0,0.0,0.0075000003,0.0075000003,0.0075,1.0100092,1.009962,1.0000044,0.0,0.0,0.0,0.0,0.0,0.0
5163000,5011000,0.0900748,0.090074524,0.2025092,101.0,101.0,0.0,0.0,0.0,0.0,0.0,0.0,0.0,0.0,37.25002,0.0,0.0,0.0,0.0,0.0,0.0075000008,0.0075000008,0.0075000008,1.0100124,1.009965,1.0000045,0.0,0.0,0.0,0.0,0.0,0.0
5171000,5019000,0.0900748,0.090074524,0.2025092,101.0,101.0,0.0,0.0,0.0,0.0,0.0,0.0,0.0,0.0,37.25002,0.0,0.0,0.0,0.0,0.0,0.0075000008,0.0075000008,0.0075000008,1.0100155,1.009968,1.0000045,0.0,0.0,0.0,0.0,0.0,0.0
5187000,5035000,0.0900748,0.090074524,0.2025092,101.0,101.0,0.0,0.0,0.0,0.0,0.0,0.0,0.0,0.0,37.25002,0.0,0.0,0.0,0.0,0.0,0.0075000008,0.0075000008,0.0075000008,1.0100219,1.0099744,1.0000046,0.0,0.0,0.0,0.0,0.0,0.0
5195000,5043000,0.0900748,0.090074524,0.2025092,101.0,101.0,0.0,0.0,0.0,0.0,0.0,0.0,0.0,0.0,37.25002,0.0,0.0,0.0,0.0,0.0,0.0075000008,0.0075000008,0.0075000008,1.0100251,1.0099776,1.0000046,0.0,0.0,0.0,0.0,0.0,0.0
5203000,5051000,0.0900748,0.090074524,0.2025092,101.0,101.0,0.0,0.0,0.0,0.0,0.0,0.0,0.0,0.0,37.25002,0.0,0.0,0.0,0.0,0.0,0.0075000008,0.0075000008,0.0075000008,1.0100285,1.0099809,1.0000045,0.0,0.0,0.0,0.0,0.0,0.0
5211000,5059000,0.0900748,0.090074524,0.2025092,101.0,101.0,0.0,0.0,0.0,0.0,0.0,0.0,0.0,0.0,37.25002,0.0,0.0,0.0,0.0,0.0,0.0075000008,0.0075000008,0.0075000008,1.0100317,1.0099843,1.0000045,0.0,0.0,0.0,0.0,0.0,0.0
5227000,5075000,0.0900748,0.090074524,0.2025092,101.0,101.0,0.0,0.0,0.0,0.0,0.0,0.0,0.0,0.0,37.25002,0.0,0.0,0.0,0.0,0.0,0.0075000008,0.0075000008,0.0075000008,1.0100383,1.0099908,1.0000046,0.0,0.0,0.0,0.0,0.0,0.0
5235000,5083000,0.0900748,0.090074524,0.2025092,101.0,101.0,0.0,0.0,0.0,0.0,0.0,0.0,0.0,0.0,37.25002,0.0,0.0,0.0,0.0,0.0,0.0075000008,0.0075000003,0.0075000003,1.0100418,1.0099941,1.0000046,0.0,0.0,0.0,0.0,0.0,0.0
5243000,5091000,0.0900748,0.090074524,0.2025092,101.0,101.0,0.0,0.0,0.0,0.0,0.0,0.0,0.0,0.0,37.25002,0.0,0.0,0.0,0.0,0.0,0.0075000008,0.0075000003,0.0075000003,1.0100452,1.0099975,1.0000048,0.0,0.0,0.0,0.0,0.0,0.0
5251000,5099000,0.0900748,0.090074524,0.2025092,101.0,101.0,0.0,0.0,0.0,0.0,0.0,0.0,0.0,0.0,37.25002,0.0,0.0,0.0,0.0,0.0,0.0075000008,0.0075000003,0.0075000003,1.0100486,1.0100008,1.0000048,0.0,0.0,0.0,0.0,0.0,0.0
5267000,5115000,0.0900748,0.090074524,0.2025092,101.0,101.0,0.0,0.0,0.0,0.0,0.0,0.0,0.0,0.0,32.25001,0.0,0.0,0.0,0.0,0.0,0.0075000008,0.0075000003,0.0075000003,1.0100555,1.0100077,1.000005,0.0,0.0,0.0,0.0,0.0,0.0
5275000,5123000,0.0900748,0.090074524,0.2025092,101.0,101.0,0.0,0.0,0.0,0.0,0.0,0.0,0.0,0.0,32.25001,0.0,0.0,0.0,0.0,0.0,0.0075000008,0.0075000003,0.0075000003,1.0099503,1.0099039,1.0000031,0.0,0.0,0.0,0.0,0.0,0.0
5283000,5131000,0.0900748,0.090074524,0.2025092,101.0,101.0,0.0,0.0,0.0,0.0,0.0,0.0,0.0,0.0,32.25001,0.0,0.0,0.0,0.0,0.0,0.0075000008,0.0075000003,0.0075000003,1.0099521,1.0099057,1.0000031,0.0,0.0,0.0,0.0,0.0,0.0
5291000,5139000,0.0900748,0.090074524,0.2025092,101.0,101.0,0.0,0.0,0.0,0.0,0.0,0.0,0.0,0.0,32.25001,0.0,0.0,0.0,0.0,0.0,0.0075000008,0.0075000003,0.0075000003,1.0099539,1.0099075,1.0000032,0.0,0.0,0.0,0.0,0.0,0.0
5307000,5155000,0.0900748,0.090074524,0.2025092,101.0,101.0,0.0,0.0,0.0,0.0,0.0,0.0,0.0,0.0,32.25001,0.0,0.0,0.0,0.0,0.0,0.0075000003,0.0075000003,0.0075000008,1.0004468,1.0004467,1.0,0.0,0.0,0.0,0.0,0.0,0.0
5315000,5163000,0.0900748,0.090074524,0.2025092,101.0,101.0,0.0,0.0,0.0,0.0,0.0,0.0,0.0,0.0,32.25001,0.0,0.0,0.0,0.0,0.0,0.0075000003,0.0075000003,0.0075000008,1.0004468,1.0004468,1.0,0.0,0.0,0.0,0.0,0.0,0.0
5323000,5171000,0.0900748,0.090074524,0.2025092,101.0,101.0,0.0,0.0,0.0,0.0,0.0,0.0,0.0,0.0,32.25001,0.0,0.0,0.0,0.0,0.0,0.0075000003,0.0075000003,0.0075000008,1.0004469,1.0004469,1.0,0.0,0.0,0.0,0.0,0.0,0.0
5331000,5179000,0.0900748,0.090074524,0.2025092,101.0,101.0,0.0,0.0,0.0,0.0,0.0,0.0,0.0,0.0,32.25001,0.0,0.0,0.0,0.0,0.0,0.0075000003,0.0075000003,0.0075000008,1.000447,1.000447,1.0,0.0,0.0,0.0,0.0,0.0,0.0
5347000,5195000,0.0900748,0.090074524,0.2025092,101.0,101.0,0.0,0.0,0.0,0.0,0.0,0.0,0.0,0.0,32.25001,0.0,0.0,0.0,0.0,0.0,0.0075000003,0.0075000003,0.0075000008,1.0004474,1.0004473,1.0,0.0,0.0,0.0,0.0,0.0,0.0
5355000,5203000,0.0900748,0.090074524,0.2025092,101.0,101.0,0.0,0.0,0.0,0.0,0.0,0.0,0.0,0.0,32.25001,0.0,0.0,0.0,0.0,0.0,0.0075000003,0.0075000003,0.0075000008,1.0004475,1.0004475,1.0,0.0,0.0,0.0,0.0,0.0,0.0
5363000,5211000,0.0900748,0.090074524,0.2025092,101.0,101.0,0.0,0.0,0.0,0.0,0.0,0.0,0.0,0.0,32.25001,0.0,0.0,0.0,0.0,0.0,0.0075000003,0.0075000003,0.0075000008,1.0004478,1.0004476,1.0,0.0,0.0,0.0,0.0,0.0,0.0
5371000,5219000,0.0900748,0.090074524,0.2025092,101.0,101.0,0.0,0.0,0.0,0.0,0.0,0.0,0.0,0.0,32.25001,0.0,0.0,0.0,0.0,0.0,0.0075000003,0.0075000003,0.0075000008,1.0004479,1.0004479,1.0,0.0,0.0,0.0,0.0,0.0,0.0
5387000,5235000,0.0900748,0.090074524,0.2025092,101.0,101.0,0.0,0.0,0.0,0.0,0.0,0.0,0.0,0.0,32.25001,0.0,0.0,0.0,0.0,0.0,0.0075000003,0.0075000003,0.0075000008,1.0004483,1.0004482,1.0,0.0,0.0,0.0,0.0,0.0,0.0
5395000,5243000,0.0900748,0.090074524,0.2025092,101.0,101.0,0.0,0.0,0.0,0.0,0.0,0.0,0.0,0.0,32.25001,0.0,0.0,0.0,0.0,0.0,0.0075000003,0.0075000003,0.0075000008,1.0004486,1.0004485,1.0,0.0,0.0,0.0,0.0,0.0,0.0
5403000,5251000,0.0900748,0.090074524,0.2025092,101.0,101.0,0.0,0.0,0.0,0.0,0.0,0.0,0.0,0.0,32.25001,0.0,0.0,0.0,0.0,0.0,0.0075000003,0.0075000003,0.0075000008,1.0004488,1.0004487,1.0,0.0,0.0,0.0,0.0,0.0,0.0
5411000,5259000,0.0900748,0.090074524,0.2025092,101.0,101.0,0.0,0.0,0.0,0.0,0.0,0.0,0.0,0.0,32.25001,0.0,0.0,0.0,0.0,0.0,0.0075000003,0.0075000003,0.0075000008,1.0004491,1.0004491,1.0,0.0,0.0,0.0,0.0,0.0,0.0
5427000,5275000,0.0900748,0.090074524,0.2025092,101.0,101.0,0.0,0.0,0.0,0.0,0.0,0.0,0.0,0.0,32.25001,0.0,0.0,0.0,0.0,0.0,0.0075000003,0.0075000003,0.0075000008,1.0004497,1.0004495,1.0,0.0,0.0,0.0,0.0,0.0,0.0
5435000,5283000,0.0900748,0.090074524,0.2025092,101.0,101.0,0.0,0.0,0.0,0.0,0.0,0.0,0.0,0.0,32.25001,0.0,0.0,0.0,0.0,0.0,0.0075000003,0.0075000003,0.0075000008,1.00045,1.0004499,1.0,0.0,0.0,0.0,0.0,0.0,0.0
5443000,5291000,0.0900748,0.090074524,0.2025092,101.0,101.0,0.0,0.0,0.0,0.0,0.0,0.0,0.0,0.0,32.25001,0.0,0.0,0.0,0.0,0.0,0.0075000003,0.0075000003,0.0075000008,1.0004503,1.0004503,1.0,0.0,0.0,0.0,0.0,0.0,0.0
5451000,5299000,0.0900748,0.090074524,0.2025092,101.0,101.0,0.0,0.0,0.0,0.0,0.0,0.0,0.0,0.0,32.25001,0.0,0.0,0.0,0.0,0.0,0.0075000003,0.0075000008,0.0075000003,1.0004506,1.0004505,1.0,0.0,0.0,0.0,0.0,0.0,0.0
5467000,5315000,0.0900748,0.090074524,0.2025092,101.0,101.0,0.0,0.0,0.0,0.0,0.0,0.0,0.0,0.0,32.25001,0.0,0.0,0.0,0.0,0.0,0.0075000003,0.0075000008,0.0075000003,1.0004513,1.0004512,1.0,0.0,0.0,0.0,0.0,0.0,0.0
5475000,5323000,0.0900748,0.090074524,0.2025092,101.0,101.0,0.0,0.0,0.0,0.0,0.0,0.0,0.0,0.0,32.25001,0.0,0.0,0.0,0.0,0.0,0.0075000003,0.0075000008,0.0075000003,1.0004517,1.0004516,1.0,0.0,0.0,0.0,0.0,0.0,0.0
5483000,5331000,0.0900748,0.090074524,0.2025092,101.0,101.0,0.0,0.0,0.0,0.0,0.0,0.0,0.0,0.0,32.25001,0.0,0.0,0.0,0.0,0.0,0.0075000003,0.0075000008,0.0075000003,1.000452,1.000452,1.0,0.0,0.0,0.0,0.0,0.0,0.0
5491000,5339000,0.0900748,0.090074524,0.2025092,101.0,101.0,0.0,0.0,0.0,0.0,0.0,0.0,0.0,0.0,32.25001,0.0,0.0,0.0,0.0,0.0,0.0075000003,0.0075000008,0.0075000003,1.0004525,1.0004524,1.0,0.0,0.0,0.0,0.0,0.0,0.0
5507000,5355000,0.09041267,0.0904124,0.20278795,1.0,1.0,1.0,0.0,0.0,0.0,0.0,0.0,0.0,0.0,32.25001,0.0,0.0,0.0,0.0,0.0,0.0075000003,0.0075000008,0.0075000003,1.0004534,1.0004532,1.0,0.0,0.0,0.0,0.0,0.0,0.0
5515000,5363000,0.09041267,0.0904124,0.20278795,1.0,1.0,1.0,0.0,0.0,0.0,0.0,0.0,0.0,0.0,32.25001,0.0,0.0,0.0,0.0,0.0,0.0075000003,0.0075000008,0.0075000003,1.0004538,1.0004537,1.0,0.0,0.0,0.0,0.0,0.0,0.0
5523000,5371000,0.09041267,0.0904124,0.20278795,1.0,1.0,1.0,0.0,0.0,0.0,0.0,0.0,0.0,0.0,13.25,0.0,0.0,0.0,0.0,0.0,0.0075000008,0.0075000003,0.0075000008,1.0004542,1.0004542,1.0,0.0,0.0,0.0,0.0,0.0,0.0
5531000,5379000,0.09041267,0.0904124,0.20278795,1.0,1.0,1.0,0.0,0.0,0.0,0.0,0.0,0.0,0.0,13.25,0.0,0.0,0.0,0.0,0.0,0.0075000008,0.0075000003,0.0075000008,1.0004547,1.0004547,1.0,0.0,0.0,0.0,0.0,0.0,0.0
5547000,5395000,0.09041267,0.0904124,0.20278795,1.0,1.0,1.0,0.0,0.0,0.0,0.0,0.0,0.0,0.0,13.25,0.0,0.0,0.0,0.0,0.0,0.0075000008,0.0075000003,0.0075000008,1.0004556,1.0004556,1.0,0.0,0.0,0.0,0.0,0.0,0.0
5555000,5403000,0.09041267,0.0904124,0.20278795,1.0,1.0,1.0,0.0,0.0,0.0,0.0,0.0,0.0,0.0,13.25,0.0,0.0,0.0,0.0,0.0,0.0075000008,0.0075000003,0.0075000008,1.0004562,1.0004561,1.0,0.0,0.0,0.0,0.0,0.0,0.0
5563000,5411000,0.09041267,0.0904124,0.20278795,1.0,1.0,1.0,0.0,0.0,0.0,0.0,0.0,0.0,0.0,13.25,0.0,0.0,0.0,0.0,0.0,0.0075000008,0.0075000003,0.0075000008,1.0004567,1.0004566,1.0,0.0,0.0,0.0,0.0,0.0,0.0
5571000,5419000,0.09041267,0.0904124,0.20278795,1.0,1.0,1.0,0.0,0.0,0.0,0.0,0.0,0.0,0.0,13.25,0.0,0.0,0.0,0.0,0.0,0.0075000008,0.0075000003,0.0075000008,1.0004573,1.0004572,1.0,0.0,0.0,0.0,0.0,0.0,0.0
5587000,5435000,0.09041267,0.0904124,0.20278795,1.0,1.0,1.0,0.0,0.0,0.0,0.0,0.0,0.0,0.0,13.250003,0.0,0.0,0.0,0.0,0.0,0.0075000008,0.0075000003,0.0075000008,1.0004584,1.0004582,1.0,0.0,0.0,0.0,0.0,0.0,0.0
5595000,5443000,0.09041267,0.0904124,0.20278795,1.0,1.0,1.0,0.0,0.0,0.0,0.0,0.0,0.0,0.0,13.250003,0.0,0.0,0.0,0.0,0.0,0.0075000008,0.0075000008,0.0075000003,1.000459,1.0004588,1.0,0.0,0.0,0.0,0.0,0.0,0.0
5603000,5451000,0.09041267,0.0904124,0.20278795,1.0,1.0,1.0,0.0,0.0,0.0,0.0,0.0,0.0,0.0,13.250003,0.0,0.0,0.0,0.0,0.0,0.0075000008,0.0075000008,0.0075000003,1.0004596,1.0004594,1.0,0.0,0.0,0.0,0.0,0.0,0.0
5611000,5459000,0.09041267,0.0904124,0.20278795,1.0,1.0,1.0,0.0,0.0,0.0,0.0,0.0,0.0,0.0,13.250003,0.0,0.0,0.0,0.0,0.0,0.0075000008,0.0075000008,0.0075000003,1.0004601,1.00046,1.0,0.0,0.0,0.0,0.0,0.0,0.0
5627000,5475000,0.09041267,0.0904124,0.20278795,1.0,1.0,1.0,0.0,0.0,0.0,0.0,0.0,0.0,0.0,13.250003,0.0,0.0,0.0,0.0,0.0,0.0075000008,0.0075000008,0.0075000003,1.0004613,1.0004612,1.0,0.0,0.0,0.0,0.0,0.0,0.0
5635000,5483000,0.09041267,0.0904124,0.20278795,1.0,1.0,1.0,0.0,0.0,0.0,0.0,0.0,0.0,0.0,13.250003,0.0,0.0,0.0,0.0,0.0,0.0075000008,0.0075000008,0.0075000003,1.0004619,1.0004619,1.0,0.0,0.0,0.0,0.0,0.0,0.0
5643000,5491000,0.09041267,0.0904124,0.20278795,1.0,1.0,1.0,0.0,0.0,0.0,0.0,0.0,0.0,0.0,13.250003,0.0,0.0,0.0,0.0,0.0,0.0075000008,0.0075000008,0.0075000003,1.0004627,1.0004625,1.0,0.0,0.0,0.0,0.0,0.0,0.0
5651000,5499000,0.09041267,0.0904124,0.20278795,1.0,1.0,1.0,0.0,0.0,0.0,0.0,0.0,0.0,0.0,13.25001,0.0,0.0,0.0,0.0,0.0,0.0075000008,0.0075000008,0.0075000003,1.0004632,1.0004632,1.0,0.0,0.0,0.0,0.0,0.0,0.0
5667000,5515000,0.09041267,0.0904124,0.20278795,1.0,1.0,1.0,0.0,0.0,0.0,0.0,0.0,0.0,0.0,13.25001,0.0,0.0,0.0,0.0,0.0,0.0075000008,0.0075000008,0.0075000003,1.0004647,1.0004646,1.0,0.0,0.0,0.0,0.0,0.0,0.0
5675000,5523000,0.09041267,0.0904124,0.20278795,1.0,1.0,1.0,0.0,0.0,0.0,0.0,0.0,0.0,0.0,13.25001,0.0,0.0,0.0,0.0,0.0,0.0075000008,0.0075000008,0.0075000003,1.0004654,1.0004653,1.0,0.0,0.0,0.0,0.0,0.0,0.0
5683000,5531000,0.09041267,0.0904124,0.20278795,1.0,1.0,1.0,0.0,0.0,0.0,0.0,0.0,0.0,0.0,13.25001,0.0,0.0,0.0,0.0,0.0,0.0075000008,0.0075000008,0.0075000003,1.0004661,1.000466,1.0,0.0,0.0,0.0,0.0,0.0,0.0
5691000,5539000,0.09041267,0.0904124,0.20278795,1.0,1.0,1.0,0.0,0.0,0.0,0.0,0.0,0.0,0.0,13.25001,0.0,0.0,0.0,0.0,0.0,0.0075000008,0.0075000008,0.0075000003,1.0004668,1.0004667,1.0,0.0,0.0,0.0,0.0,0.0,0.0
5707000,5555000,0.09041267,0.0904124,0.20278795,1.0,1.0,1.0,0.0,0.0,0.0,0.0,0.0,0.0,0.0,13.25002,0.0,0.0,0.0,0.0,0.0,0.0075000008,0.0075000008,0.0075000003,1.0004684,1.0004683,1.0,0.0,0.0,0.0,0.0,0.0,0.0
5715000,5563000,0.09041267,0.0904124,0.20278795,1.0,1.0,1.0,0.0,0.0,0.0,0.0,0.0,0.0,0.0,13.25002,0.0,0.0,0.0,0.0,0.0,0.0075000008,0.0075000008,0.0075000003,1.0004691,1.000469,1.0,0.0,0.0,0.0,0.0,0.0,0.0
5723000,5571000,0.09041267,0.0904124,0.20278795,1.0,1.0,1.0,0.0,0.0,0.0,0.0,0.0,0.0,0.0,13.25002,0.0,0.0,0.0,0.0,0.0,0.0075000008,0.0075000008,0.0075000003,1.0004699,1.0004698,1.0,0.0,0.0,0.0,0.0,0.0,0.0
5731000,5579000,0.09041267,0.0904124,0.20278795,1.0,1.0,1.0,0.0,0.0,0.0,0.0,0.0,0.0,0.0,13.25002,0.0,0.0,0.0,0.0,0.0,0.0075000008,0.0075000008,0.0075000003,1.0004706,1.0004706,1.0,0.0,0.0,0.0,0.0,0.0,0.0
5747000,5595000,0.09041267,0.0904124,0.20278795,1.0,1.0,1.0,0.0,0.0,0.0,0.0,0.0,0.0,0.0,13.25002,0.0,0.0,0.0,0.0,0.0,0.0075000008,0.0075000003,0.0075000008,1.0004723,1.0004722,1.0,0.0,0.0,0.0,0.0,0.0,0.0
5755000,5603000,0.09041267,0.0904124,0.20278795,1.0,1.0,1.0,0.0,0.0,0.0,0.0,0.0,0.0,0.0,13.25002,0.0,0.0,0.0,0.0,0.0,0.0075000008,0.0075000003,0.0075000008,1.0004731,1.000473,1.0,0.0,0.0,0.0,0.0,0.0,0.0
5763000,5611000,0.09041267,0.0904124,0.20278795,1.0,1.0,1.0,0.0,0.0,0.0,0.0,0.0,0.0,0.0,13.25002,0.0,0.0,0.0,0.0,0.0,0.0075000008,0.0075000003,0.0075000008,1.000474,1.0004739,1.0,0.0,0.0,0.0,0.0,0.0,0.0
5771000,5619000,0.09041267,0.0904124,0.20278795,1.0,1.0,1.0,0.0,0.0,0.0,0.0,0.0,0.0,0.0,13.251121,0.0,0.0,0.0,0.0,0.0,0.0075000008,0.0075000003,0.0075000008,1.0004748,1.0004748,1.0,0.0,0.0,0.0,0.0,0.0,0.0
5787000,5635000,0.09041267,0.0904124,0.20278795,1.0,1.0,1.0,0.0,0.0,0.0,0.0,0.0,0.0,0.0,13.251121,0.0,0.0,0.0,0.0,0.0,0.0075000008,0.0075000003,0.0075000008,1.0004766,1.0004765,1.0,0.0,0.0,0.0,0.0,0.0,0.0
5795000,5643000,0.09041267,0.0904124,0.20278795,1.0,1.0,1.0,0.0,0.0,0.0,0.0,0.0,0.0,0.0,13.251121,0.0,0.0,0.0,0.0,0.0,0.0075000008,0.0075000003,0.0075000008,1.0004774,1.0004774,1.0,0.0,0.0,0.0,0.0,0.0,0.0
5803000,5651000,0.09041267,0.0904124,0.20278795,1.0,1.0,1.0,0.0,0.0,0.0,0.0,0.0,0.0,0.0,13.251121,0.0,0.0,0.0,0.0,0.0,0.0075000008,0.0075000003,0.0075000008,1.0004784,1.0004784,1.0,0.0,0.0,0.0,0.0,0.0,0.0
5811000,5659000,0.09041267,0.0904124,0.20278795,1.0,1.0,1.0,0.0,0.0,0.0,0.0,0.0,0.0,0.0,13.251121,0.0,0.0,0.0,0.0,0.0,0.0075000003,0.0075,0.0075000008,1.0004793,1.0004792,1.0,0.0,0.0,0.0,0.0,0.0,0.0
5827000,5675000,0.09041267,0.0904124,0.20278795,1.0,1.0,1.0,0.0,0.0,0.0,0.0,0.0,0.0,0.0,13.251121,0.0,0.0,0.0,0.0,0.0,0.0075000003,0.0075,0.0075000008,1.0004812,1.0004811,1.0,0.0,0.0,0.0,0.0,0.0,0.0
5835000,5683000,0.09041267,0.0904124,0.20278795,1.0,1.0,1.0,0.0,0.0,0.0,0.0,0.0,0.0,0.0,13.176758,0.0,0.0,0.0,0.0,0.0,0.0075000003,0.0075,0.0075000008,1.0004822,1.0004821,1.0,0.0,0.0,0.0,0.0,0.0,0.0
5843000,5691000,0.09041267,0.0904124,0.20278795,1.0,1.0,1.0,0.0,0.0,0.0,0.0,0.0,0.0,0.0,13.176758,0.0,0.0,0.0,0.0,0.0,0.0075000003,0.0075,0.0075000008,1.0004832,1.000483,1.0,0.0,0.0,0.0,0.0,0.0,0.0
5851000,5699000,0.09041267,0.0904124,0.20278795,1.0,1.0,1.0,0.0,0.0,0.0,0.0,0.0,0.0,0.0,13.176758,0.0,0.0,0.0,0.0,0.0,0.0075000003,0.0075,0.0075000008,1.0004841,1.0004841,1.0,0.0,0.0,0.0,0.0,0.0,0.0
5867000,5715000,0.09041267,0.0904124,0.20278795,1.0,1.0,1.0,0.0,0.0,0.0,0.0,0.0,0.0,0.0,13.176758,0.0,0.0,0.0,0.0,0.0,0.0075000003,0.0075,0.0075000008,1.0004861,1.0004861,1.0,0.0,0.0,0.0,0.0,0.0,0.0
5875000,5723000,0.09041267,0.0904124,0.20278795,1.0,1.0,1.0,0.0,0.0,0.0,0.0,0.0,0.0,0.0,13.176758,0.0,0.0,0.0,0.0,0.0,0.0075000003,0.0075,0.0075000008,1.0004872,1.0004871,1.0,0.0,0.0,0.0,0.0,0.0,0.0
5883000,5731000,0.09041267,0.0904124,0.20278795,1.0,1.0,1.0,0.0,0.0,0.0,0.0,0.0,0.0,0.0,13.176758,0.0,0.0,0.0,0.0,0.0,0.0075000003,0.0075000008,0.0075000003,1.0004882,1.0004882,1.0,0.0,0.0,0.0,0.0,0.0,0.0
5891000,5739000,0.09041267,0.0904124,0.20278795,1.0,1.0,1.0,0.0,0.0,0.0,0.0,0.0,0.0,0.0,13.176758,0.0,0.0,0.0,0.0,0.0,0.0075000003,0.0075000008,0.0075000003,1.0004892,1.0004892,1.0,0.0,0.0,0.0,0.0,0.0,0.0
5907000,5755000,0.093054146,0.09305285,0.20389815,3.000204,3.000204,1.8033838,0.0,0.0,0.0,0.0,0.0,0.0,0.0,13.112998,0.0,0.0,0.0,0.0,0.0,0.0075000003,0.0075000008,0.0075000003,1.0004914,1.0004913,1.0,0.0,0.0,0.0,0.0,0.0,0.0
5915000,5763000,0.093054146,0.09305285,0.20389815,3.000204,3.000204,1.8033838,0.0,0.0,0.0,0.0,0.0,0.0,0.0,13.112998,0.0,0.0,0.0,0.0,0.0,0.0075000003,0.0075000008,0.0075000003,1.0004925,1.0004925,1.0,0.0,0.0,0.0,0.0,0.0,0.0
5923000,5771000,0.093054146,0.09305285,0.20389815,3.000204,3.000204,1.8033838,0.0,0.0,0.0,0.0,0.0,0.0,0.0,13.112998,0.0,0.0,0.0,0.0,0.0,0.0075000003,0.0075000008,0.0075000003,1.0004935,1.0004935,1.0,0.0,0.0,0.0,0.0,0.0,0.0
5931000,5779000,0.093054146,0.09305285,0.20389815,3.000204,3.000204,1.8033838,0.0,0.0,0.0,0.0,0.0,0.0,0.0,13.112998,0.0,0.0,0.0,0.0,0.0,0.0075000003,0.0075000008,0.0075000003,1.0004947,1.0004946,1.0,0.0,0.0,0.0,0.0,0.0,0.0
5947000,5795000,0.093054146,0.09305285,0.20389815,3.000204,3.000204,1.8033838,0.0,0.0,0.0,0.0,0.0,0.0,0.0,13.112998,0.0,0.0,0.0,0.0,0.0,0.0075000003,0.0075000008,0.0075000003,1.000497,1.0004969,1.0,0.0,0.0,0.0,0.0,0.0,0.0
5955000,5803000,0.093054146,0.09305285,0.20389815,3.000204,3.000204,1.8033838,0.0,0.0,0.0,0.0,0.0,0.0,0.0,13.112998,0.0,0.0,0.0,0.0,0.0,0.0075000003,0.0075000003,0.0075000008,1.000498,1.000498,1.0,0.0,0.0,0.0,0.0,0.0,0.0
5963000,5811000,0.093054146,0.09305285,0.20389815,3.000204,3.000204,1.8033838,0.0,0.0,0.0,0.0,0.0,0.0,0.0,12.699841,0.0,0.0,0.0,0.0,0.0,0.0075000003,0.0075000003,0.0075000008,1.0004992,1.0004991,1.0,0.0,0.0,0.0,0.0,0.0,0.0
5971000,5819000,0.093054146,0.09305285,0.20389815,3.000204,3.000204,1.8033838,0.0,0.0,0.0,0.0,0.0,0.0,0.0,12.699841,0.0,0.0,0.0,0.0,0.0,0.0075000003,0.0075000003,0.0075000008,1.0005004,1.0005003,1.0,0.0,0.0,0.0,0.0,0.0,0.0
5987000,5835000,0.093054146,0.09305285,0.20389815,3.000204,3.000204,1.8033838,0.0,0.0,0.0,0.0,0.0,0.0,0.0,12.699841,0.0,0.0,0.0,0.0,0.0,0.0075000003,0.0075000003,0.0075000008,1.0005028,1.0005027,1.0,0.0,0.0,0.0,0.0,0.0,0.0
5995000,5843000,0.093054146,0.09305285,0.20389815,3.000204,3.000204,1.8033838,0.0,0.0,0.0,0.0,0.0,0.0,0.0,12.699841,0.0,0.0,0.0,0.0,0.0,0.0075000003,0.0075000003,0.0075000008,1.000504,1.0005039,1.0,0.0,0.0,0.0,0.0,0.0,0.0
6003000,5851000,0.093054146,0.09305285,0.20389815,3.000204,3.000204,1.8033838,0.0,0.0,0.0,0.0,0.0,0.0,0.0,12.699841,0.0,0.0,0.0,0.0,0.0,0.0075000003,0.0075000003,0.0075000008,1.0005052,1.0005052,1.0,0.0,0.0,0.0,0.0,0.0,0.0
6011000,5859000,0.093054146,0.09305285,0.20389815,3.000204,3.000204,1.8033838,0.0,0.0,0.0,0.0,0.0,0.0,0.0,12.699841,0.0,0.0,0.0,0.0,0.0,0.0075000003,0.0075000003,0.0075000008,1.0005064,1.0005064,1.0,0.0,0.0,0.0,0.0,0.0,0.0
6027000,5875000,0.093054146,0.09305285,0.20389815,3.000204,3.000204,1.8033838,0.0,0.0,0.0,0.0,0.0,0.0,0.0,12.685335,0.0,0.0,0.0,0.0,0.0,0.0075000008,0.0075000003,0.007500001,1.0005089,1.0005089,1.0,0.0,0.0,0.0,0.0,0.0,0.0
6035000,5883000,0.093054146,0.09305285,0.20389815,3.000204,3.000204,1.8033838,0.0,0.0,0.0,0.0,0.0,0.0,0.0,12.685335,0.0,0.0,0.0,0.0,0.0,0.0075000008,0.0075000003,0.007500001,1.0005102,1.0005102,1.0,0.0,0.0,0.0,0.0,0.0,0.0
6043000,5891000,0.093054146,0.09305285,0.20389815,3.000204,3.000204,1.8033838,0.0,0.0,0.0,0.0,0.0,0.0,0.0,12.685335,0.0,0.0,0.0,0.0,0.0,0.0075000008,0.0075000003,0.007500001,1.0005115,1.0005114,1.0,0.0,0.0,0.0,0.0,0.0,0.0
6051000,5899000,0.093054146,0.09305285,0.20389815,3.000204,3.000204,1.8033838,0.0,0.0,0.0,0.0,0.0,0.0,0.0,12.685335,0.0,0.0,0.0,0.0,0.0,0.0075000008,0.0075000003,0.007500001,1.0005128,1.0005127,1.0,0.0,0.0,0.0,0.0,0.0,0.0
6067000,5915000,0.093054146,0.09305285,0.20389815,3.000204,3.000204,1.8033838,0.0,0.0,0.0,0.0,0.0,0.0,0.0,12.685335,0.0,0.0,0.0,0.0,0.0,0.0075000008,0.0075000003,0.007500001,1.0005155,1.0005153,1.0,0.0,0.0,0.0,0.0,0.0,0.0
6075000,5923000,0.093054146,0.09305285,0.20389815,3.000204,3.000204,1.8033838,0.0,0.0,0.0,0.0,0.0,0.0,0.0,12.685335,0.0,0.0,0.0,0.0,0.0,0.0075000008,0.0075000003,0.007500001,1.0005168,1.0005167,1.0,0.0,0.0,0.0,0.0,0.0,0.0
6083000,5931000,0.093054146,0.09305285,0.20389815,3.000204,3.000204,1.8033838,0.0,0.0,0.0,0.0,0.0,0.0,0.0,12.685335,0.0,0.0,0.0,0.0,0.0,0.0075000008,0.0075000003,0.007500001,1.0005181,1.0005181,1.0,0.0,0.0,0.0,0.0,0.0,0.0
6091000,5939000,0.093054146,0.09305285,0.20389815,3.000204,3.000204,1.8033838,0.0,0.0,0.0,0.0,0.0,0.0,0.0,12.671904,0.0,0.0,0.0,0.0,0.0,0.0075000003,0.0075000008,0.007500001,1.0005194,1.0005194,1.0,0.0,0.0,0.0,0.0,0.0,0.0
6107000,5955000,0.093054146,0.09305285,0.20389815,3.000204,3.000204,1.8033838,0.0,0.0,0.0,0.0,0.0,0.0,0.0,12.671904,0.0,0.0,0.0,0.0,0.0,0.0075000003,0.0075000008,0.007500001,1.0005221,1.0005221,1.0,0.0,0.0,0.0,0.0,0.0,0.0
6115000,5963000,0.093054146,0.09305285,0.20389815,3.000204,3.000204,1.8033838,0.0,0.0,0.0,0.0,0.0,0.0,0.0,12.671904,0.0,0.0,0.0,0.0,0.0,0.0075000003,0.0075000008,0.007500001,1.0005236,1.0005236,1.0,0.0,0.0,0.0,0.0,0.0,0.0
6123000,5971000,0.093054146,0.09305285,0.20389815,3.000204,3.000204,1.8033838,0.0,0.0,0.0,0.0,0.0,0.0,0.0,12.671904,0.0,0.0,0.0,0.0,0.0,0.0075000003,0.0075000008,0.007500001,1.000525,1.0005249,1.0,0.0,0.0,0.0,0.0,0.0,0.0
6131000,5979000,0.093054146,0.09305285,0.20389815,3.000204,3.000204,1.8033838,0.0,0.0,0.0,0.0,0.0,0.0,0.0,12.671904,0.0,0.0,0.0,0.0,0.0,0.0075000003,0.0075000008,0.007500001,1.0005264,1.0005263,1.0,0.0,0.0,0.0,0.0,0.0,0.0
6147000,5995000,0.093054146,0.09305285,0.20389815,3.000204,3.000204,1.8033838,0.0,0.0,0.0,0.0,0.0,0.0,0.0,12.671904,0.0,0.0,0.0,0.0,0.0,0.0075000003,0.0075000008,0.007500001,1.0005293,1.0005292,1.0,0.0,0.0,0.0,0.0,0.0,0.0
6155000,6003000,0.093054146,0.09305285,0.20389815,3.000204,3.000204,1.8033838,0.0,0.0,0.0,0.0,0.0,0.0,0.0,12.659441,0.0,0.0,0.0,0.0,0.0,0.0075000003,0.0075000008,0.007500001,1.0005307,1.0005306,1.0,0.0,0.0,0.0,0.0,0.0,0.0
6163000,6011000,0.093054146,0.09305285,0.20389815,3.000204,3.000204,1.8033838,0.0,0.0,0.0,0.0,0.0,0.0,0.0,12.659441,0.0,0.0,0.0,0.0,0.0,0.0075000003,0.0075000003,0.007500001,1.0005322,1.0005322,1.0,0.0,0.0,0.0,0.0,0.0,0.0
6171000,6019000,0.093054146,0.09305285,0.20389815,3.000204,3.000204,1.8033838,0.0,0.0,0.0,0.0,0.0,0.0,0.0,12.659441,0.0,0.0,0.0,0.0,0.0,0.0075000003,0.0075000003,0.007500001,1.0005336,1.0005336,1.0,0.0,0.0,0.0,0.0,0.0,0.0
6187000,6035000,0.093054146,0.09305285,0.20389815,3.000204,3.000204,1.8033838,0.0,0.0,0.0,0.0,0.0,0.0,0.0,12.659441,0.0,0.0,0.0,0.0,0.0,0.0075000003,0.0075000003,0.007500001,1.0005366,1.0005366,1.0,0.0,0.0,0.0,0.0,0.0,0.0
6195000,6043000,0.093054146,0.09305285,0.20389815,3.000204,3.000204,1.8033838,0.0,0.0,0.0,0.0,0.0,0.0,0.0,12.659441,0.0,0.0,0.0,0.0,0.0,0.0075000003,0.0075000003,0.007500001,1.0005381,1.0005381,1.0,0.0,0.0,0.0,0.0,0.0,0.0
6203000,6051000,0.093054146,0.09305285,0.20389815,3.000204,3.000204,1.8033838,0.0,0.0,0.0,0.0,0.0,0.0,0.0,12.659441,0.0,0.0,0.0,0.0,0.0,0.0075000003,0.0075000003,0.007500001,1.0005397,1.0005395,1.0,0.0,0.0,0.0,0.0,0.0,0.0
6211000,6059000,0.093054146,0.09305285,0.20389815,3.000204,3.000204,1.8033838,0.0,0.0,0.0,0.0,0.0,0.0,0.0,12.647712,0.0,0.0,0.0,0.0,0.0,0.0075000003,0.0075000003,0.007500001,1.0005411,1.0005411,1.0,0.0,0.0,0.0,0.0,0.0,0.0
6227000,6075000,0.093054146,0.09305285,0.20389815,3.000204,3.000204,1.8033838,0.0,0.0,0.0,0.0,0.0,0.0,0.0,12.647712,0.0,0.0,0.0,0.0,0.0,0.0075000003,0.0075000003,0.007500001,1.0005442,1.0005442,1.0,0.0,0.0,0.0,0.0,0.0,0.0
6235000,6083000,0.093054146,0.09305285,0.20389815,3.000204,3.000204,1.8033838,0.0,0.0,0.0,0.0,0.0,0.0,0.0,12.647712,0.0,0.0,0.0,0.0,0.0,0.0075,0.0075000003,0.0075,1.0005457,1.0005457,1.0,0.0,0.0,0.0,0.0,0.0,0.0
6243000,6091000,0.093054146,0.09305285,0.20389815,3.000204,3.000204,1.8033838,0.0,0.0,0.0,0.0,0.0,0.0,0.0,12.647712,0.0,0.0,0.0,0.0,0.0,0.0075,0.0075000003,0.0075,1.0005474,1.0005473,1.0,0.0,0.0,0.0,0.0,0.0,0.0
6251000,6099000,0.093054146,0.09305285,0.20389815,3.000204,3.000204,1.8033838,0.0,0.0,0.0,0.0,0.0,0.0,0.0,12.647712,0.0,0.0,0.0,0.0,0.0,0.0075,0.0075000003,0.0075,1.000549,1.000549,1.0,0.0,0.0,0.0,0.0,0.0,0.0
6267000,6115000,0.093054146,0.09305285,0.20389815,3.000204,3.000204,1.8033838,0.0,0.0,0.0,0.0,0.0,0.0,0.0,12.647712,0.0,0.0,0.0,0.0,0.0,0.0075,0.0075000003,0.0075,1.0005522,1.000552,1.0,0.0,0.0,0.0,0.0,0.0,0.0
6275000,6123000,0.093054146,0.09305285,0.20389815,3.000204,3.000204,1.8033838,0.0,0.0,0.0,0.0,0.0,0.0,0.0,12.636932,0.0,0.0,0.0,0.0,0.0,0.0075,0.0075000003,0.0075,1.0005537,1.0005537,1.0,0.0,0.0,0.0,0.0,0.0,0.0
6283000,6131000,0.093054146,0.09305285,0.20389815,3.000204,3.000204,1.8033838,0.0,0.0,0.0,0.0,0.0,0.0,0.0,12.636932,0.0,0.0,0.0,0.0,0.0,0.0075,0.0075000003,0.0075,1.0005554,1.0005554,1.0,0.0,0.0,0.0,0.0,0.0,0.0
6291000,6139000,0.093054146,0.09305285,0.20389815,3.000204,3.000204,1.8033838,0.0,0.0,0.0,0.0,0.0,0.0,0.0,12.636932,0.0,0.0,0.0,0.0,0.0,0.0075,0.0075000003,0.0075,1.0005571,1.000557,1.0,0.0,0.0,0.0,0.0,0.0,0.0
6307000,6155000,0.10016602,0.10016378,0.20572375,3.0019343,3.0019333,1.3661352,0.0,0.0,0.0,0.0,0.0,0.0,0.0,12.636932,0.0,0.0,0.0,0.0,0.0,0.0075000008,0.007500001,0.0075000008,1.0005603,1.0005603,1.0,0.0,0.0,0.0,0.0,0.0,0.0
6315000,6163000,0.10016602,0.10016378,0.20572375,3.0019343,3.0019333,1.3661352,0.0,0.0,0.0,0.0,0.0,0.0,0.0,12.636932,0.0,0.0,0.0,0.0,0.0,0.0075000008,0.007500001,0.0075000008,1.000562,1.000562,1.0,0.0,0.0,0.0,0.0,0.0,0.0
6323000,6171000,0.10016602,0.10016378,0.20572375,3.0019343,3.0019333,1.3661352,0.0,0.0,0.0,0.0,0.0,0.0,0.0,12.636932,0.0,0.0,0.0,0.0,0.0,0.0075000008,0.007500001,0.0075000008,1.0005637,1.0005636,1.0,0.0,0.0,0.0,0.0,0.0,0.0
6331000,6179000,0.10016602,0.10016378,0.20572375,3.0019343,3.0019333,1.3661352,0.0,0.0,0.0,0.0,0.0,0.0,0.0,12.636932,0.0,0.0,0.0,0.0,0.0,0.0075000008,0.007500001,0.0075000008,1.0005654,1.0005654,1.0,0.0,0.0,0.0,0.0,0.0,0.0
6347000,6195000,0.10016602,0.10016378,0.20572375,3.0019343,3.0019333,1.3661352,0.0,0.0,0.0,0.0,0.0,0.0,0.0,12.528736,0.0,0.0,0.0,0.0,0.0,0.0075000008,0.007500001,0.0075000008,1.0005689,1.0005687,1.0,0.0,0.0,0.0,0.0,0.0,0.0
6355000,6203000,0.10016602,0.10016378,0.20572375,3.0019343,3.0019333,1.3661352,0.0,0.0,0.0,0.0,0.0,0.0,0.0,12.528736,0.0,0.0,0.0,0.0,0.0,0.0075000008,0.007500001,0.0075000008,1.0005705,1.0005705,1.0,0.0,0.0,0.0,0.0,0.0,0.0
6363000,6211000,0.10016602,0.10016378,0.20572375,3.0019343,3.0019333,1.3661352,0.0,0.0,0.0,0.0,0.0,0.0,0.0,12.528736,0.0,0.0,0.0,0.0,0.0,0.0075000008,0.007500001,0.0075000008,1.0005723,1.0005722,1.0,0.0,0.0,0.0,0.0,0.0,0.0
6371000,6219000,0.10016602,0.10016378,0.20572375,3.0019343,3.0019333,1.3661352,0.0,0.0,0.0,0.0,0.0,0.0,0.0,12.528736,0.0,0.0,0.0,0.0,0.0,0.0075000008,0.007500001,0.0075000008,1.000574,1.000574,1.0,0.0,0.0,0.0,0.0,0.0,0.0
6387000,6235000,0.10016602,0.10016378,0.20572375,3.0019343,3.0019333,1.3661352,0.0,0.0,0.0,0.0,0.0,0.0,0.0,12.528736,0.0,0.0,0.0,0.0,0.0,0.0025000002,0.0025000002,0.0025000002,1.0005754,1.0005755,1.0,0.0,0.0,0.0,0.0,0.0,0.0
6395000,6243000,0.10016602,0.10016378,0.20572375,3.0019343,3.0019333,1.3661352,0.0,0.0,0.0,0.0,0.0,0.0,0.0,12.528736,0.0,0.0,0.0,0.0,0.0,0.0025000002,0.0025000002,0.0025000002,1.0005752,1.0005752,1.0,0.0,0.0,0.0,0.0,0.0,0.0
6403000,6251000,0.10016602,0.10016378,0.20572375,3.0019343,3.0019333,1.3661352,0.0,0.0,0.0,0.0,0.0,0.0,0.0,12.524212,0.0,0.0,0.0,0.0,0.0,0.0025000002,0.0025000002,0.0025000002,1.0005748,1.0005748,1.0,0.0,0.0,0.0,0.0,0.0,0.0
6411000,6259000,0.10016602,0.10016378,0.20572375,3.0019343,3.0019333,1.3661352,0.0,0.0,0.0,0.0,0.0,0.0,0.0,12.524212,0.0,0.0,0.0,0.0,0.0,0.0025000002,0.0025000002,0.0025000002,1.0005746,1.0005746,1.0,0.0,0.0,0.0,0.0,0.0,0.0
6427000,6275000,0.10016602,0.10016378,0.20572375,3.0019343,3.0019333,1.3661352,0.0,0.0,0.0,0.0,0.0,0.0,0.0,12.524212,0.0,0.0,0.0,0.0,0.0,0.0025000002,0.0025000002,0.0025000002,1.000574,1.000574,1.0,0.0,0.0,0.0,0.0,0.0,0.0
6435000,6283000,0.10016602,0.10016378,0.20572375,3.0019343,3.0019333,1.3661352,0.0,0.0,0.0,0.0,0.0,0.0,0.0,12.524212,0.0,0.0,0.0,0.0,0.0,0.0025000002,0.0025000002,0.0025000002,1.0005738,1.0005738,1.0,0.0,0.0,0.0,0.0,0.0,0.0
6443000,6291000,0.10016602,0.10016378,0.20572375,3.0019343,3.0019333,1.3661352,0.0,0.0,0.0,0.0,0.0,0.0,0.0,12.524212,0.0,0.0,0.0,0.0,0.0,0.0025000002,0.0025000002,0.0025000002,1.0005735,1.0005735,1.0,0.0,0.0,0.0,0.0,0.0,0.0
6451000,6299000,0.10016602,0.10016378,0.20572375,3.0019343,3.0019333,1.3661352,0.0,0.0,0.0,0.0,0.0,0.0,0.0,12.524212,0.0,0.0,0.0,0.0,0.011866269,0.011866269,0.0076127322,0.0075271064,1.0005733,1.0005733,1.0,0.0,0.0,0.0,0.0,0.0,0.0
6467000,6315000,0.10016602,0.10016378,0.20572375,3.0019343,3.0019333,1.3661352,0.0,0.0,0.0,0.0,0.0,0.0,0.0,12.519957,0.0,0.0,0.0,0.0,0.011866269,0.011866269,0.0076127322,0.0075271064,1.0005728,1.0005729,1.0,0.0,0.0,0.0,0.0,0.0,0.0
6475000,6323000,0.10016602,0.10016378,0.20572375,3.0019343,3.0019333,1.3661352,0.0,0.0,0.0,0.0,0.0,0.0,0.0,12.519957,0.0,0.0,0.0,0.0,0.011866269,0.011866269,0.0076127322,0.0075271064,1.0005727,1.0005727,1.0,0.0,0.0,0.0,0.0,0.0,0.0
6483000,6331000,0.10016602,0.10016378,0.20572375,3.0019343,3.0019333,1.3661352,0.0,0.0,0.0,0.0,0.0,0.0,0.0,12.519957,0.0,0.0,0.0,0.0,0.011866269,0.011866269,0.0076127322,0.0075271064,1.0005724,1.0005726,1.0,0.0,0.0,0.0,0.0,0.0,0.0
6491000,6339000,0.10016602,0.10016378,0.20572375,3.0019343,3.0019333,1.3661352,0.0,0.0,0.0,0.0,0.0,0.0,0.0,12.519957,0.0,0.0,0.0,0.0,0.011866269,0.011866269,0.0076127322,0.0075271064,1.0005723,1.0005723,1.0,0.0,0.0,0.0,0.0,0.0,0.0
6507000,6355000,0.10016602,0.10016378,0.20572375,3.0019343,3.0019333,1.3661352,0.0,0.0,0.0,0.0,0.0,0.0,0.0,12.519957,0.0,0.0,0.0,0.0,0.011866269,0.011866269,0.0076127322,0.0075271064,1.0005721,1.0005721,1.0,0.0,0.0,0.0,0.0,0.0,0.0
6515000,6363000,0.10016602,0.10016378,0.20572375,3.0019343,3.0019333,1.3661352,0.0,0.0,0.0,0.0,0.0,0.0,0.0,12.519957,0.0,0.0,0.0,0.0,0.011866269,0.011866269,0.0076127322,0.0075271064,1.000572,1.000572,1.0,0.0,0.0,0.0,0.0,0.0,0.0
6523000,6371000,0.10016602,0.10016378,0.20572375,3.0019343,3.0019333,1.3661352,0.0,0.0,0.0,0.0,0.0,0.0,0.0,12.519957,0.0,0.0,0.0,0.0,0.004460831,0.004460831,0.0041805175,0.0041698446,1.0005718,1.0005718,1.0,0.0,0.0,0.0,0.0,0.0,0.0
6531000,6379000,0.10016602,0.10016378,0.20572375,3.0019343,3.0019333,1.3661352,0.0,0.0,0.0,0.0,0.0,0.0,0.0,12.515955,0.0,0.0,0.0,0.0,0.004460831,0.004460831,0.0041805175,0.0041698446,1.0005717,1.0005718,1.0,0.0,0.0,0.0,0.0,0.0,0.0
6547000,6395000,0.10016602,0.10016378,0.20572375,3.0019343,3.0019333,1.3661352,0.0,0.0,0.0,0.0,0.0,0.0,0.0,12.515955,0.0,0.0,0.0,0.0,0.004460831,0.004460831,0.0041805175,0.0041698446,1.0005716,1.0005717,1.0,0.0,0.0,0.0,0.0,0.0,0.0
6555000,6403000,0.10016602,0.10016378,0.20572375,3.0019343,3.0019333,1.3661352,0.0,0.0,0.0,0.0,0.0,0.0,0.0,12.515955,0.0,0.0,0.0,0.0,0.004460831,0.004460831,0.0041805175,0.0041698446,1.0005716,1.0005716,1.0,0.0,0.0,0.0,0.0,0.0,0.0
6563000,6411000,0.10016602,0.10016378,0.20572375,3.0019343,3.0019333,1.3661352,0.0,0.0,0.0,0.0,0.0,0.0,0.0,12.515955,0.0,0.0,0.0,0.0,0.004460831,0.004460831,0.0041805175,0.0041698446,1.0005716,1.0005716,1.0,0.0,0.0,0.0,0.0,0.0,0.0
6571000,6419000,0.10016602,0.10016378,0.20572375,3.0019343,3.0019333,1.3661352,0.0,0.0,0.0,0.0,0.0,0.0,0.0,12.515955,0.0,0.0,0.0,0.0,0.004460831,0.004460831,0.0041805175,0.0041698446,1.0005716,1.0005716,1.0,0.0,0.0,0.0,0.0,0.0,0.0
6587000,6435000,0.10016602,0.10016378,0.20572375,3.0019343,3.0019333,1.3661352,0.0,0.0,0.0,0.0,0.0,0.0,0.0,12.515955,0.0,0.0,0.0,0.0,0.004460831,0.004460831,0.0041805175,0.0041698446,1.0005716,1.0005716,1.0,0.0,0.0,0.0,0.0,0.0,0.0
6595000,6443000,0.10016602,0.10016378,0.20572375,3.0019343,3.0019333,1.3661352,0.0,0.0,0.0,0.0,0.0,0.0,0.0,12.512198,0.0,0.0,0.0,0.0,0.003593322,0.003593322,0.0035056365,0.0035012378,1.0005716,1.0005716,1.0,0.0,0.0,0.0,0.0,0.0,0.0
6603000,6451000,0.10016602,0.10016378,0.20572375,3.0019343,3.0019333,1.3661352,0.0,0.0,0.0,0.0,0.0,0.0,0.0,12.512198,0.0,0.0,0.0,0.0,0.003593322,0.003593322,0.0035056365,0.0035012378,1.0005716,1.0005717,1.0,0.0,0.0,0.0,0.0,0.0,0.0
6611000,6459000,0.10016602,0.10016378,0.20572375,3.0019343,3.0019333,1.3661352,0.0,0.0,0.0,0.0,0.0,0.0,0.0,12.512198,0.0,0.0,0.0,0.0,0.003593322,0.003593322,0.0035056365,0.0035012378,1.0005717,1.0005717,1.0,0.0,0.0,0.0,0.0,0.0,0.0
6627000,6475000,0.10016602,0.10016378,0.20572375,3.0019343,3.0019333,1.3661352,0.0,0.0,0.0,0.0,0.0,0.0,0.0,12.512198,0.0,0.0,0.0,0.0,0.003593322,0.003593322,0.0035056365,0.0035012378,1.0005718,1.0005718,1.0,0.0,0.0,0.0,0.0,0.0,0.0
6635000,6483000,0.10016602,0.10016378,0.20572375,3.0019343,3.0019333,1.3661352,0.0,0.0,0.0,0.0,0.0,0.0,0.0,12.512198,0.0,0.0,0.0,0.0,0.003593322,0.003593322,0.0035056365,0.0035012378,1.000572,1.000572,1.0,0.0,0.0,0.0,0.0,0.0,0.0
6643000,6491000,0.10016602,0.10016378,0.20572375,3.0019343,3.0019333,1.3661352,0.0,0.0,0.0,0.0,0.0,0.0,0.0,12.512198,0.0,0.0,0.0,0.0,0.003593322,0.003593322,0.0035056365,0.0035012378,1.0005721,1.0005721,1.0,0.0,0.0,0.0,0.0,0.0,0.0
6651000,6499000,0.10016602,0.10016378,0.20572375,3.0019343,3.0019333,1.3661352,0.0,0.0,0.0,0.0,0.0,0.0,0.0,12.512198,0.0,0.0,0.0,0.0,0.003593322,0.003593322,0.0035056365,0.0035012378,1.0005722,1.0005722,1.0,0.0,0.0,0.0,0.0,0.0,0.0
6667000,6515000,0.10016602,0.10016378,0.20572375,3.0019343,3.0019333,1.3661352,0.0,0.0,0.0,0.0,0.0,0.0,0.0,12.508677,0.0,0.0,0.0,0.0,0.003259381,0.003259381,0.0032177416,0.0032150415,1.0005724,1.0005724,1.0,0.0,0.0,0.0,0.0,0.0,0.0
6675000,6523000,0.10016602,0.10016378,0.20572375,3.0019343,3.0019333,1.3661352,0.0,0.0,0.0,0.0,0.0,0.0,0.0,12.508677,0.0,0.0,0.0,0.0,0.003259381,0.003259381,0.0032177416,0.0032150415,1.0005726,1.0005727,1.0,0.0,0.0,0.0,0.0,0.0,0.0
6683000,6531000,0.10016602,0.10016378,0.20572375,3.0019343,3.0019333,1.3661352,0.0,0.0,0.0,0.0,0.0,0.0,0.0,12.508677,0.0,0.0,0.0,0.0,0.003259381,0.003259381,0.0032177416,0.0032150415,1.0005728,1.0005728,1.0,0.0,0.0,0.0,0.0,0.0,0.0
6691000,6539000,0.10016602,0.10016378,0.20572375,3.0019343,3.0019333,1.3661352,0.0,0.0,0.0,0.0,0.0,0.0,0.0,12.508677,0.0,0.0,0.0,0.0,0.003259381,0.003259381,0.0032177416,0.0032150415,1.0005729,1.000573,1.0,0.0,0.0,0.0,0.0,0.0,0.0
6707000,6555000,0.120331064,0.120466664,0.208262,3.0087311,3.008759,1.2381455,0.0,0.0,0.0,0.0,0.0,0.0,0.0,12.508677,0.0,0.0,0.0,0.0,0.003259381,0.003259381,0.0032177416,0.0032150415,1.0004754,1.0004767,1.0,0.0,0.0,0.0,0.0,0.0,0.0
6715000,6563000,0.120331064,0.120466664,0.208262,3.0087311,3.008759,1.2381455,0.0,0.0,0.0,0.0,0.0,0.0,0.0,12.459335,0.0,0.0,0.0,0.0,0.003259381,0.003259381,0.0032177416,0.0032150415,1.0004758,1.000477,1.0,0.0,0.0,0.0,0.0,0.0,0.0
6723000,6571000,0.120331064,0.120466664,0.208262,3.0087311,3.008759,1.2381455,0.0,0.0,0.0,0.0,0.0,0.0,0.0,12.459335,0.0,0.0,0.0,0.0,0.003259381,0.003259381,0.0032177416,0.0032150415,1.000476,1.0004773,1.0,0.0,0.0,0.0,0.0,0.0,0.0
6731000,6579000,0.120331064,0.120466664,0.208262,3.0087311,3.008759,1.2381455,0.0,0.0,0.0,0.0,0.0,0.0,0.0,12.459335,0.0,0.0,0.0,0.0,0.003259381,0.003259381,0.0032177416,0.0032150415,1.0004764,1.0004777,1.0,0.0,0.0,0.0,0.0,0.0,0.0
6747000,6595000,0.120331064,0.120466664,0.208262,3.0087311,3.008759,1.2381455,0.0,0.0,0.0,0.0,0.0,0.0,0.0,12.459335,0.0,0.0,0.0,0.0,0.003082061,0.003082061,0.0030578172,0.0030560617,1.0004771,1.0004784,1.0,0.0,0.0,0.0,0.0,0.0,0.0
6755000,6603000,0.120331064,0.120466664,0.208262,3.0087311,3.008759,1.2381455,0.0,0.0,0.0,0.0,0.0,0.0,0.0,12.459335,0.0,0.0,0.0,0.0,0.003082061,0.003082061,0.0030578172,0.0030560617,1.0004776,1.0004787,1.0,0.0,0.0,0.0,0.0,0.0,0.0
6763000,6611000,0.120331064,0.120466664,0.208262,3.0087311,3.008759,1.2381455,0.0,0.0,0.0,0.0,0.0,0.0,0.0,12.459335,0.0,0.0,0.0,0.0,0.003082061,0.003082061,0.0030578172,0.0030560617,1.0004779,1.0004792,1.0,0.0,0.0,0.0,0.0,0.0,0.0
6771000,6619000,0.120331064,0.120466664,0.208262,3.0087311,3.008759,1.2381455,0.0,0.0,0.0,0.0,0.0,0.0,0.0,12.459335,0.0,0.0,0.0,0.0,0.003082061,0.003082061,0.0030578172,0.0030560617,1.0004783,1.0004796,1.0,0.0,0.0,0.0,0.0,0.0,0.0
6787000,6635000,0.120331064,0.120466664,0.208262,3.0087311,3.008759,1.2381455,0.0,0.0,0.0,0.0,0.0,0.0,0.0,12.457742,0.0,0.0,0.0,0.0,0.003082061,0.003082061,0.0030578172,0.0030560617,1.0004792,1.0004804,1.0,0.0,0.0,0.0,0.0,0.0,0.0
6795000,6643000,0.120331064,0.120466664,0.208262,3.0087311,3.008759,1.2381455,0.0,0.0,0.0,0.0,0.0,0.0,0.0,12.457742,0.0,0.0,0.0,0.0,0.003082061,0.003082061,0.0030578172,0.0030560617,1.0004796,1.0004809,1.0,0.0,0.0,0.0,0.0,0.0,0.0
6803000,6651000,0.120331064,0.120466664,0.208262,3.0087311,3.008759,1.2381455,0.0,0.0,0.0,0.0,0.0,0.0,0.0,12.457742,0.0,0.0,0.0,0.0,0.003082061,0.003082061,0.0030578172,0.0030560617,1.00048,1.0004814,1.0,0.0,0.0,0.0,0.0,0.0,0.0
6811000,6659000,0.120331064,0.120466664,0.208262,3.0087311,3.008759,1.2381455,0.0,0.0,0.0,0.0,0.0,0.0,0.0,12.457742,0.0,0.0,0.0,0.0,0.0029732788,0.0029732788,0.0029566337,0.0029550383,1.0004805,1.0004818,1.0,0.0,0.0,0.0,0.0,0.0,0.0
6827000,6675000,0.120331064,0.120466664,0.208262,3.0087311,3.008759,1.2381455,0.0,0.0,0.0,0.0,0.0,0.0,0.0,12.457742,0.0,0.0,0.0,0.0,0.0029732788,0.0029732788,0.0029566337,0.0029550383,1.0004815,1.0004828,1.0,0.0,0.0,0.0,0.0,0.0,0.0
6835000,6683000,0.120331064,0.120466664,0.208262,3.0087311,3.008759,1.2381455,0.0,0.0,0.0,0.0,0.0,0.0,0.0,12.457742,0.0,0.0,0.0,0.0,0.0029732788,0.0029732788,0.0029566337,0.0029550383,1.0004821,1.0004834,1.0,0.0,0.0,0.0,0.0,0.0,0.0
6843000,6691000,0.120331064,0.120466664,0.208262,3.0087311,3.008759,1.2381455,0.0,0.0,0.0,0.0,0.0,0.0,0.0,12.456283,0.0,0.0,0.0,0.0,0.0029732788,0.0029732788,0.0029566337,0.0029550383,1.0004826,1.0004839,1.0,0.0,0.0,0.0,0.0,0.0,0.0
6851000,6699000,0.120331064,0.120466664,0.208262,3.0087311,3.008759,1.2381455,0.0,0.0,0.0,0.0,0.0,0.0,0.0,12.456283,0.0,0.0,0.0,0.0,0.0029732788,0.0029732788,0.0029566337,0.0029550383,1.000483,1.0004843,1.0,0.0,0.0,0.0,0.0,0.0,0.0
6867000,6715000,0.120331064,0.120466664,0.208262,3.0087311,3.008759,1.2381455,0.0,0.0,0.0,0.0,0.0,0.0,0.0,12.456283,0.0,0.0,0.0,0.0,0.0029732788,0.0029732788,0.0029566337,0.0029550383,1.0004842,1.0004855,1.0,0.0,0.0,0.0,0.0,0.0,0.0
6875000,6723000,0.120331064,0.120466664,0.208262,3.0087311,3.008759,1.2381455,0.0,0.0,0.0,0.0,0.0,0.0,0.0,12.456283,0.0,0.0,0.0,0.0,0.0029732788,0.0029732788,0.0029566337,0.0029550383,1.0004848,1.000486,1.0,0.0,0.0,0.0,0.0,0.0,0.0
6883000,6731000,0.120331064,0.120466664,0.208262,3.0087311,3.008759,1.2381455,0.0,0.0,0.0,0.0,0.0,0.0,0.0,12.456283,0.0,0.0,0.0,0.0,0.0028986179,0.0028986179,0.0028867708,0.0028851393,1.0004853,1.0004866,1.0,0.0,0.0,0.0,0.0,0.0,0.0
6891000,6739000,0.120331064,0.120466664,0.208262,3.0087311,3.008759,1.2381455,0.0,0.0,0.0,0.0,0.0,0.0,0.0,12.456283,0.0,0.0,0.0,0.0,0.0028986179,0.0028986179,0.0028867708,0.0028851393,1.0004859,1.0004872,1.0,0.0,0.0,0.0,0.0,0.0,0.0
6907000,6755000,0.120331064,0.120466664,0.208262,3.0087311,3.008759,1.2381455,0.0,0.0,0.0,0.0,0.0,0.0,0.0,12.454957,0.0,0.0,0.0,0.0,0.0028986179,0.0028986179,0.0028867708,0.0028851393,1.0004872,1.0004885,1.0,0.0,0.0,0.0,0.0,0.0,0.0
6915000,6763000,0.120331064,0.120466664,0.208262,3.0087311,3.008759,1.2381455,0.0,0.0,0.0,0.0,0.0,0.0,0.0,12.454957,0.0,0.0,0.0,0.0,0.0028986179,0.0028986179,0.0028867708,0.0028851393,1.0004878,1.0004891,1.0,0.0,0.0,0.0,0.0,0.0,0.0
6923000,6771000,0.120331064,0.120466664,0.208262,3.0087311,3.008759,1.2381455,0.0,0.0,0.0,0.0,0.0,0.0,0.0,12.454957,0.0,0.0,0.0,0.0,0.0028986179,0.0028986179,0.0028867708,0.0028851393,1.0004884,1.0004897,1.0,0.0,0.0,0.0,0.0,0.0,0.0
6931000,6779000,0.120331064,0.120466664,0.208262,3.0087311,3.008759,1.2381455,0.0,0.0,0.0,0.0,0.0,0.0,0.0,12.454957,0.0,0.0,0.0,0.0,0.0028986179,0.0028986179,0.0028867708,0.0028851393,1.0004891,1.0004904,1.0,0.0,0.0,0.0,0.0,0.0,0.0
6947000,6795000,0.120331064,0.120466664,0.208262,3.0087311,3.008759,1.2381455,0.0,0.0,0.0,0.0,0.0,0.0,0.0,12.454957,0.0,0.0,0.0,0.0,0.0028986179,0.0028986179,0.0028867708,0.0028851393,1.0004904,1.0004917,1.0,0.0,0.0,0.0,0.0,0.0,0.0
6955000,6803000,0.120331064,0.120466664,0.208262,3.0087311,3.008759,1.2381455,0.0,0.0,0.0,0.0,0.0,0.0,0.0,12.454957,0.0,0.0,0.0,0.0,0.00284466,0.00284466,0.0028356996,0.0028339203,1.0004911,1.0004925,1.0,0.0,0.0,0.0,0.0,0.0,0.0
6963000,6811000,0.120331064,0.120466664,0.208262,3.0087311,3.008759,1.2381455,0.0,0.0,0.0,0.0,0.0,0.0,0.0,12.454957,0.0,0.0,0.0,0.0,0.00284466,0.00284466,0.0028356996,0.0028339203,1.0004919,1.0004932,1.0,0.0,0.0,0.0,0.0,0.0,0.0
6971000,6819000,0.120331064,0.120466664,0.208262,3.0087311,3.008759,1.2381455,0.0,0.0,0.0,0.0,0.0,0.0,0.0,12.453765,0.0,0.0,0.0,0.0,0.00284466,0.00284466,0.0028356996,0.0028339203,1.0004926,1.0004939,1.0,0.0,0.0,0.0,0.0,0.0,0.0
6987000,6835000,0.120331064,0.120466664,0.208262,3.0087311,3.008759,1.2381455,0.0,0.0,0.0,0.0,0.0,0.0,0.0,12.453765,0.0,0.0,0.0,0.0,0.00284466,0.00284466,0.0028356996,0.0028339203,1.000494,1.0004953,1.0,0.0,0.0,0.0,0.0,0.0,0.0
6995000,6843000,0.120331064,0.120466664,0.208262,3.0087311,3.008759,1.2381455,0.0,0.0,0.0,0.0,0.0,0.0,0.0,12.453765,0.0,0.0,0.0,0.0,0.00284466,0.00284466,0.0028356996,0.0028339203,1.0004948,1.0004961,1.0,0.0,0.0,0.0,0.0,0.0,0.0
7003000,6851000,0.120331064,0.120466664,0.208262,3.0087311,3.008759,1.2381455,0.0,0.0,0.0,0.0,0.0,0.0,0.0,12.453765,0.0,0.0,0.0,0.0,0.00284466,0.00284466,0.0028356996,0.0028339203,1.0004956,1.0004969,1.0,0.0,0.0,0.0,0.0,0.0,0.0
7011000,6859000,0.120331064,0.120466664,0.208262,3.0087311,3.008759,1.2381455,0.0,0.0,0.0,0.0,0.0,0.0,0.0,12.453765,0.0,0.0,0.0,0.0,0.00284466,0.00284466,0.0028356996,0.0028339203,1.0004964,1.0004977,1.0,0.0,0.0,0.0,0.0,0.0,0.0
7027000,6875000,0.120331064,0.120466664,0.208262,3.0087311,3.008759,1.2381455,0.0,0.0,0.0,0.0,0.0,0.0,0.0,12.453765,0.0,0.0,0.0,0.0,0.002804064,0.002804064,0.0027968134,0.002794795,1.0004979,1.0004992,1.0,0.0,0.0,0.0,0.0,0.0,0.0
7035000,6883000,0.120331064,0.120466664,0.208262,3.0087311,3.008759,1.2381455,0.0,0.0,0.0,0.0,0.0,0.0,0.0,12.452707,0.0,0.0,0.0,0.0,0.002804064,0.002804064,0.0027968134,0.002794795,1.0004988,1.0005001,1.0,0.0,0.0,0.0,0.0,0.0,0.0
7043000,6891000,0.120331064,0.120466664,0.208262,3.0087311,3.008759,1.2381455,0.0,0.0,0.0,0.0,0.0,0.0,0.0,12.452707,0.0,0.0,0.0,0.0,0.002804064,0.002804064,0.0027968134,0.002794795,1.0004996,1.0005009,1.0,0.0,0.0,0.0,0.0,0.0,0.0
7051000,6899000,0.120331064,0.120466664,0.208262,3.0087311,3.008759,1.2381455,0.0,0.0,0.0,0.0,0.0,0.0,0.0,12.452707,0.0,0.0,0.0,0.0,0.002804064,0.002804064,0.0027968134,0.002794795,1.0005004,1.0005018,1.0,0.0,0.0,0.0,0.0,0.0,0.0
7067000,6915000,0.120331064,0.120466664,0.208262,3.0087311,3.008759,1.2381455,0.0,0.0,0.0,0.0,0.0,0.0,0.0,12.452707,0.0,0.0,0.0,0.0,0.002804064,0.002804064,0.0027968134,0.002794795,1.0005022,1.0005035,1.0,0.0,0.0,0.0,0.0,0.0,0.0
7075000,6923000,0.120331064,0.120466664,0.208262,3.0087311,3.008759,1.2381455,0.0,0.0,0.0,0.0,0.0,0.0,0.0,12.452707,0.0,0.0,0.0,0.0,0.002804064,0.002804064,0.0027968134,0.002794795,1.0005031,1.0005044,1.0,0.0,0.0,0.0,0.0,0.0,0.0
7083000,6931000,0.120331064,0.120466664,0.208262,3.0087311,3.008759,1.2381455,0.0,0.0,0.0,0.0,0.0,0.0,0.0,12.452707,0.0,0.0,0.0,0.0,0.002804064,0.002804064,0.0027968134,0.002794795,1.000504,1.0005053,1.0,0.0,0.0,0.0,0.0,0.0,0.0
7091000,6939000,0.120331064,0.120466664,0.208262,3.0087311,3.008759,1.2381455,0.0,0.0,0.0,0.0,0.0,0.0,0.0,12.452707,0.0,0.0,0.0,0.0,0.002804064,0.002804064,0.0027968134,0.002794795,1.0005049,1.0005062,1.0,0.0,0.0,0.0,0.0,0.0,0.0
7107000,6955000,0.15168205,0.15174259,0.21126498,1.6769657,1.6769938,1.1758595,0.0,0.0,0.0,0.0,0.0,0.0,0.0,12.451643,0.0,0.0,0.0,0.0,0.0027723366,0.0027723366,0.0027662714,0.002763944,1.0003387,1.0003405,1.0,0.0,0.0,0.0,0.0,0.0,0.0
7115000,6963000,0.15168205,0.15174259,0.21126498,1.6769657,1.6769938,1.1758595,0.0,0.0,0.0,0.0,0.0,0.0,0.0,12.451643,0.0,0.0,0.0,0.0,0.0027723366,0.0027723366,0.0027662714,0.002763944,1.0003392,1.0003409,1.0,0.0,0.0,0.0,0.0,0.0,0.0
7123000,6971000,0.15168205,0.15174259,0.21126498,1.6769657,1.6769938,1.1758595,0.0,0.0,0.0,0.0,0.0,0.0,0.0,12.451643,0.0,0.0,0.0,0.0,0.0027723366,0.0027723366,0.0027662714,0.002763944,1.0003397,1.0003414,1.0,0.0,0.0,0.0,0.0,0.0,0.0
7131000,6979000,0.15168205,0.15174259,0.21126498,1.6769657,1.6769938,1.1758595,0.0,0.0,0.0,0.0,0.0,0.0,0.0,12.451643,0.0,0.0,0.0,0.0,0.0027723366,0.0027723366,0.0027662714,0.002763944,1.0003402,1.000342,1.0,0.0,0.0,0.0,0.0,0.0,0.0
7147000,6995000,0.15168205,0.15174259,0.21126498,1.6769657,1.6769938,1.1758595,0.0,0.0,0.0,0.0,0.0,0.0,0.0,12.451643,0.0,0.0,0.0,0.0,0.0027723366,0.0027723366,0.0027662714,0.002763944,1.0003412,1.0003431,1.0,0.0,0.0,0.0,0.0,0.0,0.0
7155000,7003000,0.15168205,0.15174259,0.21126498,1.6769657,1.6769938,1.1758595,0.0,0.0,0.0,0.0,0.0,0.0,0.0,12.451643,0.0,0.0,0.0,0.0,0.0027723366,0.0027723366,0.0027662714,0.002763944,1.0003419,1.0003437,1.0,0.0,0.0,0.0,0.0,0.0,0.0
7163000,7011000,0.15168205,0.15174259,0.21126498,1.6769657,1.6769938,1.1758595,0.0,0.0,0.0,0.0,0.0,0.0,0.0,12.424424,0.0,0.0,0.0,0.0,0.0027723366,0.0027723366,0.0027662714,0.002763944,1.0003425,1.0003443,1.0,0.0,0.0,0.0,0.0,0.0,0.0
7171000,7019000,0.15168205,0.15174259,0.21126498,1.6769657,1.6769938,1.1758595,0.0,0.0,0.0,0.0,0.0,0.0,0.0,12.424424,0.0,0.0,0.0,0.0,0.0027463117,0.0027463117,0.0027411797,0.0027388763,1.0003431,1.0003449,1.0,0.0,0.0,0.0,0.0,0.0,0.0
7187000,7035000,0.15168205,0.15174259,0.21126498,1.6769657,1.6769938,1.1758595,0.0,0.0,0.0,0.0,0.0,0.0,0.0,12.424424,0.0,0.0,0.0,0.0,0.0027463117,0.0027463117,0.0027411797,0.0027388763,1.0003443,1.0003461,1.0,0.0,0.0,0.0,0.0,0.0,0.0
