timestamp,timestamp_sample,xyz[0],xyz[1],xyz[2],xyz_derivative[0],xyz_derivative[1],xyz_derivative[2]
4435000,4435000,0.022127042,0.020855213,-0.014084974,1.1690782,0.2312227,-0.7964311
4439000,4439000,0.026084572,0.008165513,-0.013626474,1.108968,-0.90733534,-0.4916727
4447000,4447000,-0.018927917,-0.00880965,-0.0024330474,-2.7903094,-1.3955355,0.52382445
4455000,4455000,-0.019224366,0.00090359675,-0.013035904,-1.0476528,0.015711557,-0.6635711
4467000,4467000,0.0019196746,0.028673675,-0.01096613,0.6631048,1.8475598,0.21442366
4475000,4475000,-0.0045614215,0.012884885,-0.008889331,-0.17309505,-0.39035404,0.34454942
4487000,4487000,-0.00031554233,0.027661163,-0.013157232,0.92579263,0.81982386,-0.47374326
4495000,4495000,-0.017309576,0.019083627,-0.009834078,-1.0243319,-0.20230857,0.099969715
4507000,4507000,0.003987074,-0.016315322,-0.010785382,1.6473856,-2.2164721,-0.36460838
4515000,4515000,0.012540828,-0.009427422,-0.026667569,1.1401381,-0.4006321,-1.1599381
4527000,4527000,-0.007476027,0.0036343636,-0.0059905793,-0.22065914,0.81102765,0.8914864
4535000,4535000,0.008532728,0.009493001,-0.017256577,0.9613575,0.56844604,-0.4487964
4547000,4547000,0.0064868852,0.038949028,0.010826197,-0.020834237,2.2364857,2.040317
4555000,4555000,0.01594412,0.019999415,0.0025058375,0.70132554,-0.5286863,0.10514235
4567000,4567000,0.011105072,-0.0069278576,-0.0011151846,-0.5346761,-1.4174367,-0.17752197
4575000,4575000,-0.0076986765,-0.015092614,-0.011336441,-1.2751582,-1.118518,-0.6674236
4587000,4587000,0.020808734,0.012201158,0.014812838,1.040768,1.1735648,0.846379
4595000,4595000,0.0010497291,0.010428071,0.008275709,-1.039809,0.4143094,0.025679026
4607000,4607000,-0.01036211,0.005328847,0.004985809,-0.6779594,-0.66048926,-0.05508543
4615000,4615000,-0.0028203356,-0.0254275,0.013691179,0.27360696,-2.2794728,0.36185738
4627000,4627000,0.0067704935,0.00051762845,-0.015609378,0.2335329,0.76944184,-1.296008
4635000,4635000,-0.035307948,-0.0074418746,0.006831483,-2.8773386,-0.1669348,1.119766
4647000,4647000,0.007795952,0.0033644885,0.0044372045,2.1950788,0.8365176,0.026443481
4655000,4655000,-0.004207175,-0.0058212206,0.0045304685,-0.010595918,-0.39317346,-0.22743607
4667000,4667000,-0.0031926725,0.009716347,-0.0047610616,-0.20905745,1.073635,-0.05881689
4675000,4675000,0.00997629,0.013397795,0.003930465,1.0211095,0.6009421,0.4280271
4687000,4687000,0.012329039,0.03099658,0.013361776,-0.094596386,1.0821741,0.48040548
4695000,4695000,-0.003475384,-0.0073107886,-0.014945022,-1.0680293,-2.123703,-1.7047887
4707000,4707000,-0.01565506,0.019508256,0.0142085655,-1.2064631,1.2742404,1.3592329
4715000,4715000,-0.02042869,0.0026292459,-0.018918497,-0.716548,-0.8486483,-1.8867599
4727000,4727000,-1.7785467e-05,-0.0074192276,-0.017408744,1.012413,-0.12090587,-0.21677989
4735000,4735000,0.0077317855,0.015088998,-0.006300583,0.98678756,1.4574461,0.7271956
4747000,4747000,0.03470285,0.0019324945,0.0006517419,1.7143099,-0.7384964,0.82824826
4755000,4755000,0.006971365,0.020568747,0.008933632,-1.3157681,1.1240616,0.711258
4767000,4767000,0.014817751,0.013185311,0.0131522175,0.61602306,-0.3701778,0.4586368
4775000,4775000,0.009154264,0.014167769,-0.013334031,-0.28506303,0.009498686,-1.7298061
4787000,4787000,0.0070585036,0.019378293,-0.001714665,0.3077128,-0.22989167,0.45170105
4795000,4795000,0.033345316,0.008970764,-0.00074627466,1.7775831,-0.7303861,0.31448188
4807000,4807000,0.003452196,0.012840455,0.0051614367,-1.0049084,-0.034184523,0.7666123
4815000,4815000,0.015469357,0.00015513295,0.017711563,0.5173967,-0.77441895,1.2118989
4827000,4827000,0.0152993705,0.00038286656,0.021256592,-0.15375715,-0.3127494,0.85457337
4835000,4835000,-0.0003951153,-0.011480486,0.020264618,-1.1228786,-0.94865155,0.1637951
4847000,4847000,-0.0012445806,-0.011673596,0.015610447,-0.17224997,-0.8290487,-0.1285789
4855000,4855000,-0.0029534432,-0.022906382,0.0052651493,-0.20169178,-1.0781204,-0.7787587
4867000,4867000,0.010595446,-0.004737585,0.005119309,1.1654176,1.2495098,0.11019202
4875000,4875000,0.0017172336,0.01635534,0.0021667818,-0.42920876,1.9658426,-0.37978944
4887000,4887000,-0.017703237,0.013561891,-0.024970226,-0.5717274,-0.20353052,-1.3427652
4895000,4895000,6.120745e-05,0.015664643,0.0025749018,0.98536795,0.15988337,1.2108291
4907000,4907000,0.0004256945,0.014460875,-0.027793515,-0.6748228,-0.52233416,-1.262002
4915000,4915000,-0.019941548,0.0055882568,-0.00974842,-1.4731406,-0.6440937,0.722981
4927000,4927000,-0.016393848,0.010225912,-0.0065589147,-0.23673883,-0.39180416,0.38019615
4935000,4935000,-0.003306941,-0.020884914,-0.018367961,0.89291644,-2.2165732,-0.6906901
4947000,4947000,0.0231809,-0.0041616485,-0.036532104,1.6910067,0.34155104,-1.0327742
4955000,4955000,-0.016694337,0.004459692,-0.0037173545,-2.1434612,0.55560184,1.8622117
4967000,4967000,-0.00073132827,-0.0292967,-0.0075765955,0.5839138,-2.0135193,-0.08013526
4975000,4975000,-0.0031963978,-0.03686053,-0.014056329,0.06968081,-1.312171,-0.3882404
4987000,4987000,0.027013835,0.0086931065,0.004406266,1.5759459,2.3477912,0.89895463
4995000,4995000,0.00899943,0.011635836,-0.016085913,-0.66702175,1.0622435,-0.9101253
5003000,5003000,-0.002789099,0.011772924,-0.004152833,-0.86591077,0.6201631,0.33231646
5015000,5015000,-0.024274752,0.0007478899,-0.023262147,-2.0746512,-0.6883983,-0.47070265
5027000,5027000,-0.01778679,0.039522793,0.009368008,0.105947316,2.4405744,1.5639495
5035000,5035000,0.011633368,-0.018864194,0.00017241378,1.9764136,-3.20331,-0.09429091
5047000,5047000,0.01481581,0.014237385,0.0041486393,1.0809479,1.7534148,0.4028684
5055000,5055000,0.022084076,0.0036705935,0.006750414,0.8052822,-0.06326831,0.3225294
5067000,5067000,-0.0077840304,-0.009593705,0.011113363,-1.6945287,-0.66665685,0.6271503
5075000,5075000,-0.01805246,-0.027263988,0.01344965,-0.9680004,-1.0659921,0.2429276
5087000,5087000,-0.017933236,0.009185038,-0.030445695,-0.47059628,1.4982504,-1.9751235
5095000,5095000,-0.017464617,-0.0035519165,-0.027076451,-0.22540793,-0.15165268,-0.7013712
5107000,5107000,-0.016209349,-0.0005749408,0.000556846,0.19929695,0.18546312,1.5292602
5115000,5115000,-0.01169854,-0.013590034,0.010909691,0.20616454,-0.9471757,1.2634728
5127000,5127000,0.0037593152,-0.022183005,0.00076898834,1.3988087,-0.20633793,0.35109466
5135000,5135000,-0.026342861,-0.0069314507,0.014933084,-1.5079263,0.8336623,0.94156766
5147000,5147000,-0.021048177,-3.7325546e-05,-0.009063609,0.013393939,0.63671035,-1.239973
5155000,5155000,-0.013611944,0.0066434583,-0.012230639,0.4283215,0.91111207,-0.61951315
5167000,5167000,-0.031941477,0.04201634,0.0040927585,-0.79888713,1.5125184,0.58465445
5175000,5175000,-0.011805274,-0.007992117,-0.0074595567,0.9297267,-2.781711,-0.5400099
5187000,5187000,-0.007867138,0.017359555,-0.028694777,0.83637893,0.8212799,-1.4439707
5195000,5195000,0.013562406,0.007966518,-0.026371619,1.7507976,-0.3416435,-0.3265624
5207000,5207000,-0.009759029,0.0015510144,-0.021509305,-1.0947125,-0.027857063,-0.09965071
5215000,5215000,-0.008147369,-0.0024355873,0.0027993366,-0.24468708,-0.40474248,1.8750756
5227000,5227000,-0.012075372,0.018755998,-0.018468762,-0.52342284,1.5062258,-1.0679011
5235000,5235000,-0.004522621,0.004565359,0.010363845,0.36524945,-0.46695867,1.4461403
5247000,5247000,-0.02954309,0.008728136,0.020397697,-0.92083025,0.20896971,1.4759877
5255000,5255000,0.0032868003,-0.0031167686,0.037795126,1.7630017,-0.7130007,1.7708781
5267000,5267000,0.016078915,-0.038491614,0.009120469,1.5079467,-2.3539755,-1.2415097
5275000,5275000,0.042725198,-0.039143544,0.003860914,2.1355805,-1.2372545,-0.9794082
5287000,5287000,0.026500357,0.01337673,0.0073773228,-0.42495018,2.8835845,-0.4465707
5295000,5295000,0.020770453,-0.020570757,-0.021065077,-0.3372997,-1.2644634,-2.2825563
5307000,5307000,-0.003655218,-0.0046427194,0.001685221,-2.511794,0.98739517,1.555614
5315000,5315000,0.0031543695,-0.00025693327,0.035827965,-0.40679193,0.7937853,2.9544964
5327000,5327000,0.02826722,-0.01794602,-0.011470759,1.3837252,-0.92624253,-1.8363321
5335000,5335000,0.04126576,-0.017440675,0.0044491757,1.4304187,-0.22966987,0.25176495
5347000,5347000,-0.030392364,0.008454507,0.02793459,-3.4393845,1.3461653,1.7376459
5355000,5355000,0.00016002031,0.024568412,0.042655885,0.60665596,1.7467119,1.8942652
5367000,5367000,0.012955688,0.006718237,0.025912978,1.2382249,-1.1250142,-1.0628377
5375000,5375000,0.013325693,-0.0129650505,0.0009854941,0.50394344,-1.6330177,-2.1408794
5387000,5387000,-0.011779537,0.0018540155,0.01202584,-1.2186445,-0.05543519,0.72394216
5395000,5395000,-0.003931428,-0.023223277,0.01847173,-0.07123217,-1.6936185,0.6447927
5407000,5407000,-0.0072640358,-0.003816838,-0.0057183625,-0.3347126,0.53893256,-1.7204455
5415000,5415000,-0.013686646,-0.0023254245,-0.0069557643,-0.45867753,0.47313264,-0.58814216
5427000,5427000,0.013506802,0.0009280478,0.0008074518,1.3421459,0.010014777,-0.2788726
5431000,5431000,0.015966201,0.0015652427,-0.006768211,1.0988574,0.059951928,-0.8191225
5447000,5447000,-0.04212065,0.009286579,0.020312723,-3.384896,0.4288573,1.0115943
5455000,5455000,-0.026476957,-0.003958624,0.028439118,-0.123291016,-0.7048107,1.0613406
5467000,5467000,0.039603114,-0.0067141363,-0.011932095,3.2361865,-0.36086282,-2.5269477
5475000,5475000,-0.0011802414,0.00087538594,-0.020246351,-1.434663,0.3166963,-1.5239406
5487000,5487000,0.013041457,-0.004063843,-0.023996864,0.6177676,-0.43063098,-0.59552187
5495000,5495000,0.008534471,-0.015903369,0.00032331888,-0.1258933,-0.9675814,1.4248697
5507000,5507000,0.023013663,-0.002474799,-0.0090157995,0.7107197,0.91812366,-0.32967147
5515000,5515000,-0.0029898193,0.016229399,0.0043968717,-1.589341,1.6273047,0.87700534
5527000,5527000,-0.033388045,0.010862888,0.007895697,-1.255219,0.45359957,-0.04213857
5535000,5535000,0.04055973,0.0125638535,-0.0015873092,4.4087744,0.20455565,-0.43023705
5547000,5547000,0.003990582,0.00060621835,0.00025943737,-1.0806013,-0.8526344,0.03273575
5555000,5555000,-0.0016100116,-0.0013577448,0.010334842,-0.93692505,-0.4404357,0.5630591
5567000,5567000,-0.009411609,0.006233028,0.018145042,-0.3915007,0.2901571,0.8960204
5575000,5575000,-0.016473189,0.029405106,0.019798186,-0.67801076,1.8160379,0.46851593
5587000,5587000,0.02588489,-0.005390914,0.014909268,2.2523272,-1.958972,-0.08337771
5595000,5595000,0.016579015,-0.0131814685,0.0029829408,0.20167887,-1.2682247,-0.9661788
5607000,5607000,-0.0011758902,-0.007696244,-0.04193445,-0.5144608,0.29114014,-2.713267
5615000,5615000,0.013756486,-0.002029078,-0.0018498923,0.8487091,0.26466426,1.7054267
5627000,5627000,-0.01604736,0.014853968,0.026864313,-2.7778413,1.2293779,1.7899365
5635000,5635000,-0.020262247,0.017336965,-0.013024103,-0.893188,0.74881333,-1.9539056
5647000,5647000,-0.003974933,-0.017914904,0.019731551,0.42134354,-1.8501605,1.3196623
5655000,5655000,0.0092545785,-0.022897992,0.016633172,1.0853161,-1.2505567,0.3990545
5667000,5667000,-0.00382402,-0.011392946,-0.024262024,-0.8450774,0.40591905,-2.4577756
5675000,5675000,-0.027719362,-0.0011385544,0.0039458945,-1.888084,1.0621371,0.98902524
5687000,5687000,0.023871135,-0.012525985,-0.021019489,2.3212903,-0.8677833,-1.5917695
5695000,5695000,0.015917148,0.012078668,-0.02882734,0.36998713,1.5210185,-1.1264666
5707000,5707000,-0.014165768,-0.0011650834,-0.0017859468,-1.6477377,-0.61589545,1.2122624
5715000,5715000,-0.00271376,0.016731087,-0.0050952863,0.34783816,0.9920129,0.27679327
5727000,5727000,-0.005408494,-0.01838522,-0.00021413877,-1.040701,-2.018984,0.38623086
5735000,5735000,0.015505273,-0.003919625,-0.02160525,1.0916963,0.23746136,-1.2984989
5747000,5747000,0.02754893,0.013143492,-0.0055310205,1.5177348,0.98337686,0.44378918
5755000,5755000,0.009041471,-0.010670587,-0.009272836,-0.8790271,-1.3896226,0.034889285
5767000,5767000,-0.03547281,0.0109244315,0.0005515029,-2.5555978,1.9287751,0.12915865
5775000,5775000,-0.007936005,0.034908026,-0.0050561195,1.0269794,2.0619519,-0.14294407
5787000,5787000,0.0064761937,-0.008068733,0.016100952,0.34224117,-1.1504941,1.236483
5795000,5795000,-0.01222368,0.01692751,-0.011812568,-1.0841867,1.117061,-1.5521357
5807000,5807000,-0.0052485927,-0.012368538,0.0006570164,0.10295783,-1.5255767,0.8578984
5815000,5815000,-0.017947178,-0.016373664,0.01857676,-0.8866747,-0.812973,1.3898349
5827000,5827000,-0.0035781763,-0.026283756,0.008549994,0.92665046,-1.163265,-0.4290571
5835000,5835000,-0.012444181,-0.02925247,0.008988018,-0.38226599,-0.6009759,0.04387151
5847000,5847000,0.013054308,0.02025108,0.026108675,1.2719574,2.6889718,0.6610579
5855000,5855000,-0.030635115,0.0031554983,0.0044472534,-2.3445568,-0.0084292665,-1.2645371
5867000,5867000,0.005832245,-0.024159532,0.0146039035,2.099598,-2.0319011,0.418323
5875000,5875000,-0.0029388021,-0.034106072,0.005729519,0.119659185,-1.3362473,-0.5634159
5887000,5887000,0.0054582446,0.0058587147,0.003605973,0.95797,0.7586112,0.12706853
5895000,5895000,-0.015156275,-0.027980335,0.017993141,-1.3124363,-1.7266127,0.97562796
5907000,5907000,-0.0050069247,0.0076070903,0.0034928543,1.0836171,1.8636615,-0.35474345
5915000,5915000,0.029065212,0.028835319,0.017780421,2.7940497,2.2883687,0.6317338
5927000,5927000,0.02412966,0.0044405027,0.00088791037,0.6029904,-1.3124406,-1.2361717
5935000,5935000,0.003601774,0.0004801543,-0.011926599,-1.215027,-0.64646494,-1.258084
5947000,5947000,0.0067893104,0.0011138315,0.0040734,0.22126818,-0.4900118,0.5617367
5955000,5955000,0.008945582,0.021141484,0.010184764,0.04556948,1.3917112,0.5580284
5967000,5967000,0.024378516,0.005485677,-0.01959575,0.7490554,-1.202771,-1.39464
5975000,5975000,0.013364134,-0.011450179,-0.001087561,-0.31852534,-1.7030665,0.75282544
5987000,5987000,-0.023391532,0.010367011,0.005965056,-2.6920505,0.97627884,0.58553517
5995000,5995000,-0.0010203277,0.0017324393,0.0021482618,0.68947196,-0.08221402,0.041812427
6007000,6007000,-0.008404385,0.011839059,-0.016665988,-1.3787984,-0.011287667,-1.2560871
6015000,6015000,-0.027761137,0.007243287,-0.003473249,-1.7779375,-0.13417543,0.5331718
6027000,6027000,-0.016243683,0.004387117,0.018322747,0.83219564,-0.773426,1.500588
6035000,6035000,0.02922608,-0.012032997,0.0037927832,3.271668,-1.3743155,-0.5082239
6047000,6047000,-0.011199392,0.013042283,-0.0048525752,-1.2243457,1.0305073,-0.64989245
6055000,6055000,-0.037569374,-0.003022625,0.0013738261,-2.3941474,-0.47337207,0.22965263
6067000,6067000,0.0004716179,-0.035896488,-0.020087035,1.3871869,-2.4691024,-1.1118882
6075000,6075000,0.016524067,-0.03374253,-0.012924051,1.9109267,-0.8025007,0.06564467
6087000,6087000,0.00038355193,-0.014360986,-0.018150534,-0.95069706,0.7743948,-0.5299505
6095000,6095000,-0.018217323,0.0061703464,0.008214029,-1.6276208,1.7927939,1.5657699
6107000,6107000,0.009575671,-0.024124749,0.012457342,1.1579647,-1.1941129,1.2367463
6115000,6115000,-0.027582368,0.011088026,0.01866404,-2.043276,1.8894928,0.8643202
6127000,6127000,-0.0056566685,-0.0065116305,-0.0059676114,1.1050776,-0.1745157,-1.3592091
6135000,6135000,-0.026913464,0.009573152,0.00866727,-1.1403983,0.93130565,0.45006856
6147000,6147000,-0.0092986785,0.010783482,0.023997778,0.59415925,0.54636467,0.8798425
6155000,6155000,-0.0018099339,0.027981386,0.035390027,0.8693975,1.3169844,1.1926388
6167000,6167000,-0.005064818,-0.004229374,0.01896609,0.083140686,-1.2637134,-0.4608836
6175000,6175000,0.040893484,-0.014944646,0.010032863,3.2058177,-1.4144474,-1.0287051
6187000,6187000,-0.014364723,-0.001326815,-0.00893421,-2.2244349,1.3098259,-1.1844299
6195000,6195000,-0.0075869965,-0.016905617,-0.027842173,-0.49246067,-0.80069834,-1.8851681
6207000,6207000,-0.022995135,-0.011836051,0.0032359804,-1.0738313,0.48213628,1.6383911
6215000,6215000,0.0033095093,0.0038934792,0.01672538,1.3807938,1.2652596,1.4678333
6227000,6227000,-0.0343955,-0.008807304,0.021121027,-1.8014951,-0.59392947,0.8250543
6235000,6235000,-0.003950816,-0.021036215,-0.00364617,1.3858075,-0.98645824,-1.5368884
6247000,6247000,0.007982912,0.010929353,0.0122967195,0.9229121,1.2477009,0.43394336
6255000,6255000,-0.007604662,0.0028375234,0.012708963,-0.8104537,-0.13357939,0.49554014
6267000,6267000,-0.00236724,-0.01600786,-0.024344921,1.0113857,-0.7805959,-3.2078524
6275000,6275000,0.012737427,-0.013119809,-0.027490731,1.1926996,-0.20901376,-1.3660147
6287000,6287000,-0.024635833,-0.012316344,0.0042118267,-1.3029416,0.4677004,1.5859065
6295000,6295000,-0.019637244,-0.011155311,0.009688963,-0.16176134,0.07867758,1.0139235
6307000,6307000,0.012851861,-0.0026551732,-0.007691903,1.4285464,0.8902263,-0.8447556
6315000,6315000,0.00023016916,-0.02265224,0.011802182,-0.24505222,-1.1078358,1.0590096
6327000,6327000,-0.0020411324,-0.011468742,0.0010325431,0.07604706,0.71703273,-0.70946074
6335000,6335000,0.00096686673,0.0182378,0.00040050293,0.198177,2.4688563,-0.23343827
6347000,6347000,0.009042344,0.0022605138,0.009031371,0.20779514,-0.73561,0.14868008
6355000,6355000,-0.031294167,0.030129718,-0.020897662,-2.7463272,1.5190125,-1.7857625
6367000,6367000,0.0009998155,0.023776291,0.0073602684,1.2758753,0.5914241,0.609088
6375000,6375000,0.010265453,0.027955923,-0.016309056,1.2474401,0.47563612,-1.2594756
6387000,6387000,0.0041974355,0.01239051,0.014084177,-0.29756957,-0.9467679,1.0509666
6395000,6395000,-0.02280873,-0.008237085,-0.0056379847,-2.0613346,-1.628348,-0.78367
6407000,6407000,-0.011957845,-0.012697459,-0.016689679,0.28863382,-1.1264555,-0.9766619
6415000,6415000,0.0042246934,-0.0053889416,-0.009161296,1.1432537,0.06520027,0.19405413
6427000,6427000,-0.021614878,-0.008954311,0.013720701,-1.0676501,-0.36429423,1.1761838
6435000,6435000,0.00050281687,-0.0081828935,0.01762697,1.1675105,0.018512653,0.7555789
6447000,6447000,0.008315928,-0.0063697677,-0.015031749,0.56195694,-0.4555163,-1.9785382
6455000,6455000,0.0042159837,-0.012035656,-0.007735856,0.01272361,-0.4835696,-0.054336317
6467000,6467000,0.014109931,-0.013232301,-0.025889538,0.54005456,-0.2581449,-1.646081
6475000,6475000,0.011636717,-0.016518714,0.01378602,-0.13370007,-0.27204558,1.9076058
6487000,6487000,-0.026747407,-0.013769538,-0.0031751578,-2.337881,0.24260098,0.12536663
6495000,6495000,-0.009911835,0.00844173,0.007139323,0.21093524,1.5032136,0.68443155
6507000,6507000,-0.02221494,-0.02498637,0.031581305,-0.55442226,-1.2077508,1.2910385
6515000,6515000,0.0010573345,-0.020477625,0.010491313,1.4384087,-0.26154524,-1.0232013
6527000,6527000,0.01344615,0.0052985847,-0.0043514203,0.52521,1.6146877,-0.25969717
6535000,6535000,0.006399635,-0.020074539,0.03577138,-0.21282929,-1.1083685,2.5605397
6547000,6547000,-0.0037358294,0.0021256104,-0.0014658652,-0.09516549,0.58851975,-1.5901003
6555000,6555000,-0.008996181,-0.007724786,-0.020201333,-0.54485977,-0.26700085,-2.0772293
6567000,6567000,-0.01194945,-0.025348457,0.009625711,0.28731,-1.4988577,1.6263885
6575000,6575000,0.020952918,0.00534009,-0.0028742866,2.26307,1.600455,-0.3050464
6587000,6587000,-0.0120642,0.005647189,-0.016895996,-1.471946,0.36711308,-0.44157428
6595000,6595000,-0.010950813,0.0192487,0.0009817509,-0.7177372,1.1914375,1.0830562
6607000,6607000,-0.016464446,0.04195152,-0.021248583,-0.13011485,1.6153072,-1.344984
6615000,6615000,0.0036130082,-0.007820232,-0.030753156,1.3077035,-2.8324175,-1.160218
6627000,6627000,-0.023299886,0.01761297,-0.019716045,-1.1005101,0.8578347,0.06863202
6635000,6635000,-0.008465774,0.009734588,-0.01823598,0.5139044,-0.31771535,0.37341684
6647000,6647000,0.015182976,-0.0191298,0.018100517,1.6071749,-1.5219961,1.7225671
6655000,6655000,-0.013047062,-0.016710099,0.0050655156,-1.3998888,-0.32689846,-0.12239773
6667000,6667000,-0.0050150603,-0.019052537,-0.00497723,0.8266145,-0.034370944,-0.82853717
6675000,6675000,0.003633832,-0.00230581,0.012580051,0.8197636,1.0148213,1.0676246
6687000,6687000,-0.0074801636,0.0017014367,0.020677255,-0.17176783,1.1184043,0.06857338
6691000,6691000,0.011084789,0.0127634,-0.0024312402,1.4382364,1.669373,-1.8868777
6707000,6707000,-0.024098678,-0.039488137,0.038624935,-2.6057935,-1.6168469,2.5308146
6715000,6715000,0.0047054985,-0.010857677,-0.01498388,0.923625,1.0688097,-2.7701702
6727000,6727000,-0.029766971,0.007143067,-0.0026577094,-2.222076,1.6912303,0.24838153
6731000,6731000,-0.033218678,0.0027407215,0.0048215543,-1.7674252,0.75733644,0.7907694
6747000,6747000,0.004976342,0.017066015,0.03840238,1.6368618,0.6563694,1.9396348
6755000,6755000,0.02583668,-0.019191343,0.026907524,2.0681734,-2.2292476,-0.13096885
6767000,6767000,-0.0010277577,-0.001963586,-0.0036591,-0.78905946,0.93430376,-1.4491211
6775000,6775000,-0.0065120794,0.033775505,-0.007195249,-0.72712034,2.7684696,-0.7369054
6787000,6787000,-0.014743734,-0.0036814504,0.002568323,-0.29873025,-2.068708,0.46289507
6795000,6795000,0.013453217,-0.009049713,0.033579443,1.7641883,-1.1215738,2.3952718
6807000,6807000,-0.011389049,-0.0152004585,0.009145457,-1.2551628,-0.6778646,-0.96229994
6815000,6815000,0.0051735933,0.0012381945,0.014270521,0.842373,0.7332784,0.015671683
6827000,6827000,0.0025470867,-0.007959803,0.01272109,-0.5644978,0.17594624,-0.13652436
6835000,6835000,0.0060188747,0.024153594,-0.011362661,0.035630494,2.4000485,-1.8466868
6847000,6847000,0.0135103185,-0.015916793,-0.020828228,0.81054807,-2.523889,-1.0916867
6855000,6855000,0.01279781,-0.013604148,-0.012779706,0.41641647,-0.7303426,0.3426726
6867000,6867000,-0.0067070457,-0.002761751,-0.0013828396,-1.5900532,0.21499011,-0.119447224
6875000,6875000,-0.029121863,0.0058807284,-0.024647636,-2.1641273,0.70037174,-1.4758972
6887000,6887000,-0.0064515388,0.017492393,0.009303826,0.84075606,0.8335194,1.6942489
6895000,6895000,0.012253033,0.02369779,-0.015030052,1.5148983,0.93629014,-1.0797281
6907000,6907000,0.034667242,0.01818077,0.0037081738,2.2468998,-0.70840997,0.96951234
6915000,6915000,0.025702087,-0.023845444,-0.0073229736,0.013020754,-3.2962422,-0.31351048
6927000,6927000,0.0052164164,-0.032380957,0.0077228835,-0.5057472,-0.82116306,1.248677
6935000,6935000,0.0006062803,-0.019978523,-0.007369809,-0.60659003,0.38767433,-0.67693144
6947000,6947000,-0.009847702,-0.0020849667,0.018468458,-1.0422618,1.219082,1.2906288
6955000,6955000,-0.026454784,-0.01653178,0.038824372,-1.4921303,-0.5625058,2.136191
6967000,6967000,-0.0042123403,0.021092085,-0.0039820997,0.68267524,2.1304255,-2.5298321
6975000,6975000,-0.012799345,-0.007402991,-0.015129576,-0.20572017,-1.1032045,-1.7011615
6987000,6987000,0.0066655376,-0.0073872805,-0.023646077,0.9583028,0.2519875,-1.0234008
6995000,6995000,-0.0032892209,-0.006023913,-0.019019758,-0.3271777,0.05244547,0.05243373
7007000,7007000,0.009369373,0.017028978,0.039085258,0.9663985,1.4023509,3.3106108
7015000,7015000,0.014706388,0.0040831994,0.016447289,0.5619863,-0.294293,-0.32391167
7027000,7027000,-0.0030774476,-0.0055335546,0.0069411397,-0.66110015,-0.68114936,-0.17385359
7035000,7035000,-0.026158428,-0.017432531,-0.0018076443,-1.784714,-1.0071254,-0.72506
7047000,7047000,0.00662086,-0.03043965,-0.010641526,1.1327116,-0.8511409,-0.50213546
7055000,7055000,0.009335192,-0.0018092395,0.0067363204,0.7729621,1.5500551,0.9224243
7067000,7067000,0.013220767,0.0012690651,0.012846082,0.24688438,1.0497303,0.5199797
7075000,7075000,0.012508154,-0.009512349,0.0070878905,0.08344325,-0.61024106,-0.21602516
7087000,7087000,-0.011369534,-0.00594893,0.0035910362,-1.6607673,0.40954313,-0.05374705
7095000,7095000,-0.0001676837,0.0074182656,0.01925566,0.14702147,1.2813494,0.9946687
7107000,7107000,-0.017381374,0.010512146,0.0043256623,-0.8285322,0.0034480176,-0.4617934
7115000,7115000,-0.033788804,-0.013726041,-0.014856284,-1.6054609,-1.5890427,-1.4914043
7127000,7127000,0.019581845,-0.0017371578,0.031504627,3.325449,0.46922192,1.6370358
7135000,7135000,-0.010834082,-0.00011748588,-0.007901278,-0.958596,0.121154405,-1.9718919
7147000,7147000,-0.0038305311,0.011312688,0.015729293,0.24046184,1.2025336,1.1545211
7155000,7155000,-0.008343107,-0.021008437,0.015632292,-0.13547292,-1.7971603,0.3744904
7167000,7167000,-0.0016925255,-0.03528968,-0.011179141,0.5645927,-1.0215342,-1.4553034
7175000,7175000,0.017306441,-0.012669964,0.011745681,1.4779785,1.1418436,1.0815047
7187000,7187000,0.0051662824,0.018552123,-0.013631438,0.3425985,2.0894494,-1.3016832
7195000,7195000,0.0028871163,0.0041316273,-0.0027482808,-0.18878174,0.02282872,0.45870888
7207000,7207000,-0.024868675,0.003547738,0.012992877,-1.2906862,-0.46541888,0.52787924
7215000,7215000,-0.0024033035,-0.025157219,0.007853277,0.76959056,-2.0863104,-0.07401704
7227000,7227000,-0.010003603,-0.007250134,0.0065252394,-0.11588883,0.80613387,0.044937536
7235000,7235000,-0.0058892104,0.0041288147,0.027963333,0.2374708,0.9294252,1.5191381
7247000,7247000,0.01487402,-0.012657819,0.029174361,1.9442413,-0.4951859,0.5042466
7255000,7255000,0.0119699715,-0.031049734,0.024550214,0.48496902,-1.4549633,-0.30656347
7267000,7267000,0.0020534722,0.01936357,0.021056768,-0.80720484,2.7114544,-0.082350746
7275000,7275000,-0.0139177935,0.020638593,-0.007292242,-1.3065134,0.91752726,-2.0487318
7287000,7287000,0.0100110015,0.019055577,0.0017743591,0.7330526,0.58717835,0.19689734
7295000,7295000,-0.00357043,-0.00015441282,-0.0022328943,-0.63953793,-1.268599,-0.21748234
7307000,7307000,0.003255418,-0.04006009,-0.0069842916,0.4225397,-1.9875548,-0.51507354
7315000,7315000,-0.011665953,-0.0073085735,0.004549614,-0.9341456,1.3642522,0.9766147
7327000,7327000,-0.042075384,-0.011492807,0.013412562,-1.4668187,-0.091370694,-0.5433121
7335000,7335000,-0.017793521,-0.021399282,0.014982645,1.1976546,-0.66451895,-0.044858646
7347000,7347000,0.015391055,-0.018450959,-0.015647925,1.3405464,-0.5193689,-1.5052712
7355000,7355000,-0.00011576561,-0.0018970678,0.0061543263,-0.41382208,0.9857507,0.7720861
7367000,7367000,-0.010642235,-0.004238002,-0.011672228,-0.6735687,0.32571864,-0.6493494
7371000,7371000,-0.0033991486,0.00012646196,-0.014811081,0.15747088,0.58175254,-0.69463015
7387000,7387000,-0.031208111,0.016420055,-0.0037997589,-1.1989497,0.3934679,0.4986523
7395000,7395000,0.006995362,-0.004753341,-0.0010309201,2.1272798,-1.1534351,0.5290338
7407000,7407000,0.015176964,0.015132273,-0.01460098,0.6599809,0.7467095,-1.0652518
7415000,7415000,0.0014348993,0.0067126397,0.0066629164,-0.74574196,-0.2566541,1.1190779
7423000,7423000,-0.01868823,-0.0052387198,-0.0007903138,-1.5416881,-0.9936029,-0.03333618
7435000,7435000,-0.0049791606,-0.009234822,0.013046208,-0.38641703,-0.19667424,1.0770667
7447000,7447000,-0.01376913,-0.018566618,0.010493949,-0.7172637,-0.9821525,0.03827716
7455000,7455000,-0.022578528,-0.035197724,0.012066163,-0.73777276,-1.4471376,0.21899283
7467000,7467000,0.0021320162,0.008299174,0.015201912,1.1929963,1.4468195,0.24709223
7475000,7475000,-0.019621408,-0.015398907,0.027837504,-1.0329403,-0.9445207,0.9905106
7487000,7487000,0.0035192412,-0.023687143,0.0064831423,0.7738029,-0.8101801,-1.1274866
7491000,7491000,-0.015439567,-0.0071767066,0.0068303747,-1.0705261,0.84156555,-0.72129154
7507000,7507000,0.0061912364,0.006639228,0.0009195686,0.8508,0.93401873,-1.268178
7515000,7515000,-0.016383447,0.0024940725,0.007497044,-1.3908354,0.029932855,0.101587296
7527000,7527000,0.025129478,0.004237308,-0.0011753947,2.5340083,0.44727528,-0.7196268
7531000,7531000,0.017446255,0.0038548494,0.0029504616,1.0438232,0.26567253,-0.13386738
7547000,7547000,-0.0016371864,-0.010081744,-0.017064909,0.10482651,-0.72179586,-1.5083538
7555000,7555000,9.2500006e-05,-0.001995705,0.002358659,0.049280226,0.45357507,0.56321025
7567000,7567000,-0.008257893,0.02977369,0.010875957,0.5128952,1.5895559,0.930019
7575000,7575000,0.024126379,0.0041585816,0.01564467,2.1923704,-1.224702,0.69344074
7587000,7587000,0.0020634062,-0.014412291,0.009481369,-0.8439637,-1.1278412,-0.24020405
7595000,7595000,0.010874598,-0.0020280047,0.03360424,0.3139767,0.526687,1.6789523
7607000,7607000,-0.00073576975,0.0038174149,0.008100815,-0.9026558,0.14388624,-1.7171096
7615000,7615000,-0.034642696,0.0060968716,-0.004537592,-2.8620214,0.16626364,-1.5870031
7627000,7627000,-0.015937552,0.014831509,-0.0033384315,1.0078411,0.37643838,0.036309965
7635000,7635000,-0.005313457,-0.007799371,-0.008079721,1.0203367,-1.3650576,-0.42792886
7647000,7647000,-0.015558866,0.00083517795,-0.015167814,-0.38845912,0.24839765,-0.4031338
7655000,7655000,-0.005862703,0.012194364,-0.043113552,0.61200774,0.7366052,-2.0576887
7667000,7667000,0.0062339385,-0.013711052,0.008583196,0.6954989,-1.1659943,2.8889723
7675000,7675000,-0.028964756,-0.0028414037,0.025615152,-2.2546923,0.36473653,2.2083275
7687000,7687000,0.013244156,0.012283983,-0.0014132322,2.212913,0.7104361,-0.36437893
7695000,7695000,0.0060908427,-0.022821205,-0.006817416,0.38525808,-2.1432343,-0.7056547
7707000,7707000,0.010368865,-0.013268321,0.002074135,0.39011216,0.40428102,0.5696566
7711000,7711000,-0.011182049,-0.0049327384,-0.0015228391,-1.54264,0.96613085,0.0782931
7727000,7727000,-0.020152904,-0.0009736514,-0.015081216,-0.73380095,0.77335894,-0.4469904
7735000,7735000,-0.015408082,0.017572084,-0.0010567033,0.29174852,1.5595721,0.8168434
7747000,7747000,0.013216002,-0.0001859963,0.0011371947,1.1331124,-0.32754788,0.09482073
7755000,7755000,-0.02399351,-0.01974988,0.0064825704,-1.9142811,-1.6618619,0.3901278
7767000,7767000,0.014823092,0.005879796,-0.008853994,1.3009409,0.8572533,-0.33601418
7775000,7775000,-0.00011110713,-0.008182442,-0.009548057,-0.46711642,-0.6080939,-0.27651653
7787000,7787000,-0.0068914695,-0.030735,-0.006890069,-0.14365971,-1.3255051,0.07213828
7795000,7795000,0.002656105,-0.015400945,0.011397447,0.34280527,0.53891784,1.3626348
7807000,7807000,-0.012626171,-0.011803966,0.003284571,-0.22046041,-0.3158542,0.4027027
7815000,7815000,-0.028727781,-0.024951346,0.027351608,-1.3378515,-1.0931295,1.7242818
7827000,7827000,0.05462762,-0.045220386,0.015400525,5.1794653,-1.102183,-0.40269384
7835000,7835000,0.036047928,-0.03432265,0.0026639227,0.53968215,0.38975748,-1.1149051
7847000,7847000,-0.02283271,0.027596982,-0.013404774,-3.200932,3.5873337,-1.0640885
7855000,7855000,-0.016722659,0.008031354,-0.006199471,-0.7819463,0.13432097,0.07494593
7867000,7867000,-0.008007148,0.006001491,-0.0061530224,0.23847242,0.025194336,-0.19703266
7875000,7875000,-0.03598919,0.0024342765,0.024793413,-1.8803189,-0.3135089,2.1243317
7887000,7887000,0.021477822,-0.008089937,-0.01152066,2.9479952,-0.9138397,-1.6621413
7895000,7895000,0.017869337,-0.024990406,0.0009953389,0.98908615,-1.4052999,0.2711158
7907000,7907000,0.0017645895,-0.020497961,0.019986108,-0.540262,-0.3569258,1.0745897
7915000,7915000,0.0019900764,-0.019673446,0.009940458,-0.18231386,-0.016739631,-0.33590817
7927000,7927000,-0.0038239816,-0.008302889,0.0024851162,-0.44314694,0.1417017,-0.39349377
7935000,7935000,0.023307944,-0.014136052,-0.003252924,1.8409245,-0.31257147,-0.44585654
7947000,7947000,-0.0028726028,-0.034877602,0.019245883,-1.8847737,-0.88095313,0.7378133
7955000,7955000,-0.025624912,-0.016238432,-0.008851755,-2.0937264,0.96940076,-1.4823527
7967000,7967000,-0.0064701606,-0.0073268907,-0.008438176,0.4671291,0.14470126,-0.9274374
7975000,7975000,-0.019279048,-0.019351644,-0.009819293,-0.7286342,-0.63328654,-0.19616939
7987000,7987000,-0.012191907,0.014383882,-0.0064408346,0.17608103,1.7212043,-0.51271385
7995000,7995000,0.006060103,0.003281384,0.008019878,1.4485941,0.009860976,0.93908495
8007000,8007000,0.026072076,-0.010103158,-0.013682105,1.5867518,-1.2645545,-1.0446022
8015000,8015000,0.0386795,-0.036516026,0.008113232,1.406287,-2.0968823,1.063991
8027000,8027000,0.011924048,-0.024473554,-0.004037184,-1.323956,-0.045179773,-0.58229285
8035000,8035000,-0.016828265,-0.0017812367,-0.004012884,-2.539462,1.5478225,-0.18137631
8047000,8047000,-0.0060019474,-0.008906087,0.024076948,-0.045030504,-0.17720857,1.7729254
8055000,8055000,-0.021825824,-0.026167732,0.021676224,-1.0545263,-1.0733806,0.5562638
8067000,8067000,-0.007012886,0.004518833,0.027173597,0.30811834,1.3452185,0.24524114
8075000,8075000,0.0043372232,0.0116598,0.0040648887,0.71133244,1.0024135,-1.5672188
8087000,8087000,-0.013904681,-0.007280832,-0.029037861,-0.3018059,-0.7331178,-1.6648979
8091000,8091000,-0.00469918,-0.0121214315,-0.013908859,0.5689873,-0.8926903,0.15723394
8107000,8107000,-0.02746933,-0.035562076,-0.01850357,-2.212419,-0.30548406,-0.4844485
8115000,8115000,-0.027086783,-0.024817348,-0.017391255,-0.7241454,0.541899,0.04518373
8127000,8127000,0.0034378527,-0.0059844353,-0.008652322,1.1575956,1.184207,0.16722883
8135000,8135000,-0.02138496,0.010918283,-0.009359185,-1.2442465,1.5563117,0.031677954
8147000,8147000,-0.010486475,-0.013976129,0.016069157,0.52260566,-0.650827,2.0134797
8155000,8155000,0.013886272,0.014898298,0.031013496,1.8948753,1.7749649,1.8488953
8167000,8167000,-0.023024492,0.0018164923,0.013418062,-1.6795378,-0.29921302,-0.40751195
8175000,8175000,-0.0048686787,-0.00860841,0.01680947,0.581936,-0.9327353,0.05955133
8187000,8187000,-0.005712864,-0.0047598034,5.1735435e-05,0.016356423,0.1467634,-0.9343523
8195000,8195000,0.0015425521,-0.010205989,-0.01757712,0.47569382,-0.4122308,-1.7253101
8207000,8207000,0.010388657,-0.019065436,0.008307826,0.8101195,-1.2190208,1.3143735
8215000,8215000,0.0007248784,-0.03545279,0.021434767,-0.5048742,-1.3745319,1.3413615
8227000,8227000,0.0013561102,-0.0047776503,0.032612257,0.45962882,0.87366676,1.0715849
8235000,8235000,0.017932486,0.016928123,-0.0105737075,1.3433781,1.9007531,-2.633287
8247000,8247000,0.006885564,0.015517896,0.0076874765,-0.79022336,0.443189,0.69879174
8255000,8255000,-0.01785596,-0.002106999,0.037256476,-2.0514994,-1.1024078,2.263819
8267000,8267000,0.007023967,-0.0315561,-0.0010332363,0.8020391,-2.0973096,-1.3477417
8275000,8275000,-0.02512783,-0.01668636,0.015991647,-1.9573324,0.24375902,0.6103027
8287000,8287000,-0.0022304591,0.011454014,0.0018555443,1.2830352,1.640348,-0.92301893
8295000,8295000,-0.013148174,-0.0040076487,-0.025334267,-0.3003657,-0.45400134,-2.190795
8303000,8303000,-0.003291403,0.004659339,-0.006196079,0.62797713,0.54880613,0.37856185
8315000,8315000,-0.03268097,-0.024300639,-0.00036848523,-2.0144315,-1.7480936,0.565584
8323000,8323000,0.007956993,-0.028799785,0.014255649,2.231911,-0.9805967,1.1151297
8335000,8335000,-0.025129013,-0.0073083183,0.0011855052,-2.3944972,0.9195868,0.1189021
8347000,8347000,-0.0061204266,-0.01859924,0.033086214,1.3623018,-0.63469803,2.090808
8355000,8355000,-0.0012508846,0.0054502855,0.03001412,0.8866286,1.5009797,0.5668696
8367000,8367000,0.0089798635,0.015120439,0.008248817,0.4320789,1.1711884,-0.79326415
8375000,8375000,0.0029677963,0.008791745,0.014766567,-0.2314727,-0.17118847,0.06778872
8387000,8387000,-0.007845404,-0.016325867,0.001096105,-0.83713984,-0.8069056,-0.46122742
8395000,8395000,-0.02933025,-0.007834058,0.005728975,-1.7833936,0.071768776,0.07678912
8407000,8407000,-0.015598533,-0.004165904,0.031526826,-0.4112537,0.44663668,1.092124
8415000,8415000,-0.008327231,0.029198302,0.0034511322,0.4573951,2.2466354,-1.5380899
8427000,8427000,0.009895298,-0.010260001,-0.04035121,1.5178868,-0.6115367,-2.5179222
8435000,8435000,0.0064884266,0.0009181043,-0.01879223,0.16868138,0.2917543,0.56397235
8447000,8447000,-0.010790728,-0.01040851,0.016742112,-0.75502855,-0.3048691,1.5398207
8451000,8451000,-0.011212992,0.003369495,-0.0004973132,-0.537776,0.94933724,-0.41696152
8467000,8467000,9.150687e-05,-0.012963429,0.012320543,0.63835263,-1.4218633,0.91161543
8475000,8475000,-0.0022757836,-0.022195218,0.0067145983,0.07324463,-1.2641637,-0.05329647
8487000,8487000,-0.015328944,-0.00036280113,-0.019490015,-0.71827585,1.7683294,-1.3455379
8495000,8495000,0.005460501,0.03052845,0.0032213004,1.2238767,2.6102896,1.0991578
8507000,8507000,0.005542145,-0.023813905,0.011131266,0.3715284,-2.1850755,0.65127534
8515000,8515000,-0.0036439432,-0.04879704,0.03755315,-0.5533397,-2.6258383,2.0553384
8527000,8527000,0.0017757404,-0.0018852624,0.024498887,0.6293075,1.6892794,-0.004833602
8535000,8535000,0.006059357,0.009341335,0.010836467,0.3202634,1.6325693,-0.93728286
8547000,8547000,-0.003857598,-0.00484752,0.016779164,-0.25435942,-0.79127336,-0.061835155
8555000,8555000,-8.594897e-05,-0.0028065154,-0.026804566,0.16012149,-0.16668141,-3.1920004
8567000,8567000,-0.0011997324,-0.009477807,0.004688045,0.10044244,-0.13173345,1.3045108
8571000,8571000,0.0013810392,-0.0043745623,-0.010199392,0.28266755,0.33910596,-0.3768661
8587000,8587000,-0.013321439,0.015890285,0.020510118,-0.49801087,1.5742939,2.426822
8595000,8595000,0.023472538,-0.025441257,0.002946442,2.2731338,-2.3182936,-0.38553372
8607000,8607000,-0.0048691956,-0.015317614,0.015430236,-1.5662029,0.1679387,0.9494252
8615000,8615000,-0.014895409,-0.0075133797,0.025570404,-1.1750822,0.553494,1.0131373
8627000,8627000,-0.012864266,-0.014029684,-0.0074372855,-0.545739,-0.51364595,-1.3831676
8635000,8635000,-0.0012039118,-0.007231894,0.005736938,0.6898984,0.16530891,0.30008376
8647000,8647000,0.004714994,-0.008402713,-0.005907276,0.3519743,0.11076418,-0.8729172
8655000,8655000,-0.018288422,-0.025803436,0.013146438,-1.6248341,-1.1611414,1.0517986
8667000,8667000,-0.014901571,0.002969336,0.020429233,0.55943346,2.0790172,0.6881498
8675000,8675000,0.0031079338,0.013545626,-0.011637686,1.1400418,1.3827447,-1.9360912
8687000,8687000,-0.03043186,-0.007892627,0.015064567,-0.61651015,-0.36254638,0.39554906
8691000,8691000,0.007357219,-0.0042100004,-0.010019071,2.7499366,0.066699415,-1.834456
8707000,8707000,-0.0051016333,0.009677197,0.01266702,-0.57687384,1.1573124,1.0137677
8715000,8715000,0.007896183,0.01253708,0.003534418,0.6913567,0.656991,-0.29311317
8727000,8727000,-0.0047563296,0.0045523923,-0.017567297,-0.8042376,-0.8964268,-1.3380791
8735000,8735000,-0.010885266,-0.010420809,-0.007923458,-0.65871805,-1.2054112,0.030569682
8747000,8747000,-0.005503309,0.010150745,-0.0057892157,0.16085552,0.40723103,0.6909681
8755000,8755000,0.02339139,-0.027519833,0.014877239,2.178545,-2.4126334,1.6546085
8767000,8767000,-0.0005332425,0.019592885,0.016704846,-1.5488749,2.5710518,0.8708387
8775000,8775000,-0.027692804,0.011648876,0.009320807,-2.3278,0.33155382,-0.21958637
8787000,8787000,-0.007635962,-0.0034228456,-0.0022646917,0.5299536,-0.5780884,-1.0874529
8795000,8795000,0.0146269025,0.010962558,0.01017671,1.7476933,0.84414405,0.52698076
8807000,8807000,0.02322192,0.009175616,-0.035769936,1.0806992,0.09381946,-3.0758915
8811000,8811000,0.016644249,0.022547781,-0.0307427,0.16911727,1.1807204,-1.6265548
8827000,8827000,0.0162216,-0.01900049,-0.006653386,0.5360692,-2.946416,-1.5614996
8835000,8835000,0.016264768,-0.0389649,-0.015733909,0.26619333,-2.435958,-1.195586
8847000,8847000,-0.036789536,-0.01018796,0.026289621,-3.3477232,1.1445948,2.6346111
8855000,8855000,-0.021750411,0.008705676,0.025997045,-0.3470037,1.785839,1.1236218
8867000,8867000,-0.006123787,-0.010820526,0.036315784,0.7653333,-0.9251656,0.62615126
8875000,8875000,-0.02583286,-0.009190359,0.014698942,-1.1131012,-0.38160703,-1.1225908
8887000,8887000,-0.00532686,-0.023237096,0.022735048,1.0940815,-1.0642372,-0.56688094
8895000,8895000,-0.012126578,-0.029490778,0.009059478,-0.058186293,-0.5891105,-0.99360657
8907000,8907000,0.009291361,0.00439585,-0.017239489,1.6050799,0.6828769,-1.8297788
8915000,8915000,0.011733541,-0.019678831,0.002494642,0.6338699,-1.374378,0.59755063
8927000,8927000,0.019419216,-0.003396681,0.010074403,1.2772118,1.8163872,0.3505108
8935000,8935000,0.01941505,0.008971257,0.030700773,0.2955253,1.2320585,1.7518309
8947000,8947000,-0.0013048139,-0.00946587,-0.01957016,-0.8395318,-0.24658574,-2.715447
8955000,8955000,-0.0044793054,-0.017234325,-0.017883416,-0.5953612,-0.56616235,-0.8500558
8963000,8963000,0.008863098,0.01103722,-0.0107831955,0.69544834,1.6180587,-0.044281512
8975000,8975000,-0.0057729064,0.014006923,0.008439099,-0.98181254,0.8184704,1.3433639
8987000,8987000,-0.0018489906,0.013596476,-0.02354601,0.61030304,0.5428861,-0.788857
8995000,8995000,-0.005943332,0.0046855574,-0.013410798,-0.21744531,-0.65552247,0.034355987
9007000,9007000,-0.011874463,-0.027817009,0.012021343,0.10751653,-1.3131275,2.1510243
9015000,9015000,-0.009621611,0.0048937006,0.02428807,0.043215215,1.6976069,1.7319627
9027000,9027000,-0.0025897343,0.0017675271,-0.0024872283,0.5557765,0.4275246,-1.729697
9035000,9035000,-0.01223336,-0.0007020815,-0.02255052,-0.5080043,-0.24016723,-1.9074433
9047000,9047000,-0.0015841769,-0.006617654,0.016697,0.9528253,-0.11051735,1.5289435
9055000,9055000,0.008800442,0.02330796,-0.0011248393,0.9803754,1.8513718,-0.6028331
9067000,9067000,0.010548626,-0.0005001989,0.02574953,0.095947385,-0.33095214,2.1834936
9075000,9075000,-0.005819819,0.01038228,0.037038155,-0.9506601,0.51642966,1.3532777
9087000,9087000,-0.015096299,-0.00041334075,0.009871393,-0.63178706,0.053901453,-0.9981009
9095000,9095000,0.01738712,0.016759252,-0.007192906,1.958786,1.0776434,-1.5555987
9107000,9107000,0.023737904,-0.0226979,0.0063779578,0.8377514,-1.9145339,0.15743364
9115000,9115000,0.008950641,-0.038875844,0.031370282,-0.585093,-2.012648,1.8623534
9127000,9127000,0.014583336,-0.012778194,-0.006525117,-0.33928633,1.3074605,-1.4921914
9135000,9135000,-0.008142378,0.03290663,0.018512357,-1.6885829,3.6141453,1.0655829
9147000,9147000,-0.04171472,-0.0088162655,0.037542444,-2.0635402,-1.3068655,1.3690703
9155000,9155000,-0.017728232,-0.018021828,0.008509064,0.75498116,-1.0582361,-1.5965704
9167000,9167000,0.0068526305,0.020599201,-0.011536953,1.653173,1.7971148,-1.48975
9175000,9175000,0.0011607348,0.01357362,-0.030755136,0.21171904,0.024168402,-1.7392449
9187000,9187000,-0.018145356,-0.034447122,0.025000587,-0.90693676,-1.6402068,2.4459255
9195000,9195000,-0.0004804721,0.003934229,0.02052242,0.9020478,1.8369561,0.87883526
9203000,9203000,0.026610406,-0.0008371585,0.023584008,2.2641842,0.25623643,0.3513893
9215000,9215000,0.011832638,-0.02063547,-0.019596417,-0.6531596,-0.95690614,-2.0556083
9227000,9227000,-0.0137880305,-0.026568187,-0.011162237,-0.9433346,-0.23538603,0.5914116
9235000,9235000,-0.009428886,-3.1294767e-05,0.013508473,-0.31981176,1.597186,1.8465616
9247000,9247000,0.010872415,-0.002156749,-0.011968781,1.704413,0.39697993,-0.46398854
9255000,9255000,-0.003790915,-0.008704329,7.963972e-06,-0.2844305,-0.19866489,0.5565431
9267000,9267000,0.018447425,0.01933184,0.014612127,0.97063786,1.4471966,1.0483454
9275000,9275000,0.015088942,0.011005895,0.010232709,0.17163005,0.0067196465,0.12209129
9283000,9283000,-0.009795056,-0.0075161094,0.020627744,-1.6683398,-1.3733797,0.7538652
9291000,9291000,0.017666852,-0.0016158578,-0.0020410987,1.3025708,0.09516146,-1.3406415
9307000,9307000,-0.013437457,0.010426196,-0.00027849176,-1.0147827,-0.32103604,0.74582106
9315000,9315000,-0.0007988728,-0.014013293,0.017153895,0.27124763,-1.7591133,1.2587738
9327000,9327000,-0.014848508,-0.029345348,-0.0068212016,-0.35151082,-1.8680658,-0.69305784
9335000,9335000,0.029384322,-0.027428154,-0.0100161545,2.8922858,-0.49769986,-0.530317
9347000,9347000,-0.010585219,-0.0062114988,-0.012319474,-1.7113789,0.20543385,-0.116840065
9355000,9355000,-0.016536739,-0.024582116,-0.0009032488,-1.0990016,-0.8940554,0.59351754
9367000,9367000,0.008642526,0.012609574,-0.008883679,1.6074481,1.7950398,-0.009296088
9375000,9375000,0.008111307,-0.032104254,0.00031870976,0.56459385,-2.370529,0.58766055
9387000,9387000,0.019846251,-0.024590781,0.0048685875,0.9920889,-0.26090968,0.13168657
9395000,9395000,0.0034790481,-0.0024951897,0.0293142,-0.7145755,1.5388587,1.8725541
9407000,9407000,0.0027071717,0.0008120078,-0.040482305,-0.08358383,0.16956194,-3.8896246
9415000,9415000,0.022434384,0.0020683624,-0.02824798,1.2802553,0.1947525,-0.6380732
9427000,9427000,-0.019513164,-0.002180117,0.031084096,-2.1309316,-0.10883986,3.1389554
9435000,9435000,-0.016350117,-0.008101676,0.0030812966,-0.6991079,-0.49911958,-0.50824046
9447000,9447000,0.010560345,0.014311562,-0.0011800155,1.5658147,1.2235813,-0.44047529
9455000,9455000,0.015267642,0.04070417,-0.004278247,0.8936299,2.4212027,-0.338129
9467000,9467000,0.0025238781,-0.009723694,-0.035518654,-0.08087838,-2.5629954,-2.2373466
9475000,9475000,0.014029449,0.010136974,0.0024374959,0.63776064,0.45253608,1.826593
9487000,9487000,0.017485863,-0.02215762,0.0016883617,0.1611939,-1.9088405,-0.21284798
9495000,9495000,-0.006322201,-0.021092393,-0.010558285,-1.5503945,-0.7321264,-0.88411784
9507000,9507000,0.020687684,-0.018541744,0.003630532,1.2792575,-0.4594917,1.0853357
9515000,9515000,-0.00031036563,0.008162032,0.018523755,-1.0714386,1.7912053,1.3301082
9523000,9523000,-0.011635014,0.037931494,0.0026710688,-1.0107949,2.863176,-0.34738404
9535000,9535000,0.018871859,0.024973279,-8.881092e-06,1.4234234,-0.70968366,-1.2165713
9547000,9547000,0.018285083,0.0025177633,0.020900995,-0.78337073,-1.0646048,1.6220859
9551000,9551000,-0.0011456367,0.0047909375,0.02724941,-2.1462727,-0.5183821,1.610384
9567000,9567000,-0.015642848,0.011308449,0.001503722,-2.0359747,0.4561967,-1.5919783
9575000,9575000,-0.02307173,0.0051795216,-0.008052179,-1.1482635,-0.39409134,-1.1004975
9587000,9587000,-0.0007305814,-0.020990202,0.0069082477,0.39989102,-1.6540039,0.039486796
9595000,9595000,-0.01930881,-0.0023053177,-0.029243203,-1.130783,0.7722411,-2.524465
9607000,9607000,0.0035234666,0.0016787443,-0.007753743,1.4710348,0.20286445,0.7858103
9615000,9615000,0.011708654,0.0055365805,-0.021677084,0.8856946,0.40406165,-0.7208554
9627000,9627000,-0.02134659,0.005105788,-0.025442945,-1.0429705,0.49759638,-0.42387784
9635000,9635000,-0.04048127,0.0028775318,0.00034916005,-1.82274,-0.27482882,1.7476823
9647000,9647000,0.008280829,-0.0019528988,0.022077436,2.7501488,0.2118092,1.0751442
9655000,9655000,-0.006414241,0.013760477,0.008225004,-0.04862833,1.0061471,-0.2865065
9667000,9667000,-0.0042039095,-0.027444413,0.021063725,0.6865442,-1.5486052,0.86210173
9675000,9675000,0.016909478,0.00020414428,0.024774743,1.7323923,1.3125324,0.5351915
9687000,9687000,0.008130709,-0.014223521,0.009356701,-0.39552814,-1.1573789,-0.91439325
9695000,9695000,-0.009825565,-0.012026763,0.014534501,-1.1554089,-0.1537112,0.1194585
9707000,9707000,0.024643537,0.013006763,-0.0100501515,1.4045322,1.161166,-1.7050016
9715000,9715000,0.015937831,-0.014014125,-0.008253488,0.068445474,-1.3799937,-0.5282038
9727000,9727000,0.004463315,0.013106829,-0.004624077,-1.1567932,1.5282544,0.01818884
9735000,9735000,0.006391782,0.0027136246,0.007376152,-0.027617812,-0.15463115,0.93797696
9747000,9747000,-0.0015221029,-0.017683623,0.014122684,-1.208637,-1.0650914,0.39471635
9755000,9755000,-0.016165394,0.027512498,0.01020068,-1.3943475,2.6778889,-0.09477569
9767000,9767000,0.009687664,-0.005998701,0.001570574,1.4291508,-0.88058496,-0.34222612
9771000,9771000,0.012591206,0.00081036077,0.002196956,1.1939006,-0.016592618,-0.17536469
9787000,9787000,0.028834447,0.014687043,0.027802212,1.7126858,0.6463696,1.515953
9791000,9791000,0.02376063,0.0026253972,0.032847386,0.7154612,-0.578537,1.4307663
9807000,9807000,0.017152537,0.0037646133,0.0021948712,0.715348,0.38963255,-0.1649183
9815000,9815000,0.0064693918,0.004158709,0.0061600734,-0.50604117,0.21997146,-0.05838662
9827000,9827000,-0.0123547595,-0.01480917,0.0051075197,-1.6006666,-1.5710288,0.3427541
9835000,9835000,-0.0021416205,-0.008047017,0.049889736,0.31783867,-0.021531997,3.285604
9847000,9847000,-0.00035344576,-0.00064078334,-0.005298878,0.036873646,0.5154148,-2.4529953
9851000,9851000,5.3740107e-05,0.015870657,-0.00641008,0.058591053,1.723818,-1.7253684
9867000,9867000,-0.014526581,0.015241906,-0.025093993,-0.74505424,-0.15378824,-1.564376
9875000,9875000,-0.024781669,0.0018412624,-0.0104639325,-1.0189999,-1.0387131,0.5401211
9887000,9887000,0.012310576,-0.012683696,-0.0040938407,1.6078849,-0.69209933,0.10945426
9895000,9895000,0.00066482375,-0.009504302,0.0043058456,-0.020883173,-0.33098227,0.77096766
9907000,9907000,-0.0054487647,-0.0028100037,0.017676333,-0.2631369,0.77818483,0.66617495
9911000,9911000,0.0027862813,0.0029985537,0.015839383,0.5135641,1.0036302,0.28971204
9923000,9923000,0.00016422928,-0.014536269,0.009869332,-0.31669378,-0.92094105,-0.074315295
9935000,9935000,-0.0051563154,-0.011474906,-0.008218004,-0.17614189,0.022318149,-1.4369063
9947000,9947000,0.010683799,0.009199031,-0.0060909167,0.9144171,1.3694397,0.27346614
9955000,9955000,-0.020207338,0.002091862,-0.0037294563,-1.9151363,0.088354945,0.18554121
9967000,9967000,-0.0123697,0.0023078648,-0.01943138,0.45482814,0.5276396,-0.77405304
9975000,9975000,0.007995356,0.013004299,0.020334756,1.5447814,0.79700226,2.594595
9987000,9987000,-0.041841745,0.003479193,0.019947084,-2.5023968,-0.25068504,0.3997137
9995000,9995000,0.0094255805,0.0046197893,0.027913537,2.5615551,-0.07365234,0.729696
10007000,10007000,-0.008220959,-0.0038543844,0.016639419,-0.73606396,-0.7211299,-0.27271283
10015000,10015000,-0.0069315997,-0.016207788,0.023081433,-0.2704155,-1.1477864,0.26741192
10027000,10027000,0.0028902115,-0.011611767,0.005686284,0.7436025,0.11393569,-0.500821
10035000,10035000,0.0046140505,-0.0004571015,0.0053290855,0.5146241,0.9509616,-0.47289333
10047000,10047000,0.015461251,0.0038929218,-0.0052157575,0.4500265,0.43094626,-0.07610916
10055000,10055000,-0.00035562963,0.007372282,0.010278944,-0.88800967,0.3550072,0.94753593
10067000,10067000,-0.009484758,-0.027615033,0.001111794,-1.0520995,-1.5833373,-0.27629772
10075000,10075000,-0.025089974,0.009522203,-0.023974264,-1.3464453,1.9478372,-1.9515357
10087000,10087000,-0.005317868,-0.00074449205,-0.009638597,0.1360631,-0.42884135,0.666638
10091000,10091000,-0.017565645,0.0021338223,-0.0048847413,-0.93370605,-0.0446821,0.8411946
10107000,10107000,0.00082202104,-0.012640074,-0.003996728,0.31248856,-1.1651266,0.02231411
10111000,10111000,-0.009454169,0.00030523702,-0.011556423,-0.6514175,0.3072089,-0.61735076
10127000,10127000,-0.013345033,-0.01262944,-0.004981217,-0.38251868,-1.0182943,-1.213977
10135000,10135000,0.00017268103,0.0006995017,-0.027536431,0.85877645,0.37175983,-1.9774851
10147000,10147000,0.019061876,0.0015165377,0.0042851074,1.2655889,1.1474237,1.452684
10155000,10155000,0.023428772,0.014604317,0.018412832,0.66481656,1.1457802,1.595183
10167000,10167000,0.002040647,0.018698225,0.0036603196,-0.5465238,0.7194165,-0.43429467
10175000,10175000,0.0106636,0.011601897,0.004577386,0.27900344,-0.067857035,-0.21827085
10187000,10187000,-0.0071049863,-0.004151645,-0.008250349,-0.1460545,-1.0936228,-0.58069485
10195000,10195000,0.013568129,0.0009428293,-0.0032060163,0.9510275,-0.076863706,0.12699264
10207000,10207000,0.003360296,-0.014508745,0.023862405,0.33419418,-1.0797752,1.546973
10215000,10215000,0.005740815,0.013556134,0.0033567478,0.22038028,1.6921843,-1.0257046
10227000,10227000,-0.007617986,0.018137904,-0.0021080936,-0.49377215,0.3774978,0.040003665
10235000,10235000,0.00801476,-0.006427257,0.011151222,0.8884961,-1.6353385,0.84926134
10247000,10247000,0.005903652,-0.01125918,0.033241007,-0.29672277,-0.92716354,1.2665716
10255000,10255000,-0.0049639945,-0.004784012,0.01965142,-0.70855486,0.22700268,-0.28684244
10267000,10267000,0.0124005405,0.010407712,-0.012237812,0.71646196,0.6355776,-2.3550513
10275000,10275000,-0.0010177892,-0.012115916,0.0034646038,-0.7243231,-1.2480919,0.40109572
10287000,10287000,-0.009571523,0.0009970008,0.008152075,-0.08828306,0.84430885,-0.50397754
10295000,10295000,0.033597052,0.0075559323,-0.010530832,2.8446288,0.6406009,-1.360691
10307000,10307000,0.018360808,-0.006170648,0.015840087,-0.63908625,-0.65946794,1.0884001
10315000,10315000,-0.041885454,-0.023851208,-0.016255362,-4.4839725,-1.4225503,-1.7656487
10327000,10327000,-0.012244498,2.7139671e-05,-0.01766185,0.8141103,1.0072339,-0.6106502
10335000,10335000,0.010787109,0.0053134216,-0.012906745,1.9105124,0.61908895,0.08447132
10347000,10347000,0.008725705,-0.0085710725,0.023097772,0.7020707,-0.112569846,2.231545
10355000,10355000,-0.002972125,0.0057194233,-0.00019522337,-0.50393975,0.9350303,-0.8918395
10367000,10367000,0.00201172,-0.009238935,-0.0040828744,-0.14764446,-0.75707245,0.80840874
10375000,10375000,0.029298933,-0.0013129277,0.0024800552,1.8855047,0.2310624,0.6016724
10387000,10387000,0.012728658,-0.0020694602,-0.006173542,-0.69785655,-0.49613476,-0.55210674
10395000,10395000,0.0017216232,-0.02413073,0.005725639,-1.0370768,-1.5042473,0.68018305
10407000,10407000,0.02046117,-0.00979134,0.001555624,0.59176934,-0.38742065,-0.55047846
10415000,10415000,0.0031187106,-0.015639031,-0.0042963456,-0.9254743,-0.21467195,-0.534832
10427000,10427000,0.016056027,-0.007041255,-0.0050992044,0.8053925,0.3349051,-0.014267618
10435000,10435000,0.002276339,0.005447978,0.013192465,-0.748947,1.0722202,1.3992279
10447000,10447000,-0.008488993,-0.008111819,0.00076872297,-0.6016564,-1.0628341,-1.0260435
10455000,10455000,0.0047577517,0.026668923,-0.0032207442,0.7111366,2.207837,-0.51273775
10467000,10467000,-0.010457357,0.025140578,-0.012910403,-0.7300414,-0.29007992,-0.91436684
10475000,10475000,-0.026282014,0.0024860117,0.0036731453,-1.4401363,-1.4906127,0.86010087
10483000,10483000,0.0055197417,-0.002595988,0.02011766,1.7685885,-1.1558199,1.4576886
10495000,10495000,0.020614902,-0.0019345304,0.01199751,0.76453245,-0.12683097,0.063641
10507000,10507000,0.0008113367,0.00040420739,0.0014719488,-0.94309795,0.09399287,-0.5926144
10515000,10515000,-0.0047635334,-0.009677514,0.008869397,-0.59680116,-0.6455395,0.17199972
10527000,10527000,-0.006850694,-0.0034576936,0.005219215,-0.38023338,0.19853337,-0.097887665
10535000,10535000,0.020424325,-0.0027992418,-0.0015528642,1.7127867,0.07385365,-0.5972903
10547000,10547000,0.0053430125,0.012960074,-0.00017599203,-0.42189354,1.3201587,-0.13443282
10555000,10555000,-0.019403644,0.04840551,0.03300348,-2.0542896,2.89015,2.451283
10567000,10567000,-0.022967221,0.00077915494,0.0033778865,-0.18512273,-2.0215287,-1.5170668
10575000,10575000,-0.010481307,0.0032301832,0.00595518,0.60790384,-0.5044489,-0.36313546
10587000,10587000,0.00068779115,-0.0039727027,-0.013906691,1.3407239,-1.3184981,-1.8833274
10595000,10595000,-0.020246807,-0.02846486,-0.015994806,-1.04616,-2.072715,-0.8829795
10607000,10607000,-0.017583627,-0.004178349,-0.004806284,0.5418849,0.32485932,0.34532067
10615000,10615000,0.015186343,0.0064961147,0.004571586,2.3922908,1.1029892,0.9387568
10627000,10627000,-0.026384687,-0.00223468,-0.039304066,-2.0998762,-0.7629735,-2.440549
10635000,10635000,-0.017763486,0.00041259057,0.0064166225,-0.061206818,-0.027144171,2.1748607
10647000,10647000,-0.010397065,0.025198365,-0.036977563,-0.38845134,1.492238,-2.2857327
10655000,10655000,-0.034342367,-0.0012137757,-0.026038842,-1.6825173,-1.4669125,-0.24619427
10667000,10667000,-0.00860892,-0.038133252,-0.009121712,0.977299,-2.0865216,1.2057967
10675000,10675000,-0.0029444075,-0.017704682,0.011036877,1.0307946,0.36989668,1.8765506
10687000,10687000,0.027893368,-0.030885972,0.0057790824,1.3733752,-0.33254492,0.27834487
10695000,10695000,0.022890775,-0.007196611,0.008373938,0.2808486,1.4563208,0.19384935
10707000,10707000,0.011177636,-0.0017355054,-0.018893693,-0.88027644,0.7015714,-1.3599876
10715000,10715000,0.023360236,0.0049594203,0.0006701532,0.57618153,0.8004101,0.7635093
10727000,10727000,0.015037879,-0.023268465,0.007018986,-0.13822043,-1.4471126,0.4251584
10735000,10735000,0.0111365765,0.002550981,0.008519409,-0.41829485,1.1856006,0.3815646
10747000,10747000,0.003338163,1.4340971e-05,0.044988107,-0.23773587,0.014701509,2.100715
10755000,10755000,0.014974763,-0.008041073,0.020189967,0.6018767,-0.46813402,-1.0091473
10767000,10767000,-0.020969033,0.021204438,0.0007407018,-1.8613797,1.6876616,-0.9085379
10775000,10775000,0.0037095258,-0.0036656293,0.002795206,0.96073616,-1.0685428,-0.3305881
10787000,10787000,0.011598476,-0.016926829,-0.0039501465,0.50199926,-0.7108798,-0.61302775
10795000,10795000,0.0010942963,-0.02148822,-0.023200717,-0.57356983,-0.81323636,-1.6120212
10807000,10807000,0.0071611675,0.034281395,0.0067530125,0.42749763,3.896185,1.5793881
10815000,10815000,0.004662203,0.059531532,0.021497618,-0.16330278,3.0757544,1.5191746
10827000,10827000,0.0054144943,0.008964553,-0.018934257,0.36766988,-2.1956058,-1.2491001
10835000,10835000,-0.0028289217,-0.020763926,0.023961835,-0.47874022,-2.7987478,2.372972
10847000,10847000,0.016176183,0.021517353,-0.030075911,0.956821,1.4916133,-2.6463323
10855000,10855000,0.0037350836,0.03584796,-0.0029109828,-0.4804077,1.5911344,0.8094002
10867000,10867000,0.026398126,-0.008053001,0.010322684,1.0677283,-2.382873,0.30317923
10875000,10875000,-0.009271373,-0.023159008,-0.012991133,-1.9177831,-1.9399364,-1.2578726
10887000,10887000,-0.013923424,0.018108923,0.035276655,-1.1040206,1.1112136,2.0511537
10895000,10895000,-0.02614833,-0.018016374,0.018524442,-1.2677261,-1.8821992,-0.20016477
10907000,10907000,-0.0016849483,-0.015148394,-0.008966062,1.3404355,-0.5022512,-1.3996947
10915000,10915000,-0.005397061,-0.010538412,0.018076573,0.31415656,0.26607826,1.3611127
10927000,10927000,0.018688696,-0.017329503,0.007161768,1.5283512,-0.23424934,-0.8124838
10935000,10935000,-0.0035223726,0.022832528,-0.0030857814,-1.0528784,2.470759,-1.0241263
10947000,10947000,-0.020097718,-0.026046788,0.02026219,-1.2553384,-2.083369,1.3588071
10955000,10955000,-0.02592286,-0.011018352,0.02416705,-0.86508644,0.2733395,0.71694756
10963000,10963000,0.011947731,0.017742407,0.029135015,2.4560513,2.0967274,0.6859687
10975000,10975000,0.029428562,0.019541038,0.038502563,1.2400979,0.39668855,1.1136935
10987000,10987000,0.008523428,-0.023689575,0.037712935,-1.1651595,-1.9149983,0.22688965
10995000,10995000,0.011539558,-0.016317485,0.012757366,-0.14115644,-0.47562692,-1.7532166
11007000,11007000,0.016841868,0.008544144,-0.0022283783,-0.06144154,1.2685394,-1.3189486
11015000,11015000,0.014361809,0.014359141,-9.476929e-05,-0.18124326,0.9913731,-0.19183622
11027000,11027000,-0.0055592107,0.008819597,0.0014522185,-1.530355,0.097470626,-0.004252134
11035000,11035000,-0.01546695,-0.012834453,0.0104815345,-1.1490119,-1.5959458,0.6226841
11047000,11047000,0.027326183,-0.03690556,0.0050086877,2.0136924,-1.4341164,-0.16555704
11055000,11055000,0.00636913,-0.009519047,-0.0067765117,-0.71714497,1.4003927,-0.9435424
11067000,11067000,0.000567734,0.008515789,-0.014030307,-0.01060468,0.42384028,-0.41336393
11075000,11075000,-0.021967348,-0.0034855744,-0.00082454644,-1.6122255,-0.52291626,0.66916156
11087000,11087000,-0.010617674,-0.008352635,-0.007525984,-0.039583236,-0.51297855,-0.011738101
11095000,11095000,-0.008464269,-0.001253654,0.025553297,0.30097488,0.28492722,2.38769
11107000,11107000,-0.021680152,-0.00019439185,-0.020790586,-0.7222552,0.39241573,-2.2671576
11115000,11115000,-0.0032963208,0.01732974,-0.011511579,1.0879614,1.3833585,-0.21865341
11127000,11127000,0.0016688133,-0.0102072,0.0077100573,0.17582935,-1.2071582,0.9983922
11135000,11135000,-0.00023248029,-0.013516452,0.015132474,0.030413419,-0.72413784,0.79463995
11147000,11147000,-0.002428631,-0.0026162514,-0.01830011,-0.92884624,0.2490769,-1.9670345
11155000,11155000,-0.016629029,0.004307512,-0.008584155,-1.1076722,0.70811695,0.10457207
11167000,11167000,-0.0010589989,0.0045626382,-5.1523326e-05,0.35269922,0.06806746,-0.14270175
11175000,11175000,-0.011067989,-0.019187162,-0.0020685154,-0.5975824,-1.5165355,-0.086309165
11187000,11187000,0.0052699344,-0.004233188,0.03141654,0.78452456,0.5368079,1.9995236
11195000,11195000,0.013449855,-0.011137362,0.010368058,1.1453658,-0.3505774,-0.833843
11203000,11203000,0.013900566,-0.011915622,0.012514571,0.22131121,-0.06765413,-0.0056166663
11215000,11215000,0.0020909803,0.040449746,0.025866872,-0.11703849,2.7646246,0.62736475
11227000,11227000,0.026401358,-0.0021748333,-0.0010596663,0.87566656,-1.7817369,-1.441614
11235000,11235000,0.0157246,0.0014086635,0.017471975,-0.29789394,-0.3807875,0.60542667
11247000,11247000,-0.006048616,0.023123903,-0.0018590633,-1.368486,1.2262928,-0.5589232
11255000,11255000,0.0050526,0.022274142,-0.0021325513,0.29823482,0.320189,-0.43768603
11267000,11267000,-0.01504131,0.019144412,-0.011030052,-1.2659655,0.026179511,-0.52991474
11275000,11275000,-0.03452242,0.007826485,-0.0035569682,-1.8181701,-0.7604195,0.1287434
11287000,11287000,-0.0117778815,0.017263949,-0.023650864,0.30405682,0.29965764,-0.9102731
11295000,11295000,-0.012760747,-0.024442025,-0.023299037,0.1805223,-2.7910662,-0.25194764
11307000,11307000,0.03260004,0.009668923,0.025622344,3.149427,1.3938106,2.5016665
