timestamp,timestamp_sample,gps_hvel[0],gps_hvel[1],gps_vvel,gps_hpos[0],gps_hpos[1],gps_vpos,ev_hvel[0],ev_hvel[1],ev_vvel,ev_hpos[0],ev_hpos[1],ev_vpos,rng_vpos,baro_vpos,aux_hvel[0],aux_hvel[1],flow[0],flow[1],heading,mag_field[0],mag_field[1],mag_field[2],gravity[0],gravity[1],gravity[2],drag[0],drag[1],airspeed,beta,hagl,hagl_rate
4435000,4283000,0.0,0.0,0.0,0.0,0.0,0.0,0.0,0.0,0.0,0.0,0.0,0.0,0.0,0.0,0.0,0.0,0.0,0.0,0.0,0.002883447,0.68589526,2.7265244,0.0015231974,1.6125656e-05,2.0090667e-09,0.0,0.0,0.0,0.0,0.0,0.0
4443000,4291000,0.0,0.0,0.0,0.0,0.0,0.0,0.0,0.0,0.0,0.0,0.0,0.0,0.0,4.2400047e-14,0.0,0.0,0.0,0.0,0.0,0.002883447,0.68589526,2.7265244,0.0006227969,0.02418565,4.4521027e-08,0.0,0.0,0.0,0.0,0.0,0.0
4451000,4299000,0.0,0.0,0.0,0.0,0.0,0.0,0.0,0.0,0.0,0.0,0.0,0.0,0.0,4.2400047e-14,0.0,0.0,0.0,0.0,0.0,0.002883447,0.68589526,2.7265244,0.00031837213,0.007652912,2.1020215e-07,0.0,0.0,0.0,0.0,0.0,0.0
4459000,4307000,0.0,0.0,0.0,0.0,0.0,0.0,0.0,0.0,0.0,0.0,0.0,0.0,0.0,4.2400047e-14,0.0,0.0,0.0,0.0,0.0,0.002883447,0.68589526,2.7265244,0.00028502705,0.018731311,2.1499522e-08,0.0,0.0,0.0,0.0,0.0,0.0
4467000,4315000,0.0,0.0,0.0,0.0,0.0,0.0,0.0,0.0,0.0,0.0,0.0,0.0,0.0,4.2400047e-14,0.0,0.0,0.0,0.0,0.0,0.002883447,0.68589526,2.7265244,0.0004171454,3.2486372e-05,2.6361667e-08,0.0,0.0,0.0,0.0,0.0,0.0
4475000,4323000,0.0,0.0,0.0,0.0,0.0,0.0,0.0,0.0,0.0,0.0,0.0,0.0,0.0,4.2400047e-14,0.0,0.0,0.0,0.0,0.0,0.0023072609,0.6887488,2.7331295,0.00066331436,0.007910266,3.8662844e-07,0.0,0.0,0.0,0.0,0.0,0.0
4483000,4331000,0.0,0.0,0.0,0.0,0.0,0.0,0.0,0.0,0.0,0.0,0.0,0.0,0.0,4.2400047e-14,0.0,0.0,0.0,0.0,0.0,0.0023072609,0.6887488,2.7331295,0.0024944113,0.0040132687,3.2850926e-07,0.0,0.0,0.0,0.0,0.0,0.0
4491000,4339000,0.0,0.0,0.0,0.0,0.0,0.0,0.0,0.0,0.0,0.0,0.0,0.0,0.0,4.2400047e-14,0.0,0.0,0.0,0.0,0.0,0.0023072609,0.6887488,2.7331295,0.0019852114,0.000119627985,1.162387e-07,0.0,0.0,0.0,0.0,0.0,0.0
4507000,4355000,0.0,0.0,0.0,0.0,0.0,0.0,0.0,0.0,0.0,0.0,0.0,0.0,0.0,4.2400047e-14,0.0,0.0,0.0,0.0,0.0,0.0023072609,0.6887488,2.7331295,0.00087735604,0.0014484669,3.3614864e-08,0.0,0.0,0.0,0.0,0.0,0.0
4515000,4363000,0.0,0.0,0.0,0.0,0.0,0.0,0.0,0.0,0.0,0.0,0.0,0.0,0.0,3.0981244e-07,0.0,0.0,0.0,0.0,0.0,0.0023072609,0.6887488,2.7331295,0.00025000225,0.0035864136,4.174623e-07,0.0,0.0,0.0,0.0,0.0,0.0
4523000,4371000,0.0,0.0,0.0,0.0,0.0,0.0,0.0,0.0,0.0,0.0,0.0,0.0,0.0,3.0981244e-07,0.0,0.0,0.0,0.0,0.0,0.0023072609,0.6887488,2.7331295,0.0048856204,0.006962115,1.3515977e-07,0.0,0.0,0.0,0.0,0.0,0.0
4531000,4379000,0.0,0.0,0.0,0.0,0.0,0.0,0.0,0.0,0.0,0.0,0.0,0.0,0.0,3.0981244e-07,0.0,0.0,0.0,0.0,0.0,0.0023072609,0.6887488,2.7331295,0.0021747327,0.006499435,1.5370408e-10,0.0,0.0,0.0,0.0,0.0,0.0
4547000,4395000,0.0,0.0,0.0,0.0,0.0,0.0,0.0,0.0,0.0,0.0,0.0,0.0,0.0,3.0981244e-07,0.0,0.0,0.0,0.0,0.0,0.004176892,0.696406,2.7439759,0.0012012324,0.009075129,2.6619094e-07,0.0,0.0,0.0,0.0,0.0,0.0
4555000,4403000,0.0,0.0,0.0,0.0,0.0,0.0,0.0,0.0,0.0,0.0,0.0,0.0,0.0,3.0981244e-07,0.0,0.0,0.0,0.0,0.0,0.004176892,0.696406,2.7439759,0.0043228175,0.02578025,5.030981e-07,0.0,0.0,0.0,0.0,0.0,0.0
4563000,4411000,0.0,0.0,0.0,0.0,0.0,0.0,0.0,0.0,0.0,0.0,0.0,0.0,0.0,3.0981244e-07,0.0,0.0,0.0,0.0,0.0,0.004176892,0.696406,2.7439759,0.00036917254,0.010847503,3.6470674e-08,0.0,0.0,0.0,0.0,0.0,0.0
4571000,4419000,0.0,0.0,0.0,0.0,0.0,0.0,0.0,0.0,0.0,0.0,0.0,0.0,0.0,3.0981244e-07,0.0,0.0,0.0,0.0,0.0,0.004176892,0.696406,2.7439759,0.0001305955,0.0042903945,2.0391008e-07,0.0,0.0,0.0,0.0,0.0,0.0
4587000,4435000,0.0,0.0,0.0,0.0,0.0,0.0,0.0,0.0,0.0,0.0,0.0,0.0,0.0,7.16559e-06,0.0,0.0,0.0,0.0,0.0,0.004176892,0.696406,2.7439759,0.012295744,0.011448337,4.1346684e-07,0.0,0.0,0.0,0.0,0.0,0.0
4595000,4443000,0.0,0.0,0.0,0.0,0.0,0.0,0.0,0.0,0.0,0.0,0.0,0.0,0.0,7.16559e-06,0.0,0.0,0.0,0.0,0.0,0.004176892,0.696406,2.7439759,0.005891622,0.006798583,2.6439153e-08,0.0,0.0,0.0,0.0,0.0,0.0
4603000,4451000,0.0,0.0,0.0,0.0,0.0,0.0,0.0,0.0,0.0,0.0,0.0,0.0,0.0,7.16559e-06,0.0,0.0,0.0,0.0,0.0,0.004176892,0.696406,2.7439759,0.006613417,0.005050271,2.1991736e-08,0.0,0.0,0.0,0.0,0.0,0.0
4611000,4459000,0.0,0.0,0.0,0.0,0.0,0.0,0.0,0.0,0.0,0.0,0.0,0.0,0.0,7.16559e-06,0.0,0.0,0.0,0.0,0.0,0.0019834999,0.69120795,2.720769,0.007468234,0.00018684671,6.679398e-08,0.0,0.0,0.0,0.0,0.0,0.0
4627000,4475000,0.0,0.0,0.0,0.0,0.0,0.0,0.0,0.0,0.0,0.0,0.0,0.0,0.0,7.16559e-06,0.0,0.0,0.0,0.0,0.0,0.0019834999,0.69120795,2.720769,0.0016083692,0.020501195,4.1684635e-07,0.0,0.0,0.0,0.0,0.0,0.0
4635000,4483000,0.0,0.0,0.0,0.0,0.0,0.0,0.0,0.0,0.0,0.0,0.0,0.0,0.0,7.16559e-06,0.0,0.0,0.0,0.0,0.0,0.0019834999,0.69120795,2.720769,0.0028839514,0.004367206,2.0867468e-07,0.0,0.0,0.0,0.0,0.0,0.0
4643000,4491000,0.0,0.0,0.0,0.0,0.0,0.0,0.0,0.0,0.0,0.0,0.0,0.0,0.0,3.170335e-06,0.0,0.0,0.0,0.0,0.0,0.0019834999,0.69120795,2.720769,0.00020206126,0.012595112,1.01155706e-07,0.0,0.0,0.0,0.0,0.0,0.0
4651000,4499000,0.0,0.0,0.0,0.0,0.0,0.0,0.0,0.0,0.0,0.0,0.0,0.0,0.0,3.170335e-06,0.0,0.0,0.0,0.0,0.0,0.0019834999,0.69120795,2.720769,0.0014454033,0.012913077,8.063103e-08,0.0,0.0,0.0,0.0,0.0,0.0
4667000,4515000,0.0,0.0,0.0,0.0,0.0,0.0,0.0,0.0,0.0,0.0,0.0,0.0,0.0,3.170335e-06,0.0,0.0,0.0,0.0,0.0,0.0019834999,0.69120795,2.720769,0.014703101,0.0002733066,2.4469143e-06,0.0,0.0,0.0,0.0,0.0,0.0
4675000,4523000,0.0,0.0,0.0,0.0,0.0,0.0,0.0,0.0,0.0,0.0,0.0,0.0,0.0,3.170335e-06,0.0,0.0,0.0,0.0,0.0,0.0019834999,0.69120795,2.720769,0.0020536948,0.007863759,2.2217336e-07,0.0,0.0,0.0,0.0,0.0,0.0
4683000,4531000,0.0,0.0,0.0,0.0,0.0,0.0,0.0,0.0,0.0,0.0,0.0,0.0,0.0,3.170335e-06,0.0,0.0,0.0,0.0,0.0,0.00020984223,0.6943295,2.7711432,0.0066725435,0.010031202,6.92356e-07,0.0,0.0,0.0,0.0,0.0,0.0
4691000,4539000,0.0,0.0,0.0,0.0,0.0,0.0,0.0,0.0,0.0,0.0,0.0,0.0,0.0,3.170335e-06,0.0,0.0,0.0,0.0,0.0,0.00020984223,0.6943295,2.7711432,0.0004917158,0.009325883,2.3424523e-07,0.0,0.0,0.0,0.0,0.0,0.0
4707000,4555000,5.6111105e-07,4.8933107e-06,6.573857e-07,812651000000.0,26773720000.0,0.0,0.0,0.0,0.0,0.0,0.0,0.0,0.0,4.5624237e-08,0.0,0.0,0.0,0.0,0.0,0.00020984223,0.6943295,2.7711432,0.00037836703,0.01829538,1.2283252e-09,0.0,0.0,0.0,0.0,0.0,0.0
4715000,4563000,5.6111105e-07,4.8933107e-06,6.573857e-07,812651000000.0,26773720000.0,0.0,0.0,0.0,0.0,0.0,0.0,0.0,0.0,4.5624237e-08,0.0,0.0,0.0,0.0,0.0,0.00020984223,0.6943295,2.7711432,0.0021633902,0.046549574,5.8619016e-06,0.0,0.0,0.0,0.0,0.0,0.0
4723000,4571000,5.6111105e-07,4.8933107e-06,6.573857e-07,812651000000.0,26773720000.0,0.0,0.0,0.0,0.0,0.0,0.0,0.0,0.0,4.5624237e-08,0.0,0.0,0.0,0.0,0.0,0.00020984223,0.6943295,2.7711432,0.00048619875,0.004675027,3.268715e-07,0.0,0.0,0.0,0.0,0.0,0.0
4731000,4579000,5.6111105e-07,4.8933107e-06,6.573857e-07,812651000000.0,26773720000.0,0.0,0.0,0.0,0.0,0.0,0.0,0.0,0.0,4.5624237e-08,0.0,0.0,0.0,0.0,0.0,0.00020984223,0.6943295,2.7711432,0.0009768708,0.00013178728,9.186092e-09,0.0,0.0,0.0,0.0,0.0,0.0
4747000,4595000,5.6111105e-07,4.8933107e-06,6.573857e-07,812651000000.0,26773720000.0,0.0,0.0,0.0,0.0,0.0,0.0,0.0,0.0,4.5624237e-08,0.0,0.0,0.0,0.0,0.0,0.0017199463,0.7034401,2.7117267,0.007961336,1.2024882e-06,3.9737597e-07,0.0,0.0,0.0,0.0,0.0,0.0
4755000,4603000,5.6111105e-07,4.8933107e-06,6.573857e-07,812651000000.0,26773720000.0,0.0,0.0,0.0,0.0,0.0,0.0,0.0,0.0,4.5624237e-08,0.0,0.0,0.0,0.0,0.0,0.0017199463,0.7034401,2.7117267,0.0029309918,0.00019791069,4.205489e-09,0.0,0.0,0.0,0.0,0.0,0.0
4763000,4611000,5.6111105e-07,4.8933107e-06,6.573857e-07,812651000000.0,26773720000.0,0.0,0.0,0.0,0.0,0.0,0.0,0.0,0.0,1.1750112e-06,0.0,0.0,0.0,0.0,0.0,0.0017199463,0.7034401,2.7117267,4.6259494e-05,0.007258179,1.9349572e-07,0.0,0.0,0.0,0.0,0.0,0.0
4771000,4619000,5.6111105e-07,4.8933107e-06,6.573857e-07,812651000000.0,26773720000.0,0.0,0.0,0.0,0.0,0.0,0.0,0.0,0.0,1.1750112e-06,0.0,0.0,0.0,0.0,0.0,0.0017199463,0.7034401,2.7117267,5.4317883e-05,0.0039521926,3.0489883e-07,0.0,0.0,0.0,0.0,0.0,0.0
4787000,4635000,5.6111105e-07,4.8933107e-06,6.573857e-07,812651000000.0,26773720000.0,0.0,0.0,0.0,0.0,0.0,0.0,0.0,0.0,1.1750112e-06,0.0,0.0,0.0,0.0,0.0,0.0017199463,0.7034401,2.7117267,0.0046733995,0.007087569,4.707186e-08,0.0,0.0,0.0,0.0,0.0,0.0
4795000,4643000,5.6111105e-07,4.8933107e-06,6.573857e-07,812651000000.0,26773720000.0,0.0,0.0,0.0,0.0,0.0,0.0,0.0,0.0,1.1750112e-06,0.0,0.0,0.0,0.0,0.0,0.0017199463,0.7034401,2.7117267,1.0919921e-05,9.300318e-05,2.4911195e-08,0.0,0.0,0.0,0.0,0.0,0.0
4803000,4651000,5.6111105e-07,4.8933107e-06,6.573857e-07,812651000000.0,26773720000.0,0.0,0.0,0.0,0.0,0.0,0.0,0.0,0.0,1.1750112e-06,0.0,0.0,0.0,0.0,0.0,0.0017199463,0.7034401,2.7117267,0.0018409558,0.0044895047,2.5764984e-07,0.0,0.0,0.0,0.0,0.0,0.0
4811000,4659000,5.6111105e-07,4.8933107e-06,6.573857e-07,812651000000.0,26773720000.0,0.0,0.0,0.0,0.0,0.0,0.0,0.0,0.0,1.1750112e-06,0.0,0.0,0.0,0.0,0.0,0.0017199463,0.7034401,2.7117267,0.00086474867,0.013531444,7.9148477e-10,0.0,0.0,0.0,0.0,0.0,0.0
4827000,4675000,5.6111105e-07,4.8933107e-06,6.573857e-07,812651000000.0,26773720000.0,0.0,0.0,0.0,0.0,0.0,0.0,0.0,0.0,1.5623403e-08,0.0,0.0,0.0,0.0,0.0,0.0014117322,0.6909888,2.745058,0.00018353223,6.567558e-05,1.1004844e-08,0.0,0.0,0.0,0.0,0.0,0.0
4835000,4683000,5.6111105e-07,4.8933107e-06,6.573857e-07,812651000000.0,26773720000.0,0.0,0.0,0.0,0.0,0.0,0.0,0.0,0.0,1.5623403e-08,0.0,0.0,0.0,0.0,0.0,0.0014117322,0.6909888,2.745058,0.0008613915,0.0055266107,2.847074e-07,0.0,0.0,0.0,0.0,0.0,0.0
4843000,4691000,5.6111105e-07,4.8933107e-06,6.573857e-07,812651000000.0,26773720000.0,0.0,0.0,0.0,0.0,0.0,0.0,0.0,0.0,1.5623403e-08,0.0,0.0,0.0,0.0,0.0,0.0014117322,0.6909888,2.745058,2.2250719e-05,0.007208769,2.062854e-07,0.0,0.0,0.0,0.0,0.0,0.0
4851000,4699000,5.6111105e-07,4.8933107e-06,6.573857e-07,812651000000.0,26773720000.0,0.0,0.0,0.0,0.0,0.0,0.0,0.0,0.0,1.5623403e-08,0.0,0.0,0.0,0.0,0.0,0.0014117322,0.6909888,2.745058,0.00078993995,0.0039510475,9.415333e-08,0.0,0.0,0.0,0.0,0.0,0.0
4867000,4715000,5.6111105e-07,4.8933107e-06,6.573857e-07,812651000000.0,26773720000.0,0.0,0.0,0.0,0.0,0.0,0.0,0.0,0.0,1.5623403e-08,0.0,0.0,0.0,0.0,0.0,0.0014117322,0.6909888,2.745058,0.0013529955,0.002506616,2.3981667e-07,0.0,0.0,0.0,0.0,0.0,0.0
4875000,4723000,5.6111105e-07,4.8933107e-06,6.573857e-07,812651000000.0,26773720000.0,0.0,0.0,0.0,0.0,0.0,0.0,0.0,0.0,1.5623403e-08,0.0,0.0,0.0,0.0,0.0,0.0014117322,0.6909888,2.745058,0.0008709955,0.011128261,1.2879304e-08,0.0,0.0,0.0,0.0,0.0,0.0
4883000,4731000,5.6111105e-07,4.8933107e-06,6.573857e-07,812651000000.0,26773720000.0,0.0,0.0,0.0,0.0,0.0,0.0,0.0,0.0,1.5623403e-08,0.0,0.0,0.0,0.0,0.0,0.0017633289,0.6896442,2.7245088,0.0007856192,0.005214282,3.093912e-07,0.0,0.0,0.0,0.0,0.0,0.0
4891000,4739000,5.6111105e-07,4.8933107e-06,6.573857e-07,812651000000.0,26773720000.0,0.0,0.0,0.0,0.0,0.0,0.0,0.0,0.0,2.6711552e-06,0.0,0.0,0.0,0.0,0.0,0.0017633289,0.6896442,2.7245088,0.00046918142,0.005038728,2.9575295e-07,0.0,0.0,0.0,0.0,0.0,0.0
4907000,4755000,5.6111105e-07,4.8933107e-06,6.573857e-07,812651000000.0,26773720000.0,0.0,0.0,0.0,0.0,0.0,0.0,0.0,0.0,2.6711552e-06,0.0,0.0,0.0,0.0,0.0,0.0017633289,0.6896442,2.7245088,0.00085256353,0.00046740353,8.281197e-08,0.0,0.0,0.0,0.0,0.0,0.0
4915000,4763000,5.6111105e-07,4.8933107e-06,6.573857e-07,812651000000.0,26773720000.0,0.0,0.0,0.0,0.0,0.0,0.0,0.0,0.0,2.6711552e-06,0.0,0.0,0.0,0.0,0.0,0.0017633289,0.6896442,2.7245088,0.0005751889,0.00015472222,4.194353e-08,0.0,0.0,0.0,0.0,0.0,0.0
4923000,4771000,5.6111105e-07,4.8933107e-06,6.573857e-07,812651000000.0,26773720000.0,0.0,0.0,0.0,0.0,0.0,0.0,0.0,0.0,2.6711552e-06,0.0,0.0,0.0,0.0,0.0,0.0017633289,0.6896442,2.7245088,0.0023552298,2.9402051e-06,2.4164278e-08,0.0,0.0,0.0,0.0,0.0,0.0
4931000,4779000,5.6111105e-07,4.8933107e-06,6.573857e-07,812651000000.0,26773720000.0,0.0,0.0,0.0,0.0,0.0,0.0,0.0,0.0,2.6711552e-06,0.0,0.0,0.0,0.0,0.0,0.0017633289,0.6896442,2.7245088,0.00036513232,0.00080081547,5.5937363e-08,0.0,0.0,0.0,0.0,0.0,0.0
4947000,4795000,5.6111105e-07,4.8933107e-06,6.573857e-07,812651000000.0,26773720000.0,0.0,0.0,0.0,0.0,0.0,0.0,0.0,0.0,2.6711552e-06,0.0,0.0,0.0,0.0,0.0,0.0017633289,0.6896442,2.7245088,0.0038199103,0.011177767,2.0542006e-07,0.0,0.0,0.0,0.0,0.0,0.0
4955000,4803000,5.6111105e-07,4.8933107e-06,6.573857e-07,812651000000.0,26773720000.0,0.0,0.0,0.0,0.0,0.0,0.0,0.0,0.0,3.5381052e-07,0.0,0.0,0.0,0.0,0.0,0.0013649348,0.67589533,2.7213476,0.0047494583,0.017551143,9.728584e-07,0.0,0.0,0.0,0.0,0.0,0.0
4963000,4811000,5.6111105e-07,4.8933107e-06,6.573857e-07,812651000000.0,26773720000.0,0.0,0.0,0.0,0.0,0.0,0.0,0.0,0.0,3.5381052e-07,0.0,0.0,0.0,0.0,0.0,0.0013649348,0.67589533,2.7213476,0.02583993,0.013558123,1.3533511e-05,0.0,0.0,0.0,0.0,0.0,0.0
4971000,4819000,5.6111105e-07,4.8933107e-06,6.573857e-07,812651000000.0,26773720000.0,0.0,0.0,0.0,0.0,0.0,0.0,0.0,0.0,3.5381052e-07,0.0,0.0,0.0,0.0,0.0,0.0013649348,0.67589533,2.7213476,0.017571047,0.0012017153,5.0055833e-06,0.0,0.0,0.0,0.0,0.0,0.0
4987000,4835000,5.6111105e-07,4.8933107e-06,6.573857e-07,812651000000.0,26773720000.0,0.0,0.0,0.0,0.0,0.0,0.0,0.0,0.0,3.5381052e-07,0.0,0.0,0.0,0.0,0.0,0.0013649348,0.67589533,2.7213476,0.0006891062,0.0060441913,1.5701485e-07,0.0,0.0,0.0,0.0,0.0,0.0
4995000,4843000,5.6111105e-07,4.8933107e-06,6.573857e-07,812651000000.0,26773720000.0,0.0,0.0,0.0,0.0,0.0,0.0,0.0,0.0,3.5381052e-07,0.0,0.0,0.0,0.0,0.0,0.0013649348,0.67589533,2.7213476,0.00021025832,0.008538191,5.972091e-08,0.0,0.0,0.0,0.0,0.0,0.0
5003000,4851000,5.6111105e-07,4.8933107e-06,6.573857e-07,812651000000.0,26773720000.0,0.0,0.0,0.0,0.0,0.0,0.0,0.0,0.0,3.5381052e-07,0.0,0.0,0.0,0.0,0.0,0.0013649348,0.67589533,2.7213476,0.00013503003,0.007649125,8.981507e-08,0.0,0.0,0.0,0.0,0.0,0.0
5011000,4859000,5.6111105e-07,4.8933107e-06,6.573857e-07,812651000000.0,26773720000.0,0.0,0.0,0.0,0.0,0.0,0.0,0.0,0.0,3.5381052e-07,0.0,0.0,0.0,0.0,0.0,0.0013649348,0.67589533,2.7213476,0.0011494337,0.009391947,6.030497e-08,0.0,0.0,0.0,0.0,0.0,0.0
5027000,4875000,5.6111105e-07,4.8933107e-06,6.573857e-07,812651000000.0,26773720000.0,0.0,0.0,0.0,0.0,0.0,0.0,0.0,0.0,1.7989989e-06,0.0,0.0,0.0,0.0,0.0,0.001357398,0.70598763,2.6941607,0.0015721029,0.009504341,3.7664087e-08,0.0,0.0,0.0,0.0,0.0,0.0
5035000,4883000,5.6111105e-07,4.8933107e-06,6.573857e-07,812651000000.0,26773720000.0,0.0,0.0,0.0,0.0,0.0,0.0,0.0,0.0,1.7989989e-06,0.0,0.0,0.0,0.0,0.0,0.001357398,0.70598763,2.6941607,0.0002178027,0.008506744,6.6056586e-08,0.0,0.0,0.0,0.0,0.0,0.0
5043000,4891000,5.6111105e-07,4.8933107e-06,6.573857e-07,812651000000.0,26773720000.0,0.0,0.0,0.0,0.0,0.0,0.0,0.0,0.0,1.7989989e-06,0.0,0.0,0.0,0.0,0.0,0.001357398,0.70598763,2.6941607,0.005366077,0.00017973219,5.12954e-07,0.0,0.0,0.0,0.0,0.0,0.0
5051000,4899000,5.6111105e-07,4.8933107e-06,6.573857e-07,812651000000.0,26773720000.0,0.0,0.0,0.0,0.0,0.0,0.0,0.0,0.0,1.7989989e-06,0.0,0.0,0.0,0.0,0.0,0.001357398,0.70598763,2.6941607,0.010146229,0.0010807466,1.4502181e-06,0.0,0.0,0.0,0.0,0.0,0.0
5067000,4915000,5.6111105e-07,4.8933107e-06,6.573857e-07,812651000000.0,26773720000.0,0.0,0.0,0.0,0.0,0.0,0.0,0.0,0.0,1.7989989e-06,0.0,0.0,0.0,0.0,0.0,0.001357398,0.70598763,2.6941607,1.7128767e-05,0.0011799826,1.3306425e-07,0.0,0.0,0.0,0.0,0.0,0.0
5075000,4923000,5.6111105e-07,4.8933107e-06,6.573857e-07,812651000000.0,26773720000.0,0.0,0.0,0.0,0.0,0.0,0.0,0.0,0.0,1.7989989e-06,0.0,0.0,0.0,0.0,0.0,0.001357398,0.70598763,2.6941607,0.0014758984,0.00038617224,1.01611086e-07,0.0,0.0,0.0,0.0,0.0,0.0
5083000,4931000,5.6111105e-07,4.8933107e-06,6.573857e-07,812651000000.0,26773720000.0,0.0,0.0,0.0,0.0,0.0,0.0,0.0,0.0,3.9501406e-06,0.0,0.0,0.0,0.0,0.0,0.001357398,0.70598763,2.6941607,0.008030659,0.0011751375,5.195102e-08,0.0,0.0,0.0,0.0,0.0,0.0
5091000,4939000,5.6111105e-07,4.8933107e-06,6.573857e-07,812651000000.0,26773720000.0,0.0,0.0,0.0,0.0,0.0,0.0,0.0,0.0,3.9501406e-06,0.0,0.0,0.0,0.0,0.0,0.001357398,0.70598763,2.6941607,0.00041552802,0.0015779871,1.3393529e-07,0.0,0.0,0.0,0.0,0.0,0.0
5107000,4955000,3.3707042e-08,1.16370366e-07,1.5033411e-05,10878332000.0,358399140.0,0.0,0.0,0.0,0.0,0.0,0.0,0.0,0.0,3.9501406e-06,0.0,0.0,0.0,0.0,0.0,0.001730516,0.70056766,2.733737,0.005613873,0.011600523,2.5934676e-07,0.0,0.0,0.0,0.0,0.0,0.0
5115000,4963000,3.3707042e-08,1.16370366e-07,1.5033411e-05,10878332000.0,358399140.0,0.0,0.0,0.0,0.0,0.0,0.0,0.0,0.0,3.9501406e-06,0.0,0.0,0.0,0.0,0.0,0.001730516,0.70056766,2.733737,0.0007295369,0.013954462,4.1101708e-07,0.0,0.0,0.0,0.0,0.0,0.0
5123000,4971000,3.3707042e-08,1.16370366e-07,1.5033411e-05,10878332000.0,358399140.0,0.0,0.0,0.0,0.0,0.0,0.0,0.0,0.0,3.9501406e-06,0.0,0.0,0.0,0.0,0.0,0.001730516,0.70056766,2.733737,2.1908412e-05,0.020564029,1.3759685e-08,0.0,0.0,0.0,0.0,0.0,0.0
5131000,4979000,3.3707042e-08,1.16370366e-07,1.5033411e-05,10878332000.0,358399140.0,0.0,0.0,0.0,0.0,0.0,0.0,0.0,0.0,3.9501406e-06,0.0,0.0,0.0,0.0,0.0,0.001730516,0.70056766,2.733737,0.0014570212,0.017068733,2.718791e-07,0.0,0.0,0.0,0.0,0.0,0.0
5147000,4995000,3.3707042e-08,1.16370366e-07,1.5033411e-05,10878332000.0,358399140.0,0.0,0.0,0.0,0.0,0.0,0.0,0.0,0.0,2.3570014e-06,0.0,0.0,0.0,0.0,0.0,0.001730516,0.70056766,2.733737,0.001979015,0.0058503156,7.585385e-07,0.0,0.0,0.0,0.0,0.0,0.0
5155000,5003000,3.3707042e-08,1.16370366e-07,1.5033411e-05,10878332000.0,358399140.0,0.0,0.0,0.0,0.0,0.0,0.0,0.0,0.0,2.3570014e-06,0.0,0.0,0.0,0.0,0.0,0.001730516,0.70056766,2.733737,0.00054211856,0.022173679,3.387762e-08,0.0,0.0,0.0,0.0,0.0,0.0
5163000,5011000,3.3707042e-08,1.16370366e-07,1.5033411e-05,10878332000.0,358399140.0,0.0,0.0,0.0,0.0,0.0,0.0,0.0,0.0,2.3570014e-06,0.0,0.0,0.0,0.0,0.0,0.0022232975,0.68982726,2.7649238,0.00040810625,0.022432476,2.8252472e-08,0.0,0.0,0.0,0.0,0.0,0.0
5171000,5019000,3.3707042e-08,1.16370366e-07,1.5033411e-05,10878332000.0,358399140.0,0.0,0.0,0.0,0.0,0.0,0.0,0.0,0.0,2.3570014e-06,0.0,0.0,0.0,0.0,0.0,0.0022232975,0.68982726,2.7649238,1.9066598e-05,0.022829909,1.3096664e-10,0.0,0.0,0.0,0.0,0.0,0.0
5187000,5035000,3.3707042e-08,1.16370366e-07,1.5033411e-05,10878332000.0,358399140.0,0.0,0.0,0.0,0.0,0.0,0.0,0.0,0.0,2.3570014e-06,0.0,0.0,0.0,0.0,0.0,0.0022232975,0.68982726,2.7649238,0.009261494,0.012420541,9.799584e-08,0.0,0.0,0.0,0.0,0.0,0.0
5195000,5043000,3.3707042e-08,1.16370366e-07,1.5033411e-05,10878332000.0,358399140.0,0.0,0.0,0.0,0.0,0.0,0.0,0.0,0.0,2.3570014e-06,0.0,0.0,0.0,0.0,0.0,0.0022232975,0.68982726,2.7649238,0.00493125,0.012699545,3.869246e-07,0.0,0.0,0.0,0.0,0.0,0.0
5203000,5051000,3.3707042e-08,1.16370366e-07,1.5033411e-05,10878332000.0,358399140.0,0.0,0.0,0.0,0.0,0.0,0.0,0.0,0.0,7.83663e-08,0.0,0.0,0.0,0.0,0.0,0.0022232975,0.68982726,2.7649238,0.028149161,0.00046136984,2.7869066e-06,0.0,0.0,0.0,0.0,0.0,0.0
5211000,5059000,3.3707042e-08,1.16370366e-07,1.5033411e-05,10878332000.0,358399140.0,0.0,0.0,0.0,0.0,0.0,0.0,0.0,0.0,7.83663e-08,0.0,0.0,0.0,0.0,0.0,0.0022232975,0.68982726,2.7649238,0.006086022,0.0034014974,4.1746185e-07,0.0,0.0,0.0,0.0,0.0,0.0
5227000,5075000,3.3707042e-08,1.16370366e-07,1.5033411e-05,10878332000.0,358399140.0,0.0,0.0,0.0,0.0,0.0,0.0,0.0,0.0,7.83663e-08,0.0,0.0,0.0,0.0,0.0,0.0022232975,0.68982726,2.7649238,0.008334133,0.014621209,1.1349128e-07,0.0,0.0,0.0,0.0,0.0,0.0
5235000,5083000,3.3707042e-08,1.16370366e-07,1.5033411e-05,10878332000.0,358399140.0,0.0,0.0,0.0,0.0,0.0,0.0,0.0,0.0,7.83663e-08,0.0,0.0,0.0,0.0,0.0,0.0019922245,0.6818481,2.7267733,0.002349404,0.003968719,8.100505e-07,0.0,0.0,0.0,0.0,0.0,0.0
5243000,5091000,3.3707042e-08,1.16370366e-07,1.5033411e-05,10878332000.0,358399140.0,0.0,0.0,0.0,0.0,0.0,0.0,0.0,0.0,7.83663e-08,0.0,0.0,0.0,0.0,0.0,0.0019922245,0.6818481,2.7267733,0.00019472434,0.00011835531,1.5076225e-08,0.0,0.0,0.0,0.0,0.0,0.0
5251000,5099000,3.3707042e-08,1.16370366e-07,1.5033411e-05,10878332000.0,358399140.0,0.0,0.0,0.0,0.0,0.0,0.0,0.0,0.0,7.83663e-08,0.0,0.0,0.0,0.0,0.0,0.0019922245,0.6818481,2.7267733,0.006627073,0.00670431,5.260131e-07,0.0,0.0,0.0,0.0,0.0,0.0
5267000,5115000,3.3707042e-08,1.16370366e-07,1.5033411e-05,10878332000.0,358399140.0,0.0,0.0,0.0,0.0,0.0,0.0,0.0,0.0,3.1244912e-08,0.0,0.0,0.0,0.0,0.0,0.0019922245,0.6818481,2.7267733,0.0016826806,8.186743e-05,1.2518313e-07,0.0,0.0,0.0,0.0,0.0,0.0
5275000,5123000,3.3707042e-08,1.16370366e-07,1.5033411e-05,10878332000.0,358399140.0,0.0,0.0,0.0,0.0,0.0,0.0,0.0,0.0,3.1244912e-08,0.0,0.0,0.0,0.0,0.0,0.0019922245,0.6818481,2.7267733,0.005479541,0.004404535,9.24058e-08,0.0,0.0,0.0,0.0,0.0,0.0
5283000,5131000,3.3707042e-08,1.16370366e-07,1.5033411e-05,10878332000.0,358399140.0,0.0,0.0,0.0,0.0,0.0,0.0,0.0,0.0,3.1244912e-08,0.0,0.0,0.0,0.0,0.0,0.0019922245,0.6818481,2.7267733,0.004423436,0.0007124464,4.049149e-08,0.0,0.0,0.0,0.0,0.0,0.0
5291000,5139000,3.3707042e-08,1.16370366e-07,1.5033411e-05,10878332000.0,358399140.0,0.0,0.0,0.0,0.0,0.0,0.0,0.0,0.0,3.1244912e-08,0.0,0.0,0.0,0.0,0.0,0.0019922245,0.6818481,2.7267733,0.00013350291,0.0051522874,3.7895816e-07,0.0,0.0,0.0,0.0,0.0,0.0
5307000,5155000,3.3707042e-08,1.16370366e-07,1.5033411e-05,10878332000.0,358399140.0,0.0,0.0,0.0,0.0,0.0,0.0,0.0,0.0,3.1244912e-08,0.0,0.0,0.0,0.0,0.0,0.00086343416,0.6933755,2.731894,0.004222292,1.6022974e-05,2.161471e-07,0.0,0.0,0.0,0.0,0.0,0.0
5315000,5163000,3.3707042e-08,1.16370366e-07,1.5033411e-05,10878332000.0,358399140.0,0.0,0.0,0.0,0.0,0.0,0.0,0.0,0.0,3.1244912e-08,0.0,0.0,0.0,0.0,0.0,0.00086343416,0.6933755,2.731894,0.0028338674,0.0011973747,2.7913848e-07,0.0,0.0,0.0,0.0,0.0,0.0
5323000,5171000,3.3707042e-08,1.16370366e-07,1.5033411e-05,10878332000.0,358399140.0,0.0,0.0,0.0,0.0,0.0,0.0,0.0,0.0,3.1244912e-08,0.0,0.0,0.0,0.0,0.0,0.00086343416,0.6933755,2.731894,0.008753807,0.001193412,1.8184401e-06,0.0,0.0,0.0,0.0,0.0,0.0
5331000,5179000,3.3707042e-08,1.16370366e-07,1.5033411e-05,10878332000.0,358399140.0,0.0,0.0,0.0,0.0,0.0,0.0,0.0,0.0,2.188326e-06,0.0,0.0,0.0,0.0,0.0,0.00086343416,0.6933755,2.731894,0.0021258644,0.00790213,1.0920012e-06,0.0,0.0,0.0,0.0,0.0,0.0
5347000,5195000,3.3707042e-08,1.16370366e-07,1.5033411e-05,10878332000.0,358399140.0,0.0,0.0,0.0,0.0,0.0,0.0,0.0,0.0,2.188326e-06,0.0,0.0,0.0,0.0,0.0,0.00086343416,0.6933755,2.731894,0.0027482316,0.010594718,3.735024e-06,0.0,0.0,0.0,0.0,0.0,0.0
5355000,5203000,3.3707042e-08,1.16370366e-07,1.5033411e-05,10878332000.0,358399140.0,0.0,0.0,0.0,0.0,0.0,0.0,0.0,0.0,2.188326e-06,0.0,0.0,0.0,0.0,0.0,0.00086343416,0.6933755,2.731894,0.0007274502,0.0026931497,3.18476e-07,0.0,0.0,0.0,0.0,0.0,0.0
5363000,5211000,3.3707042e-08,1.16370366e-07,1.5033411e-05,10878332000.0,358399140.0,0.0,0.0,0.0,0.0,0.0,0.0,0.0,0.0,2.188326e-06,0.0,0.0,0.0,0.0,0.0,0.00086343416,0.6933755,2.731894,0.00063938694,0.0016450777,8.881784e-08,0.0,0.0,0.0,0.0,0.0,0.0
5371000,5219000,3.3707042e-08,1.16370366e-07,1.5033411e-05,10878332000.0,358399140.0,0.0,0.0,0.0,0.0,0.0,0.0,0.0,0.0,2.188326e-06,0.0,0.0,0.0,0.0,0.0,0.00086343416,0.6933755,2.731894,0.0063233394,1.3436866e-07,3.9978568e-07,0.0,0.0,0.0,0.0,0.0,0.0
5387000,5235000,3.3707042e-08,1.16370366e-07,1.5033411e-05,10878332000.0,358399140.0,0.0,0.0,0.0,0.0,0.0,0.0,0.0,0.0,2.188326e-06,0.0,0.0,0.0,0.0,0.0,0.00097538054,0.69567364,2.6915255,0.0003769224,2.9235614e-05,7.366907e-09,0.0,0.0,0.0,0.0,0.0,0.0
5395000,5243000,3.3707042e-08,1.16370366e-07,1.5033411e-05,10878332000.0,358399140.0,0.0,0.0,0.0,0.0,0.0,0.0,0.0,0.0,7.8262593e-07,0.0,0.0,0.0,0.0,0.0,0.00097538054,0.69567364,2.6915255,0.00015850371,0.003094366,9.503361e-08,0.0,0.0,0.0,0.0,0.0,0.0
5403000,5251000,3.3707042e-08,1.16370366e-07,1.5033411e-05,10878332000.0,358399140.0,0.0,0.0,0.0,0.0,0.0,0.0,0.0,0.0,7.8262593e-07,0.0,0.0,0.0,0.0,0.0,0.00097538054,0.69567364,2.6915255,0.0018071614,0.0063663526,6.809001e-07,0.0,0.0,0.0,0.0,0.0,0.0
5411000,5259000,3.3707042e-08,1.16370366e-07,1.5033411e-05,10878332000.0,358399140.0,0.0,0.0,0.0,0.0,0.0,0.0,0.0,0.0,7.8262593e-07,0.0,0.0,0.0,0.0,0.0,0.00097538054,0.69567364,2.6915255,0.00083372026,6.068578e-05,3.5475978e-08,0.0,0.0,0.0,0.0,0.0,0.0
5427000,5275000,3.3707042e-08,1.16370366e-07,1.5033411e-05,10878332000.0,358399140.0,0.0,0.0,0.0,0.0,0.0,0.0,0.0,0.0,7.8262593e-07,0.0,0.0,0.0,0.0,0.0,0.00097538054,0.69567364,2.6915255,0.005247806,0.005206142,1.114036e-06,0.0,0.0,0.0,0.0,0.0,0.0
5435000,5283000,3.3707042e-08,1.16370366e-07,1.5033411e-05,10878332000.0,358399140.0,0.0,0.0,0.0,0.0,0.0,0.0,0.0,0.0,7.8262593e-07,0.0,0.0,0.0,0.0,0.0,0.00097538054,0.69567364,2.6915255,0.0043153227,0.0011898106,2.591051e-07,0.0,0.0,0.0,0.0,0.0,0.0
5443000,5291000,3.3707042e-08,1.16370366e-07,1.5033411e-05,10878332000.0,358399140.0,0.0,0.0,0.0,0.0,0.0,0.0,0.0,0.0,7.8262593e-07,0.0,0.0,0.0,0.0,0.0,0.00097538054,0.69567364,2.6915255,0.00022302124,0.0009647652,1.1562008e-08,0.0,0.0,0.0,0.0,0.0,0.0
5451000,5299000,3.3707042e-08,1.16370366e-07,1.5033411e-05,10878332000.0,358399140.0,0.0,0.0,0.0,0.0,0.0,0.0,0.0,0.0,7.8262593e-07,0.0,0.0,0.0,0.0,0.0,0.0014541452,0.6989411,2.724353,0.0028686489,0.0028578595,4.4247486e-07,0.0,0.0,0.0,0.0,0.0,0.0
5467000,5315000,3.3707042e-08,1.16370366e-07,1.5033411e-05,10878332000.0,358399140.0,0.0,0.0,0.0,0.0,0.0,0.0,0.0,0.0,4.1277e-06,0.0,0.0,0.0,0.0,0.0,0.0014541452,0.6989411,2.724353,0.00543417,2.051721e-05,6.0225744e-07,0.0,0.0,0.0,0.0,0.0,0.0
5475000,5323000,3.3707042e-08,1.16370366e-07,1.5033411e-05,10878332000.0,358399140.0,0.0,0.0,0.0,0.0,0.0,0.0,0.0,0.0,4.1277e-06,0.0,0.0,0.0,0.0,0.0,0.0014541452,0.6989411,2.724353,0.0019391974,0.00288465,2.7662486e-07,0.0,0.0,0.0,0.0,0.0,0.0
5483000,5331000,3.3707042e-08,1.16370366e-07,1.5033411e-05,10878332000.0,358399140.0,0.0,0.0,0.0,0.0,0.0,0.0,0.0,0.0,4.1277e-06,0.0,0.0,0.0,0.0,0.0,0.0014541452,0.6989411,2.724353,0.0025977187,0.00783814,9.879705e-07,0.0,0.0,0.0,0.0,0.0,0.0
5491000,5339000,3.3707042e-08,1.16370366e-07,1.5033411e-05,10878332000.0,358399140.0,0.0,0.0,0.0,0.0,0.0,0.0,0.0,0.0,4.1277e-06,0.0,0.0,0.0,0.0,0.0,0.0014541452,0.6989411,2.724353,0.004094053,0.0025166282,5.625973e-07,0.0,0.0,0.0,0.0,0.0,0.0
5507000,5355000,2.38882e-06,3.196192e-05,6.748906e-05,0.0,0.0,0.0,0.0,0.0,0.0,0.0,0.0,0.0,0.0,4.1277e-06,0.0,0.0,0.0,0.0,0.0,0.0014541452,0.6989411,2.724353,0.006617694,0.0046002767,2.1878814e-06,0.0,0.0,0.0,0.0,0.0,0.0
5515000,5363000,2.38882e-06,3.196192e-05,6.748906e-05,0.0,0.0,0.0,0.0,0.0,0.0,0.0,0.0,0.0,0.0,4.1277e-06,0.0,0.0,0.0,0.0,0.0,0.0014541452,0.6989411,2.724353,0.003056219,0.0024880108,8.416864e-07,0.0,0.0,0.0,0.0,0.0,0.0
5523000,5371000,2.38882e-06,3.196192e-05,6.748906e-05,0.0,0.0,0.0,0.0,0.0,0.0,0.0,0.0,0.0,0.0,7.3968354e-06,0.0,0.0,0.0,0.0,0.0,0.0020525903,0.6927109,2.7353346,0.00032816303,8.599404e-06,6.07821e-09,0.0,0.0,0.0,0.0,0.0,0.0
5531000,5379000,2.38882e-06,3.196192e-05,6.748906e-05,0.0,0.0,0.0,0.0,0.0,0.0,0.0,0.0,0.0,0.0,7.3968354e-06,0.0,0.0,0.0,0.0,0.0,0.0020525903,0.6927109,2.7353346,0.000103760125,0.00010320612,3.4583536e-10,0.0,0.0,0.0,0.0,0.0,0.0
5547000,5395000,2.38882e-06,3.196192e-05,6.748906e-05,0.0,0.0,0.0,0.0,0.0,0.0,0.0,0.0,0.0,0.0,7.3968354e-06,0.0,0.0,0.0,0.0,0.0,0.0020525903,0.6927109,2.7353346,1.8370702e-05,0.002124682,1.5400678e-07,0.0,0.0,0.0,0.0,0.0,0.0
5555000,5403000,2.38882e-06,3.196192e-05,6.748906e-05,0.0,0.0,0.0,0.0,0.0,0.0,0.0,0.0,0.0,0.0,7.3968354e-06,0.0,0.0,0.0,0.0,0.0,0.0020525903,0.6927109,2.7353346,0.0016925153,1.693111e-05,7.741443e-08,0.0,0.0,0.0,0.0,0.0,0.0
5563000,5411000,2.38882e-06,3.196192e-05,6.748906e-05,0.0,0.0,0.0,0.0,0.0,0.0,0.0,0.0,0.0,0.0,7.3968354e-06,0.0,0.0,0.0,0.0,0.0,0.0020525903,0.6927109,2.7353346,7.44419e-05,6.615585e-06,7.3873707e-10,0.0,0.0,0.0,0.0,0.0,0.0
5571000,5419000,2.38882e-06,3.196192e-05,6.748906e-05,0.0,0.0,0.0,0.0,0.0,0.0,0.0,0.0,0.0,0.0,7.3968354e-06,0.0,0.0,0.0,0.0,0.0,0.0020525903,0.6927109,2.7353346,0.00075565896,0.0016715586,5.26054e-08,0.0,0.0,0.0,0.0,0.0,0.0
5587000,5435000,2.38882e-06,3.196192e-05,6.748906e-05,0.0,0.0,0.0,0.0,0.0,0.0,0.0,0.0,0.0,0.0,7.072135e-06,0.0,0.0,0.0,0.0,0.0,0.0020525903,0.6927109,2.7353346,0.00631274,3.622611e-06,8.079098e-07,0.0,0.0,0.0,0.0,0.0,0.0
5595000,5443000,2.38882e-06,3.196192e-05,6.748906e-05,0.0,0.0,0.0,0.0,0.0,0.0,0.0,0.0,0.0,0.0,7.072135e-06,0.0,0.0,0.0,0.0,0.0,0.0013011664,0.69865537,2.710496,0.00029552804,0.0010798948,1.1256418e-08,0.0,0.0,0.0,0.0,0.0,0.0
5603000,5451000,2.38882e-06,3.196192e-05,6.748906e-05,0.0,0.0,0.0,0.0,0.0,0.0,0.0,0.0,0.0,0.0,7.072135e-06,0.0,0.0,0.0,0.0,0.0,0.0013011664,0.69865537,2.710496,2.2161741e-05,0.0018875072,1.1285016e-07,0.0,0.0,0.0,0.0,0.0,0.0
5611000,5459000,2.38882e-06,3.196192e-05,6.748906e-05,0.0,0.0,0.0,0.0,0.0,0.0,0.0,0.0,0.0,0.0,7.072135e-06,0.0,0.0,0.0,0.0,0.0,0.0013011664,0.69865537,2.710496,0.007842055,0.0032269827,2.696127e-06,0.0,0.0,0.0,0.0,0.0,0.0
5627000,5475000,2.38882e-06,3.196192e-05,6.748906e-05,0.0,0.0,0.0,0.0,0.0,0.0,0.0,0.0,0.0,0.0,7.072135e-06,0.0,0.0,0.0,0.0,0.0,0.0013011664,0.69865537,2.710496,0.00084889407,0.001999939,2.6594586e-07,0.0,0.0,0.0,0.0,0.0,0.0
5635000,5483000,2.38882e-06,3.196192e-05,6.748906e-05,0.0,0.0,0.0,0.0,0.0,0.0,0.0,0.0,0.0,0.0,7.072135e-06,0.0,0.0,0.0,0.0,0.0,0.0013011664,0.69865537,2.710496,0.0014722814,0.0015140885,1.0130776e-07,0.0,0.0,0.0,0.0,0.0,0.0
5643000,5491000,2.38882e-06,3.196192e-05,6.748906e-05,0.0,0.0,0.0,0.0,0.0,0.0,0.0,0.0,0.0,0.0,7.072135e-06,0.0,0.0,0.0,0.0,0.0,0.0013011664,0.69865537,2.710496,6.69128e-08,0.0040360126,1.0482859e-07,0.0,0.0,0.0,0.0,0.0,0.0
5651000,5499000,2.38882e-06,3.196192e-05,6.748906e-05,0.0,0.0,0.0,0.0,0.0,0.0,0.0,0.0,0.0,0.0,5.897594e-07,0.0,0.0,0.0,0.0,0.0,0.0013011664,0.69865537,2.710496,0.00011152901,0.0007115844,1.6575541e-10,0.0,0.0,0.0,0.0,0.0,0.0
5667000,5515000,2.38882e-06,3.196192e-05,6.748906e-05,0.0,0.0,0.0,0.0,0.0,0.0,0.0,0.0,0.0,0.0,5.897594e-07,0.0,0.0,0.0,0.0,0.0,0.0018495434,0.69846725,2.711773,0.00032094904,0.00046437897,1.0027179e-10,0.0,0.0,0.0,0.0,0.0,0.0
5675000,5523000,2.38882e-06,3.196192e-05,6.748906e-05,0.0,0.0,0.0,0.0,0.0,0.0,0.0,0.0,0.0,0.0,5.897594e-07,0.0,0.0,0.0,0.0,0.0,0.0018495434,0.69846725,2.711773,0.0001233047,0.00021178191,1.2028067e-10,0.0,0.0,0.0,0.0,0.0,0.0
5683000,5531000,2.38882e-06,3.196192e-05,6.748906e-05,0.0,0.0,0.0,0.0,0.0,0.0,0.0,0.0,0.0,0.0,5.897594e-07,0.0,0.0,0.0,0.0,0.0,0.0018495434,0.69846725,2.711773,1.2924407e-05,0.00022363922,5.8572027e-09,0.0,0.0,0.0,0.0,0.0,0.0
5691000,5539000,2.38882e-06,3.196192e-05,6.748906e-05,0.0,0.0,0.0,0.0,0.0,0.0,0.0,0.0,0.0,0.0,5.897594e-07,0.0,0.0,0.0,0.0,0.0,0.0018495434,0.69846725,2.711773,0.0014894926,0.0010923508,2.3125546e-07,0.0,0.0,0.0,0.0,0.0,0.0
5707000,5555000,2.38882e-06,3.196192e-05,6.748906e-05,0.0,0.0,0.0,0.0,0.0,0.0,0.0,0.0,0.0,0.0,6.263652e-07,0.0,0.0,0.0,0.0,0.0,0.0018495434,0.69846725,2.711773,2.5352589e-05,0.00031810734,4.3024784e-10,0.0,0.0,0.0,0.0,0.0,0.0
5715000,5563000,2.38882e-06,3.196192e-05,6.748906e-05,0.0,0.0,0.0,0.0,0.0,0.0,0.0,0.0,0.0,0.0,6.263652e-07,0.0,0.0,0.0,0.0,0.0,0.0018495434,0.69846725,2.711773,2.4346429e-07,0.00110925,5.775655e-08,0.0,0.0,0.0,0.0,0.0,0.0
5723000,5571000,2.38882e-06,3.196192e-05,6.748906e-05,0.0,0.0,0.0,0.0,0.0,0.0,0.0,0.0,0.0,0.0,6.263652e-07,0.0,0.0,0.0,0.0,0.0,0.0018495434,0.69846725,2.711773,0.0012690448,3.2877047e-06,4.4823537e-08,0.0,0.0,0.0,0.0,0.0,0.0
5731000,5579000,2.38882e-06,3.196192e-05,6.748906e-05,0.0,0.0,0.0,0.0,0.0,0.0,0.0,0.0,0.0,0.0,6.263652e-07,0.0,0.0,0.0,0.0,0.0,0.0018495434,0.69846725,2.711773,2.6810958e-05,0.00013053314,1.7808475e-09,0.0,0.0,0.0,0.0,0.0,0.0
5747000,5595000,2.38882e-06,3.196192e-05,6.748906e-05,0.0,0.0,0.0,0.0,0.0,0.0,0.0,0.0,0.0,0.0,6.263652e-07,0.0,0.0,0.0,0.0,0.0,0.0017379407,0.6863639,2.7358885,0.00036975113,0.00046705574,4.7805315e-09,0.0,0.0,0.0,0.0,0.0,0.0
5755000,5603000,2.38882e-06,3.196192e-05,6.748906e-05,0.0,0.0,0.0,0.0,0.0,0.0,0.0,0.0,0.0,0.0,6.263652e-07,0.0,0.0,0.0,0.0,0.0,0.0017379407,0.6863639,2.7358885,0.0021463963,0.0020271915,2.0520474e-07,0.0,0.0,0.0,0.0,0.0,0.0
5763000,5611000,2.38882e-06,3.196192e-05,6.748906e-05,0.0,0.0,0.0,0.0,0.0,0.0,0.0,0.0,0.0,0.0,6.263652e-07,0.0,0.0,0.0,0.0,0.0,0.0017379407,0.6863639,2.7358885,0.004595062,6.169552e-05,2.4734823e-07,0.0,0.0,0.0,0.0,0.0,0.0
5771000,5619000,2.38882e-06,3.196192e-05,6.748906e-05,0.0,0.0,0.0,0.0,0.0,0.0,0.0,0.0,0.0,0.0,4.7650694e-05,0.0,0.0,0.0,0.0,0.0,0.0017379407,0.6863639,2.7358885,0.011988861,0.0007493731,1.7635614e-06,0.0,0.0,0.0,0.0,0.0,0.0
5787000,5635000,2.38882e-06,3.196192e-05,6.748906e-05,0.0,0.0,0.0,0.0,0.0,0.0,0.0,0.0,0.0,0.0,4.7650694e-05,0.0,0.0,0.0,0.0,0.0,0.0017379407,0.6863639,2.7358885,0.0066125374,0.0030859178,1.5429634e-06,0.0,0.0,0.0,0.0,0.0,0.0
5795000,5643000,2.38882e-06,3.196192e-05,6.748906e-05,0.0,0.0,0.0,0.0,0.0,0.0,0.0,0.0,0.0,0.0,4.7650694e-05,0.0,0.0,0.0,0.0,0.0,0.0017379407,0.6863639,2.7358885,0.0064405296,0.004470874,1.0398212e-06,0.0,0.0,0.0,0.0,0.0,0.0
5803000,5651000,2.38882e-06,3.196192e-05,6.748906e-05,0.0,0.0,0.0,0.0,0.0,0.0,0.0,0.0,0.0,0.0,4.7650694e-05,0.0,0.0,0.0,0.0,0.0,0.0017379407,0.6863639,2.7358885,0.01664851,0.0017510228,3.8623425e-06,0.0,0.0,0.0,0.0,0.0,0.0
5811000,5659000,2.38882e-06,3.196192e-05,6.748906e-05,0.0,0.0,0.0,0.0,0.0,0.0,0.0,0.0,0.0,0.0,4.7650694e-05,0.0,0.0,0.0,0.0,0.0,0.0026271031,0.69526505,2.7298706,0.0039850823,0.00031107897,2.5716696e-07,0.0,0.0,0.0,0.0,0.0,0.0
5827000,5675000,2.38882e-06,3.196192e-05,6.748906e-05,0.0,0.0,0.0,0.0,0.0,0.0,0.0,0.0,0.0,0.0,4.7650694e-05,0.0,0.0,0.0,0.0,0.0,0.0026271031,0.69526505,2.7298706,0.000287698,0.00045125888,2.578929e-09,0.0,0.0,0.0,0.0,0.0,0.0
5835000,5683000,2.38882e-06,3.196192e-05,6.748906e-05,0.0,0.0,0.0,0.0,0.0,0.0,0.0,0.0,0.0,0.0,1.142204e-07,0.0,0.0,0.0,0.0,0.0,0.0026271031,0.69526505,2.7298706,0.00014952228,0.000598423,8.185452e-12,0.0,0.0,0.0,0.0,0.0,0.0
5843000,5691000,2.38882e-06,3.196192e-05,6.748906e-05,0.0,0.0,0.0,0.0,0.0,0.0,0.0,0.0,0.0,0.0,1.142204e-07,0.0,0.0,0.0,0.0,0.0,0.0026271031,0.69526505,2.7298706,0.0003989479,0.0040336098,5.402904e-07,0.0,0.0,0.0,0.0,0.0,0.0
5851000,5699000,2.38882e-06,3.196192e-05,6.748906e-05,0.0,0.0,0.0,0.0,0.0,0.0,0.0,0.0,0.0,0.0,1.142204e-07,0.0,0.0,0.0,0.0,0.0,0.0026271031,0.69526505,2.7298706,0.0006095669,0.00031896768,8.20819e-09,0.0,0.0,0.0,0.0,0.0,0.0
5867000,5715000,2.38882e-06,3.196192e-05,6.748906e-05,0.0,0.0,0.0,0.0,0.0,0.0,0.0,0.0,0.0,0.0,1.142204e-07,0.0,0.0,0.0,0.0,0.0,0.0026271031,0.69526505,2.7298706,0.00077673234,0.0003157827,1.6043487e-09,0.0,0.0,0.0,0.0,0.0,0.0
5875000,5723000,2.38882e-06,3.196192e-05,6.748906e-05,0.0,0.0,0.0,0.0,0.0,0.0,0.0,0.0,0.0,0.0,1.142204e-07,0.0,0.0,0.0,0.0,0.0,0.0026271031,0.69526505,2.7298706,4.2144453e-05,0.0013306236,7.9282984e-08,0.0,0.0,0.0,0.0,0.0,0.0
5883000,5731000,2.38882e-06,3.196192e-05,6.748906e-05,0.0,0.0,0.0,0.0,0.0,0.0,0.0,0.0,0.0,0.0,1.142204e-07,0.0,0.0,0.0,0.0,0.0,0.0018231365,0.6914238,2.7262497,0.0034350462,0.00033923236,3.7223805e-07,0.0,0.0,0.0,0.0,0.0,0.0
5891000,5739000,2.38882e-06,3.196192e-05,6.748906e-05,0.0,0.0,0.0,0.0,0.0,0.0,0.0,0.0,0.0,0.0,1.142204e-07,0.0,0.0,0.0,0.0,0.0,0.0018231365,0.6914238,2.7262497,3.8077355e-10,0.0015753242,1.0888107e-07,0.0,0.0,0.0,0.0,0.0,0.0
5907000,5755000,4.858636e-05,2.5287902e-05,6.851001e-06,3.790585e-08,1.0294877e-07,1.9037698e-07,0.0,0.0,0.0,0.0,0.0,0.0,0.0,2.0055857e-05,0.0,0.0,0.0,0.0,0.0,0.0018231365,0.6914238,2.7262497,1.2865627e-05,0.00013505568,4.3301043e-09,0.0,0.0,0.0,0.0,0.0,0.0
5915000,5763000,4.858636e-05,2.5287902e-05,6.851001e-06,3.790585e-08,1.0294877e-07,1.9037698e-07,0.0,0.0,0.0,0.0,0.0,0.0,0.0,2.0055857e-05,0.0,0.0,0.0,0.0,0.0,0.0018231365,0.6914238,2.7262497,0.00019897951,0.0003657397,1.5967316e-10,0.0,0.0,0.0,0.0,0.0,0.0
5923000,5771000,4.858636e-05,2.5287902e-05,6.851001e-06,3.790585e-08,1.0294877e-07,1.9037698e-07,0.0,0.0,0.0,0.0,0.0,0.0,0.0,2.0055857e-05,0.0,0.0,0.0,0.0,0.0,0.0018231365,0.6914238,2.7262497,0.00046683848,2.1890379e-05,1.5967316e-10,0.0,0.0,0.0,0.0,0.0,0.0
5931000,5779000,4.858636e-05,2.5287902e-05,6.851001e-06,3.790585e-08,1.0294877e-07,1.9037698e-07,0.0,0.0,0.0,0.0,0.0,0.0,0.0,2.0055857e-05,0.0,0.0,0.0,0.0,0.0,0.0018231365,0.6914238,2.7262497,0.004145148,0.0053269067,1.7578668e-06,0.0,0.0,0.0,0.0,0.0,0.0
5947000,5795000,4.858636e-05,2.5287902e-05,6.851001e-06,3.790585e-08,1.0294877e-07,1.9037698e-07,0.0,0.0,0.0,0.0,0.0,0.0,0.0,2.0055857e-05,0.0,0.0,0.0,0.0,0.0,0.0018231365,0.6914238,2.7262497,0.00032320753,0.000736746,5.392394e-09,0.0,0.0,0.0,0.0,0.0,0.0
5955000,5803000,4.858636e-05,2.5287902e-05,6.851001e-06,3.790585e-08,1.0294877e-07,1.9037698e-07,0.0,0.0,0.0,0.0,0.0,0.0,0.0,2.0055857e-05,0.0,0.0,0.0,0.0,0.0,0.0019005232,0.67839324,2.7684333,0.0017612057,0.0036527896,1.6973354e-07,0.0,0.0,0.0,0.0,0.0,0.0
5963000,5811000,4.858636e-05,2.5287902e-05,6.851001e-06,3.790585e-08,1.0294877e-07,1.9037698e-07,0.0,0.0,0.0,0.0,0.0,0.0,0.0,4.9573384e-10,0.0,0.0,0.0,0.0,0.0,0.0019005232,0.67839324,2.7684333,0.011784287,2.7086991e-05,1.681583e-06,0.0,0.0,0.0,0.0,0.0,0.0
5971000,5819000,4.858636e-05,2.5287902e-05,6.851001e-06,3.790585e-08,1.0294877e-07,1.9037698e-07,0.0,0.0,0.0,0.0,0.0,0.0,0.0,4.9573384e-10,0.0,0.0,0.0,0.0,0.0,0.0019005232,0.67839324,2.7684333,0.0030891895,0.003696861,3.4735785e-07,0.0,0.0,0.0,0.0,0.0,0.0
5987000,5835000,4.858636e-05,2.5287902e-05,6.851001e-06,3.790585e-08,1.0294877e-07,1.9037698e-07,0.0,0.0,0.0,0.0,0.0,0.0,0.0,4.9573384e-10,0.0,0.0,0.0,0.0,0.0,0.0019005232,0.67839324,2.7684333,8.528926e-05,0.0007554924,3.6744495e-08,0.0,0.0,0.0,0.0,0.0,0.0
5995000,5843000,4.858636e-05,2.5287902e-05,6.851001e-06,3.790585e-08,1.0294877e-07,1.9037698e-07,0.0,0.0,0.0,0.0,0.0,0.0,0.0,4.9573384e-10,0.0,0.0,0.0,0.0,0.0,0.0019005232,0.67839324,2.7684333,0.00022322021,0.0030109524,3.0253483e-07,0.0,0.0,0.0,0.0,0.0,0.0
6003000,5851000,4.858636e-05,2.5287902e-05,6.851001e-06,3.790585e-08,1.0294877e-07,1.9037698e-07,0.0,0.0,0.0,0.0,0.0,0.0,0.0,4.9573384e-10,0.0,0.0,0.0,0.0,0.0,0.0019005232,0.67839324,2.7684333,0.004468705,0.00056532485,4.0401778e-07,0.0,0.0,0.0,0.0,0.0,0.0
6011000,5859000,4.858636e-05,2.5287902e-05,6.851001e-06,3.790585e-08,1.0294877e-07,1.9037698e-07,0.0,0.0,0.0,0.0,0.0,0.0,0.0,4.9573384e-10,0.0,0.0,0.0,0.0,0.0,0.0019005232,0.67839324,2.7684333,0.00043466353,0.004810992,2.518746e-07,0.0,0.0,0.0,0.0,0.0,0.0
6027000,5875000,4.858636e-05,2.5287902e-05,6.851001e-06,3.790585e-08,1.0294877e-07,1.9037698e-07,0.0,0.0,0.0,0.0,0.0,0.0,0.0,6.268189e-07,0.0,0.0,0.0,0.0,0.0,0.0008743598,0.68033653,2.738916,0.002313424,0.003524268,2.988741e-07,0.0,0.0,0.0,0.0,0.0,0.0
6035000,5883000,4.858636e-05,2.5287902e-05,6.851001e-06,3.790585e-08,1.0294877e-07,1.9037698e-07,0.0,0.0,0.0,0.0,0.0,0.0,0.0,6.268189e-07,0.0,0.0,0.0,0.0,0.0,0.0008743598,0.68033653,2.738916,0.0022923397,0.008425204,1.1464795e-06,0.0,0.0,0.0,0.0,0.0,0.0
6043000,5891000,4.858636e-05,2.5287902e-05,6.851001e-06,3.790585e-08,1.0294877e-07,1.9037698e-07,0.0,0.0,0.0,0.0,0.0,0.0,0.0,6.268189e-07,0.0,0.0,0.0,0.0,0.0,0.0008743598,0.68033653,2.738916,0.0011013912,0.005230691,3.9767798e-07,0.0,0.0,0.0,0.0,0.0,0.0
6051000,5899000,4.858636e-05,2.5287902e-05,6.851001e-06,3.790585e-08,1.0294877e-07,1.9037698e-07,0.0,0.0,0.0,0.0,0.0,0.0,0.0,6.268189e-07,0.0,0.0,0.0,0.0,0.0,0.0008743598,0.68033653,2.738916,0.001615319,0.00023207524,8.15819e-08,0.0,0.0,0.0,0.0,0.0,0.0
6067000,5915000,4.858636e-05,2.5287902e-05,6.851001e-06,3.790585e-08,1.0294877e-07,1.9037698e-07,0.0,0.0,0.0,0.0,0.0,0.0,0.0,6.268189e-07,0.0,0.0,0.0,0.0,0.0,0.0008743598,0.68033653,2.738916,4.549406e-05,0.0032348589,3.067458e-07,0.0,0.0,0.0,0.0,0.0,0.0
6075000,5923000,4.858636e-05,2.5287902e-05,6.851001e-06,3.790585e-08,1.0294877e-07,1.9037698e-07,0.0,0.0,0.0,0.0,0.0,0.0,0.0,6.268189e-07,0.0,0.0,0.0,0.0,0.0,0.0008743598,0.68033653,2.738916,0.0005880246,0.004236508,6.3336324e-07,0.0,0.0,0.0,0.0,0.0,0.0
6083000,5931000,4.858636e-05,2.5287902e-05,6.851001e-06,3.790585e-08,1.0294877e-07,1.9037698e-07,0.0,0.0,0.0,0.0,0.0,0.0,0.0,6.268189e-07,0.0,0.0,0.0,0.0,0.0,0.0008743598,0.68033653,2.738916,0.0020238822,0.0056673572,1.2717521e-06,0.0,0.0,0.0,0.0,0.0,0.0
6091000,5939000,4.858636e-05,2.5287902e-05,6.851001e-06,3.790585e-08,1.0294877e-07,1.9037698e-07,0.0,0.0,0.0,0.0,0.0,0.0,0.0,4.68206e-06,0.0,0.0,0.0,0.0,0.0,0.0008339637,0.7117514,2.7383542,3.711576e-05,4.0085248e-05,1.9787194e-10,0.0,0.0,0.0,0.0,0.0,0.0
6107000,5955000,4.858636e-05,2.5287902e-05,6.851001e-06,3.790585e-08,1.0294877e-07,1.9037698e-07,0.0,0.0,0.0,0.0,0.0,0.0,0.0,4.68206e-06,0.0,0.0,0.0,0.0,0.0,0.0008339637,0.7117514,2.7383542,0.0047576064,0.004623218,8.0619634e-07,0.0,0.0,0.0,0.0,0.0,0.0
6115000,5963000,4.858636e-05,2.5287902e-05,6.851001e-06,3.790585e-08,1.0294877e-07,1.9037698e-07,0.0,0.0,0.0,0.0,0.0,0.0,0.0,4.68206e-06,0.0,0.0,0.0,0.0,0.0,0.0008339637,0.7117514,2.7383542,0.0025137395,0.0036081192,2.6496315e-07,0.0,0.0,0.0,0.0,0.0,0.0
6123000,5971000,4.858636e-05,2.5287902e-05,6.851001e-06,3.790585e-08,1.0294877e-07,1.9037698e-07,0.0,0.0,0.0,0.0,0.0,0.0,0.0,4.68206e-06,0.0,0.0,0.0,0.0,0.0,0.0008339637,0.7117514,2.7383542,6.9580274e-05,1.931841e-05,1.9787194e-10,0.0,0.0,0.0,0.0,0.0,0.0
6131000,5979000,4.858636e-05,2.5287902e-05,6.851001e-06,3.790585e-08,1.0294877e-07,1.9037698e-07,0.0,0.0,0.0,0.0,0.0,0.0,0.0,4.68206e-06,0.0,0.0,0.0,0.0,0.0,0.0008339637,0.7117514,2.7383542,0.002271776,0.0030112355,6.134101e-07,0.0,0.0,0.0,0.0,0.0,0.0
6147000,5995000,4.858636e-05,2.5287902e-05,6.851001e-06,3.790585e-08,1.0294877e-07,1.9037698e-07,0.0,0.0,0.0,0.0,0.0,0.0,0.0,4.68206e-06,0.0,0.0,0.0,0.0,0.0,0.0008339637,0.7117514,2.7383542,0.0050745187,2.3745682e-05,3.1498735e-07,0.0,0.0,0.0,0.0,0.0,0.0
6155000,6003000,4.858636e-05,2.5287902e-05,6.851001e-06,3.790585e-08,1.0294877e-07,1.9037698e-07,0.0,0.0,0.0,0.0,0.0,0.0,0.0,7.0698306e-08,0.0,0.0,0.0,0.0,0.0,0.0008339637,0.7117514,2.7383542,0.00047215712,0.00015144263,7.407891e-09,0.0,0.0,0.0,0.0,0.0,0.0
6163000,6011000,4.858636e-05,2.5287902e-05,6.851001e-06,3.790585e-08,1.0294877e-07,1.9037698e-07,0.0,0.0,0.0,0.0,0.0,0.0,0.0,7.0698306e-08,0.0,0.0,0.0,0.0,0.0,0.001821313,0.6987506,2.7028954,5.5041466e-05,0.0011915328,1.6043487e-09,0.0,0.0,0.0,0.0,0.0,0.0
6171000,6019000,4.858636e-05,2.5287902e-05,6.851001e-06,3.790585e-08,1.0294877e-07,1.9037698e-07,0.0,0.0,0.0,0.0,0.0,0.0,0.0,7.0698306e-08,0.0,0.0,0.0,0.0,0.0,0.001821313,0.6987506,2.7028954,0.0013685034,0.0032399066,4.5493158e-07,0.0,0.0,0.0,0.0,0.0,0.0
6187000,6035000,4.858636e-05,2.5287902e-05,6.851001e-06,3.790585e-08,1.0294877e-07,1.9037698e-07,0.0,0.0,0.0,0.0,0.0,0.0,0.0,7.0698306e-08,0.0,0.0,0.0,0.0,0.0,0.001821313,0.6987506,2.7028954,0.004929295,0.0034236982,1.2185467e-06,0.0,0.0,0.0,0.0,0.0,0.0
6195000,6043000,4.858636e-05,2.5287902e-05,6.851001e-06,3.790585e-08,1.0294877e-07,1.9037698e-07,0.0,0.0,0.0,0.0,0.0,0.0,0.0,7.0698306e-08,0.0,0.0,0.0,0.0,0.0,0.001821313,0.6987506,2.7028954,0.0014333561,0.00078048476,6.6917494e-08,0.0,0.0,0.0,0.0,0.0,0.0
6203000,6051000,4.858636e-05,2.5287902e-05,6.851001e-06,3.790585e-08,1.0294877e-07,1.9037698e-07,0.0,0.0,0.0,0.0,0.0,0.0,0.0,7.0698306e-08,0.0,0.0,0.0,0.0,0.0,0.001821313,0.6987506,2.7028954,0.0013855224,0.00019460486,8.7120725e-08,0.0,0.0,0.0,0.0,0.0,0.0
6211000,6059000,4.858636e-05,2.5287902e-05,6.851001e-06,3.790585e-08,1.0294877e-07,1.9037698e-07,0.0,0.0,0.0,0.0,0.0,0.0,0.0,3.4164855e-06,0.0,0.0,0.0,0.0,0.0,0.001821313,0.6987506,2.7028954,0.0117642395,5.0629867e-05,1.6520335e-06,0.0,0.0,0.0,0.0,0.0,0.0
6227000,6075000,4.858636e-05,2.5287902e-05,6.851001e-06,3.790585e-08,1.0294877e-07,1.9037698e-07,0.0,0.0,0.0,0.0,0.0,0.0,0.0,3.4164855e-06,0.0,0.0,0.0,0.0,0.0,0.001821313,0.6987506,2.7028954,4.3143435e-05,0.0010137296,3.3015226e-09,0.0,0.0,0.0,0.0,0.0,0.0
6235000,6083000,4.858636e-05,2.5287902e-05,6.851001e-06,3.790585e-08,1.0294877e-07,1.9037698e-07,0.0,0.0,0.0,0.0,0.0,0.0,0.0,3.4164855e-06,0.0,0.0,0.0,0.0,0.0,0.0012074895,0.6721257,2.7315824,0.0020234247,0.005634657,5.122731e-07,0.0,0.0,0.0,0.0,0.0,0.0
6243000,6091000,4.858636e-05,2.5287902e-05,6.851001e-06,3.790585e-08,1.0294877e-07,1.9037698e-07,0.0,0.0,0.0,0.0,0.0,0.0,0.0,3.4164855e-06,0.0,0.0,0.0,0.0,0.0,0.0012074895,0.6721257,2.7315824,2.411759e-05,0.003172634,6.6547955e-08,0.0,0.0,0.0,0.0,0.0,0.0
6251000,6099000,4.858636e-05,2.5287902e-05,6.851001e-06,3.790585e-08,1.0294877e-07,1.9037698e-07,0.0,0.0,0.0,0.0,0.0,0.0,0.0,3.4164855e-06,0.0,0.0,0.0,0.0,0.0,0.0012074895,0.6721257,2.7315824,0.001812715,0.000100348916,3.1889215e-08,0.0,0.0,0.0,0.0,0.0,0.0
6267000,6115000,4.858636e-05,2.5287902e-05,6.851001e-06,3.790585e-08,1.0294877e-07,1.9037698e-07,0.0,0.0,0.0,0.0,0.0,0.0,0.0,3.4164855e-06,0.0,0.0,0.0,0.0,0.0,0.0012074895,0.6721257,2.7315824,0.0034313765,0.00028370958,2.1970868e-07,0.0,0.0,0.0,0.0,0.0,0.0
6275000,6123000,4.858636e-05,2.5287902e-05,6.851001e-06,3.790585e-08,1.0294877e-07,1.9037698e-07,0.0,0.0,0.0,0.0,0.0,0.0,0.0,4.125608e-06,0.0,0.0,0.0,0.0,0.0,0.0012074895,0.6721257,2.7315824,2.8538748e-06,0.0050400104,2.2601148e-07,0.0,0.0,0.0,0.0,0.0,0.0
6283000,6131000,4.858636e-05,2.5287902e-05,6.851001e-06,3.790585e-08,1.0294877e-07,1.9037698e-07,0.0,0.0,0.0,0.0,0.0,0.0,0.0,4.125608e-06,0.0,0.0,0.0,0.0,0.0,0.0012074895,0.6721257,2.7315824,4.824888e-05,0.01417966,2.335588e-06,0.0,0.0,0.0,0.0,0.0,0.0
6291000,6139000,4.858636e-05,2.5287902e-05,6.851001e-06,3.790585e-08,1.0294877e-07,1.9037698e-07,0.0,0.0,0.0,0.0,0.0,0.0,0.0,4.125608e-06,0.0,0.0,0.0,0.0,0.0,0.0012074895,0.6721257,2.7315824,0.0036367243,0.007481463,1.6263925e-06,0.0,0.0,0.0,0.0,0.0,0.0
6307000,6155000,6.9110036e-05,0.00016320198,3.3494565e-05,1.4371175e-08,6.939949e-07,4.9697434e-07,0.0,0.0,0.0,0.0,0.0,0.0,0.0,4.125608e-06,0.0,0.0,0.0,0.0,0.0,0.0015718235,0.6977601,2.7070138,2.3412002e-05,0.010727076,2.3458015e-06,0.0,0.0,0.0,0.0,0.0,0.0
6315000,6163000,6.9110036e-05,0.00016320198,3.3494565e-05,1.4371175e-08,6.939949e-07,4.9697434e-07,0.0,0.0,0.0,0.0,0.0,0.0,0.0,4.125608e-06,0.0,0.0,0.0,0.0,0.0,0.0015718235,0.6977601,2.7070138,0.0009153812,0.0015068663,1.1429643e-07,0.0,0.0,0.0,0.0,0.0,0.0
6323000,6171000,6.9110036e-05,0.00016320198,3.3494565e-05,1.4371175e-08,6.939949e-07,4.9697434e-07,0.0,0.0,0.0,0.0,0.0,0.0,0.0,4.125608e-06,0.0,0.0,0.0,0.0,0.0,0.0015718235,0.6977601,2.7070138,0.0017751751,0.005715888,1.25674e-06,0.0,0.0,0.0,0.0,0.0,0.0
6331000,6179000,6.9110036e-05,0.00016320198,3.3494565e-05,1.4371175e-08,6.939949e-07,4.9697434e-07,0.0,0.0,0.0,0.0,0.0,0.0,0.0,4.125608e-06,0.0,0.0,0.0,0.0,0.0,0.0015718235,0.6977601,2.7070138,0.0034738854,0.0015033879,5.633128e-07,0.0,0.0,0.0,0.0,0.0,0.0
6347000,6195000,6.9110036e-05,0.00016320198,3.3494565e-05,1.4371175e-08,6.939949e-07,4.9697434e-07,0.0,0.0,0.0,0.0,0.0,0.0,0.0,1.518692e-07,0.0,0.0,0.0,0.0,0.0,0.0015718235,0.6977601,2.7070138,0.0013402071,0.0043308144,3.1098585e-07,0.0,0.0,0.0,0.0,0.0,0.0
6355000,6203000,6.9110036e-05,0.00016320198,3.3494565e-05,1.4371175e-08,6.939949e-07,4.9697434e-07,0.0,0.0,0.0,0.0,0.0,0.0,0.0,1.518692e-07,0.0,0.0,0.0,0.0,0.0,0.0015718235,0.6977601,2.7070138,0.0002595209,0.00943987,1.0989884e-06,0.0,0.0,0.0,0.0,0.0,0.0
6363000,6211000,6.9110036e-05,0.00016320198,3.3494565e-05,1.4371175e-08,6.939949e-07,4.9697434e-07,0.0,0.0,0.0,0.0,0.0,0.0,0.0,1.518692e-07,0.0,0.0,0.0,0.0,0.0,0.0015718235,0.6977601,2.7070138,0.0010428649,0.000107550346,1.9988931e-08,0.0,0.0,0.0,0.0,0.0,0.0
6371000,6219000,6.9110036e-05,0.00016320198,3.3494565e-05,1.4371175e-08,6.939949e-07,4.9697434e-07,0.0,0.0,0.0,0.0,0.0,0.0,0.0,1.518692e-07,0.0,0.0,0.0,0.0,0.0,0.0015718235,0.6977601,2.7070138,0.0003861306,9.200441e-05,2.9549483e-09,0.0,0.0,0.0,0.0,0.0,0.0
6387000,6235000,6.9110036e-05,0.00016320198,3.3494565e-05,1.4371175e-08,6.939949e-07,4.9697434e-07,0.0,0.0,0.0,0.0,0.0,0.0,0.0,1.518692e-07,0.0,0.0,0.0,0.0,0.0,0.0,0.0,0.0,0.0003714136,0.00044573768,4.7148205e-09,0.0,0.0,0.0,0.0,0.0,0.0
6395000,6243000,6.9110036e-05,0.00016320198,3.3494565e-05,1.4371175e-08,6.939949e-07,4.9697434e-07,0.0,0.0,0.0,0.0,0.0,0.0,0.0,1.518692e-07,0.0,0.0,0.0,0.0,0.0,0.0,0.0,0.0,2.4165502e-06,0.0001561047,5.684342e-12,0.0,0.0,0.0,0.0,0.0,0.0
6403000,6251000,6.9110036e-05,0.00016320198,3.3494565e-05,1.4371175e-08,6.939949e-07,4.9697434e-07,0.0,0.0,0.0,0.0,0.0,0.0,0.0,1.0839808e-05,0.0,0.0,0.0,0.0,0.0,0.0,0.0,0.0,0.0032195663,0.009024851,2.017137e-06,0.0,0.0,0.0,0.0,0.0,0.0
6411000,6259000,6.9110036e-05,0.00016320198,3.3494565e-05,1.4371175e-08,6.939949e-07,4.9697434e-07,0.0,0.0,0.0,0.0,0.0,0.0,0.0,1.0839808e-05,0.0,0.0,0.0,0.0,0.0,0.0,0.0,0.0,0.0049316976,0.0030241443,1.1768009e-06,0.0,0.0,0.0,0.0,0.0,0.0
6427000,6275000,6.9110036e-05,0.00016320198,3.3494565e-05,1.4371175e-08,6.939949e-07,4.9697434e-07,0.0,0.0,0.0,0.0,0.0,0.0,0.0,1.0839808e-05,0.0,0.0,0.0,0.0,0.0,0.0,0.0,0.0,0.0011365392,0.00029870213,2.6052987e-08,0.0,0.0,0.0,0.0,0.0,0.0
6435000,6283000,6.9110036e-05,0.00016320198,3.3494565e-05,1.4371175e-08,6.939949e-07,4.9697434e-07,0.0,0.0,0.0,0.0,0.0,0.0,0.0,1.0839808e-05,0.0,0.0,0.0,0.0,0.0,0.0,0.0,0.0,0.0008486586,0.00082355173,3.121164e-08,0.0,0.0,0.0,0.0,0.0,0.0
6443000,6291000,6.9110036e-05,0.00016320198,3.3494565e-05,1.4371175e-08,6.939949e-07,4.9697434e-07,0.0,0.0,0.0,0.0,0.0,0.0,0.0,1.0839808e-05,0.0,0.0,0.0,0.0,0.0,0.0,0.0,0.0,0.000920525,0.002879782,2.718803e-07,0.0,0.0,0.0,0.0,0.0,0.0
6451000,6299000,6.9110036e-05,0.00016320198,3.3494565e-05,1.4371175e-08,6.939949e-07,4.9697434e-07,0.0,0.0,0.0,0.0,0.0,0.0,0.0,1.0839808e-05,0.0,0.0,0.0,0.0,5.7958372e-05,2.5243735e-05,1.2486853e-05,5.7958372e-05,0.0070776646,0.0026912775,1.5589972e-06,0.0,0.0,0.0,0.0,0.0,0.0
6467000,6315000,6.9110036e-05,0.00016320198,3.3494565e-05,1.4371175e-08,6.939949e-07,4.9697434e-07,0.0,0.0,0.0,0.0,0.0,0.0,0.0,8.5184e-06,0.0,0.0,0.0,0.0,5.7958372e-05,2.5243735e-05,1.2486853e-05,5.7958372e-05,0.00145636,0.00011474306,3.6561914e-08,0.0,0.0,0.0,0.0,0.0,0.0
6475000,6323000,6.9110036e-05,0.00016320198,3.3494565e-05,1.4371175e-08,6.939949e-07,4.9697434e-07,0.0,0.0,0.0,0.0,0.0,0.0,0.0,8.5184e-06,0.0,0.0,0.0,0.0,5.7958372e-05,2.5243735e-05,1.2486853e-05,5.7958372e-05,5.988021e-06,0.0018908228,3.915943e-08,0.0,0.0,0.0,0.0,0.0,0.0
6483000,6331000,6.9110036e-05,0.00016320198,3.3494565e-05,1.4371175e-08,6.939949e-07,4.9697434e-07,0.0,0.0,0.0,0.0,0.0,0.0,0.0,8.5184e-06,0.0,0.0,0.0,0.0,5.7958372e-05,2.5243735e-05,1.2486853e-05,5.7958372e-05,0.0052144984,0.00084116525,6.8523514e-07,0.0,0.0,0.0,0.0,0.0,0.0
6491000,6339000,6.9110036e-05,0.00016320198,3.3494565e-05,1.4371175e-08,6.939949e-07,4.9697434e-07,0.0,0.0,0.0,0.0,0.0,0.0,0.0,8.5184e-06,0.0,0.0,0.0,0.0,5.7958372e-05,2.5243735e-05,1.2486853e-05,5.7958372e-05,0.001548381,7.030352e-05,4.3520743e-08,0.0,0.0,0.0,0.0,0.0,0.0
6507000,6355000,6.9110036e-05,0.00016320198,3.3494565e-05,1.4371175e-08,6.939949e-07,4.9697434e-07,0.0,0.0,0.0,0.0,0.0,0.0,0.0,8.5184e-06,0.0,0.0,0.0,0.0,5.7958372e-05,2.5243735e-05,1.2486853e-05,5.7958372e-05,0.00062738516,0.0005205394,2.551701e-08,0.0,0.0,0.0,0.0,0.0,0.0
6515000,6363000,6.9110036e-05,0.00016320198,3.3494565e-05,1.4371175e-08,6.939949e-07,4.9697434e-07,0.0,0.0,0.0,0.0,0.0,0.0,0.0,8.5184e-06,0.0,0.0,0.0,0.0,5.7958372e-05,2.5243735e-05,1.2486853e-05,5.7958372e-05,0.0002026095,1.42538365e-05,5.798597e-10,0.0,0.0,0.0,0.0,0.0,0.0
6523000,6371000,6.9110036e-05,0.00016320198,3.3494565e-05,1.4371175e-08,6.939949e-07,4.9697434e-07,0.0,0.0,0.0,0.0,0.0,0.0,0.0,8.5184e-06,0.0,0.0,0.0,0.0,0.00029947574,2.781196e-06,0.00029947574,2.6953621e-05,0.0012486497,0.0006931329,4.6350635e-08,0.0,0.0,0.0,0.0,0.0,0.0
6531000,6379000,6.9110036e-05,0.00016320198,3.3494565e-05,1.4371175e-08,6.939949e-07,4.9697434e-07,0.0,0.0,0.0,0.0,0.0,0.0,0.0,1.7144255e-09,0.0,0.0,0.0,0.0,0.00029947574,2.781196e-06,0.00029947574,2.6953621e-05,0.0036879547,8.4359766e-07,1.9182204e-07,0.0,0.0,0.0,0.0,0.0,0.0
6547000,6395000,6.9110036e-05,0.00016320198,3.3494565e-05,1.4371175e-08,6.939949e-07,4.9697434e-07,0.0,0.0,0.0,0.0,0.0,0.0,0.0,1.7144255e-09,0.0,0.0,0.0,0.0,0.00029947574,2.781196e-06,0.00029947574,2.6953621e-05,0.0036090494,0.001069132,2.8547225e-07,0.0,0.0,0.0,0.0,0.0,0.0
6555000,6403000,6.9110036e-05,0.00016320198,3.3494565e-05,1.4371175e-08,6.939949e-07,4.9697434e-07,0.0,0.0,0.0,0.0,0.0,0.0,0.0,1.7144255e-09,0.0,0.0,0.0,0.0,0.00029947574,2.781196e-06,0.00029947574,2.6953621e-05,1.7340584e-07,0.00011189771,5.4626526e-11,0.0,0.0,0.0,0.0,0.0,0.0
6563000,6411000,6.9110036e-05,0.00016320198,3.3494565e-05,1.4371175e-08,6.939949e-07,4.9697434e-07,0.0,0.0,0.0,0.0,0.0,0.0,0.0,1.7144255e-09,0.0,0.0,0.0,0.0,0.00029947574,2.781196e-06,0.00029947574,2.6953621e-05,5.5132034e-05,1.8180983e-05,1.6427748e-11,0.0,0.0,0.0,0.0,0.0,0.0
6571000,6419000,6.9110036e-05,0.00016320198,3.3494565e-05,1.4371175e-08,6.939949e-07,4.9697434e-07,0.0,0.0,0.0,0.0,0.0,0.0,0.0,1.7144255e-09,0.0,0.0,0.0,0.0,0.00029947574,2.781196e-06,0.00029947574,2.6953621e-05,0.0001983581,0.00026633524,3.961759e-09,0.0,0.0,0.0,0.0,0.0,0.0
6587000,6435000,6.9110036e-05,0.00016320198,3.3494565e-05,1.4371175e-08,6.939949e-07,4.9697434e-07,0.0,0.0,0.0,0.0,0.0,0.0,0.0,1.7144255e-09,0.0,0.0,0.0,0.0,0.00029947574,2.781196e-06,0.00029947574,2.6953621e-05,0.000988258,7.529679e-05,1.5607839e-08,0.0,0.0,0.0,0.0,0.0,0.0
6595000,6443000,6.9110036e-05,0.00016320198,3.3494565e-05,1.4371175e-08,6.939949e-07,4.9697434e-07,0.0,0.0,0.0,0.0,0.0,0.0,0.0,5.9223794e-07,0.0,0.0,0.0,0.0,0.00010804773,0.00010804773,4.3228723e-05,1.6058286e-07,0.00032115032,0.00013842035,3.5243488e-09,0.0,0.0,0.0,0.0,0.0,0.0
6603000,6451000,6.9110036e-05,0.00016320198,3.3494565e-05,1.4371175e-08,6.939949e-07,4.9697434e-07,0.0,0.0,0.0,0.0,0.0,0.0,0.0,5.9223794e-07,0.0,0.0,0.0,0.0,0.00010804773,0.00010804773,4.3228723e-05,1.6058286e-07,0.00046668047,0.0025628696,1.6196645e-07,0.0,0.0,0.0,0.0,0.0,0.0
6611000,6459000,6.9110036e-05,0.00016320198,3.3494565e-05,1.4371175e-08,6.939949e-07,4.9697434e-07,0.0,0.0,0.0,0.0,0.0,0.0,0.0,5.9223794e-07,0.0,0.0,0.0,0.0,0.00010804773,0.00010804773,4.3228723e-05,1.6058286e-07,0.0138194095,2.1151118e-05,3.0093006e-06,0.0,0.0,0.0,0.0,0.0,0.0
6627000,6475000,6.9110036e-05,0.00016320198,3.3494565e-05,1.4371175e-08,6.939949e-07,4.9697434e-07,0.0,0.0,0.0,0.0,0.0,0.0,0.0,5.9223794e-07,0.0,0.0,0.0,0.0,0.00010804773,0.00010804773,4.3228723e-05,1.6058286e-07,0.014803426,0.0002275414,3.7074287e-06,0.0,0.0,0.0,0.0,0.0,0.0
6635000,6483000,6.9110036e-05,0.00016320198,3.3494565e-05,1.4371175e-08,6.939949e-07,4.9697434e-07,0.0,0.0,0.0,0.0,0.0,0.0,0.0,5.9223794e-07,0.0,0.0,0.0,0.0,0.00010804773,0.00010804773,4.3228723e-05,1.6058286e-07,8.875745e-05,5.3528816e-05,3.6379788e-10,0.0,0.0,0.0,0.0,0.0,0.0
6643000,6491000,6.9110036e-05,0.00016320198,3.3494565e-05,1.4371175e-08,6.939949e-07,4.9697434e-07,0.0,0.0,0.0,0.0,0.0,0.0,0.0,5.9223794e-07,0.0,0.0,0.0,0.0,0.00010804773,0.00010804773,4.3228723e-05,1.6058286e-07,0.0005982711,0.0026021907,1.3133103e-07,0.0,0.0,0.0,0.0,0.0,0.0
6651000,6499000,6.9110036e-05,0.00016320198,3.3494565e-05,1.4371175e-08,6.939949e-07,4.9697434e-07,0.0,0.0,0.0,0.0,0.0,0.0,0.0,5.9223794e-07,0.0,0.0,0.0,0.0,0.00010804773,0.00010804773,4.3228723e-05,1.6058286e-07,0.00016079537,0.0037245373,2.165907e-07,0.0,0.0,0.0,0.0,0.0,0.0
6667000,6515000,6.9110036e-05,0.00016320198,3.3494565e-05,1.4371175e-08,6.939949e-07,4.9697434e-07,0.0,0.0,0.0,0.0,0.0,0.0,0.0,3.564375e-06,0.0,0.0,0.0,0.0,0.0004468221,0.00020086922,1.0990129e-07,0.0004468221,0.0009990328,0.00066192297,5.798597e-08,0.0,0.0,0.0,0.0,0.0,0.0
6675000,6523000,6.9110036e-05,0.00016320198,3.3494565e-05,1.4371175e-08,6.939949e-07,4.9697434e-07,0.0,0.0,0.0,0.0,0.0,0.0,0.0,3.564375e-06,0.0,0.0,0.0,0.0,0.0004468221,0.00020086922,1.0990129e-07,0.0004468221,0.0021026593,0.0029196395,3.7165643e-07,0.0,0.0,0.0,0.0,0.0,0.0
6683000,6531000,6.9110036e-05,0.00016320198,3.3494565e-05,1.4371175e-08,6.939949e-07,4.9697434e-07,0.0,0.0,0.0,0.0,0.0,0.0,0.0,3.564375e-06,0.0,0.0,0.0,0.0,0.0004468221,0.00020086922,1.0990129e-07,0.0004468221,0.0013325141,0.001093955,8.144576e-08,0.0,0.0,0.0,0.0,0.0,0.0
6691000,6539000,6.9110036e-05,0.00016320198,3.3494565e-05,1.4371175e-08,6.939949e-07,4.9697434e-07,0.0,0.0,0.0,0.0,0.0,0.0,0.0,3.564375e-06,0.0,0.0,0.0,0.0,0.0004468221,0.00020086922,1.0990129e-07,0.0004468221,0.0011933409,0.0023981214,1.9015494e-07,0.0,0.0,0.0,0.0,0.0,0.0
6707000,6555000,2.9603698e-05,4.4430515e-05,0.00017143288,4.5324688e-07,2.8044462e-06,1.1795568e-06,0.0,0.0,0.0,0.0,0.0,0.0,0.0,3.564375e-06,0.0,0.0,0.0,0.0,0.0004468221,0.00020086922,1.0990129e-07,0.0004468221,2.868436e-05,0.0003577423,2.7512215e-09,0.0,0.0,0.0,0.0,0.0,0.0
6715000,6563000,2.9603698e-05,4.4430515e-05,0.00017143288,4.5324688e-07,2.8044462e-06,1.1795568e-06,0.0,0.0,0.0,0.0,0.0,0.0,0.0,1.3463438e-05,0.0,0.0,0.0,0.0,0.0004468221,0.00020086922,1.0990129e-07,0.0004468221,0.00089898705,6.5954764e-06,2.0191692e-08,0.0,0.0,0.0,0.0,0.0,0.0
6723000,6571000,2.9603698e-05,4.4430515e-05,0.00017143288,4.5324688e-07,2.8044462e-06,1.1795568e-06,0.0,0.0,0.0,0.0,0.0,0.0,0.0,1.3463438e-05,0.0,0.0,0.0,0.0,0.0004468221,0.00020086922,1.0990129e-07,0.0004468221,0.00016609498,0.003072958,1.4661259e-07,0.0,0.0,0.0,0.0,0.0,0.0
6731000,6579000,2.9603698e-05,4.4430515e-05,0.00017143288,4.5324688e-07,2.8044462e-06,1.1795568e-06,0.0,0.0,0.0,0.0,0.0,0.0,0.0,1.3463438e-05,0.0,0.0,0.0,0.0,0.0004468221,0.00020086922,1.0990129e-07,0.0004468221,0.0016711348,0.00018282248,3.6470794e-08,0.0,0.0,0.0,0.0,0.0,0.0
6747000,6595000,2.9603698e-05,4.4430515e-05,0.00017143288,4.5324688e-07,2.8044462e-06,1.1795568e-06,0.0,0.0,0.0,0.0,0.0,0.0,0.0,1.3463438e-05,0.0,0.0,0.0,0.0,0.00023877503,5.5522623e-06,0.00023877503,1.0737006e-06,0.012092929,0.00054680137,2.2389586e-06,0.0,0.0,0.0,0.0,0.0,0.0
6755000,6603000,2.9603698e-05,4.4430515e-05,0.00017143288,4.5324688e-07,2.8044462e-06,1.1795568e-06,0.0,0.0,0.0,0.0,0.0,0.0,0.0,1.3463438e-05,0.0,0.0,0.0,0.0,0.00023877503,5.5522623e-06,0.00023877503,1.0737006e-06,0.00011225608,0.0032224818,1.8704873e-07,0.0,0.0,0.0,0.0,0.0,0.0
6763000,6611000,2.9603698e-05,4.4430515e-05,0.00017143288,4.5324688e-07,2.8044462e-06,1.1795568e-06,0.0,0.0,0.0,0.0,0.0,0.0,0.0,1.3463438e-05,0.0,0.0,0.0,0.0,0.00023877503,5.5522623e-06,0.00023877503,1.0737006e-06,6.671389e-05,0.0031286518,1.8152201e-07,0.0,0.0,0.0,0.0,0.0,0.0
6771000,6619000,2.9603698e-05,4.4430515e-05,0.00017143288,4.5324688e-07,2.8044462e-06,1.1795568e-06,0.0,0.0,0.0,0.0,0.0,0.0,0.0,1.3463438e-05,0.0,0.0,0.0,0.0,0.00023877503,5.5522623e-06,0.00023877503,1.0737006e-06,0.00034570714,0.0035435667,2.718803e-07,0.0,0.0,0.0,0.0,0.0,0.0
6787000,6635000,2.9603698e-05,4.4430515e-05,0.00017143288,4.5324688e-07,2.8044462e-06,1.1795568e-06,0.0,0.0,0.0,0.0,0.0,0.0,0.0,2.3157206e-06,0.0,0.0,0.0,0.0,0.00023877503,5.5522623e-06,0.00023877503,1.0737006e-06,0.002564944,0.0012000224,2.5571813e-07,0.0,0.0,0.0,0.0,0.0,0.0
6795000,6643000,2.9603698e-05,4.4430515e-05,0.00017143288,4.5324688e-07,2.8044462e-06,1.1795568e-06,0.0,0.0,0.0,0.0,0.0,0.0,0.0,2.3157206e-06,0.0,0.0,0.0,0.0,0.00023877503,5.5522623e-06,0.00023877503,1.0737006e-06,0.0012200933,0.0012735738,1.2000834e-07,0.0,0.0,0.0,0.0,0.0,0.0
6803000,6651000,2.9603698e-05,4.4430515e-05,0.00017143288,4.5324688e-07,2.8044462e-06,1.1795568e-06,0.0,0.0,0.0,0.0,0.0,0.0,0.0,2.3157206e-06,0.0,0.0,0.0,0.0,0.00023877503,5.5522623e-06,0.00023877503,1.0737006e-06,0.0009497876,0.00011459877,1.2396924e-08,0.0,0.0,0.0,0.0,0.0,0.0
6811000,6659000,2.9603698e-05,4.4430515e-05,0.00017143288,4.5324688e-07,2.8044462e-06,1.1795568e-06,0.0,0.0,0.0,0.0,0.0,0.0,0.0,2.3157206e-06,0.0,0.0,0.0,0.0,8.1448394e-05,8.1448394e-05,2.2293192e-05,1.5861806e-05,0.0046173953,0.0008318555,4.4025734e-07,0.0,0.0,0.0,0.0,0.0,0.0
6827000,6675000,2.9603698e-05,4.4430515e-05,0.00017143288,4.5324688e-07,2.8044462e-06,1.1795568e-06,0.0,0.0,0.0,0.0,0.0,0.0,0.0,2.3157206e-06,0.0,0.0,0.0,0.0,8.1448394e-05,8.1448394e-05,2.2293192e-05,1.5861806e-05,0.004613397,0.00040468283,3.0939242e-07,0.0,0.0,0.0,0.0,0.0,0.0
6835000,6683000,2.9603698e-05,4.4430515e-05,0.00017143288,4.5324688e-07,2.8044462e-06,1.1795568e-06,0.0,0.0,0.0,0.0,0.0,0.0,0.0,2.3157206e-06,0.0,0.0,0.0,0.0,8.1448394e-05,8.1448394e-05,2.2293192e-05,1.5861806e-05,0.004149574,6.0821985e-05,2.2487944e-07,0.0,0.0,0.0,0.0,0.0,0.0
6843000,6691000,2.9603698e-05,4.4430515e-05,0.00017143288,4.5324688e-07,2.8044462e-06,1.1795568e-06,0.0,0.0,0.0,0.0,0.0,0.0,0.0,1.947685e-06,0.0,0.0,0.0,0.0,8.1448394e-05,8.1448394e-05,2.2293192e-05,1.5861806e-05,0.0005540297,6.6419576e-05,2.7014266e-09,0.0,0.0,0.0,0.0,0.0,0.0
6851000,6699000,2.9603698e-05,4.4430515e-05,0.00017143288,4.5324688e-07,2.8044462e-06,1.1795568e-06,0.0,0.0,0.0,0.0,0.0,0.0,0.0,1.947685e-06,0.0,0.0,0.0,0.0,8.1448394e-05,8.1448394e-05,2.2293192e-05,1.5861806e-05,0.00027698942,0.00067276036,2.335588e-08,0.0,0.0,0.0,0.0,0.0,0.0
