timestamp,timestamp_sample,latitude_deg,longitude_deg,altitude_msl_m,altitude_ellipsoid_m,time_utc_usec,device_id,s_variance_m_s,c_variance_rad,eph,epv,hdop,vdop,noise_per_ms,jamming_indicator,vel_m_s,vel_n_m_s,vel_e_m_s,vel_d_m_s,cog_rad,timestamp_time_relative,heading,heading_offset,heading_accuracy,rtcm_injection_rate,automatic_gain_control,fix_type,jamming_state,spoofing_state,vel_ned_valid,satellites_used,selected_rtcm_instance,rtcm_crc_failed,rtcm_msg_used
4555000,0,47.3977508,8.5456074,488.05400000000003,488.05400000000003,1756384386504119,11468804,0.25,0.5,1.0,1.0,0.0,0.0,0,0,0.0,0.0,0.0,0.0,2.2403047,0,nan,nan,0.0,0.0,0,3,0,0,1,10,0,0,0
4955000,0,47.3977508,8.5456074,488.053,488.053,1756384386905119,0,0.25,0.5,1.0,1.0,0.0,0.0,0,0,0.0,0.0,0.0,-0.01,1.254019,0,nan,nan,0.0,0.0,0,3,0,0,1,10,0,0,0
5355000,0,47.3977508,8.5456074,488.05400000000003,488.05400000000003,1756384387305119,0,0.25,0.5,1.0,1.0,0.0,0.0,0,0,0.0,0.0,0.0,0.01,5.274908,0,nan,nan,0.0,0.0,0,3,0,0,1,10,0,0,0
5755000,0,47.3977508,8.5456074,488.05400000000003,488.05400000000003,1756384387704119,0,0.25,0.5,1.0,1.0,0.0,0.0,0,0,0.0,-0.01,0.0,0.0,3.1808624,0,nan,nan,0.0,0.0,0,3,0,0,1,10,0,0,0
6155000,0,47.3977508,8.5456074,488.053,488.053,1756384388104119,0,0.25,0.5,1.0,1.0,0.0,0.0,0,0,0.0,0.0,0.0,0.0,2.559176,0,nan,nan,0.0,0.0,0,3,0,0,1,10,0,0,0
6555000,0,47.3977508,8.5456074,488.053,488.053,1756384388504119,0,0.25,0.5,1.0,1.0,0.0,0.0,0,0,0.0,0.0,0.0,-0.02,0.99029976,0,nan,nan,0.0,0.0,0,3,0,0,1,10,0,0,0
6955000,0,47.3977508,8.5456074,488.05400000000003,488.05400000000003,1756384388905119,0,0.25,0.5,1.0,1.0,0.0,0.0,0,0,0.0,0.0,0.0,-0.02,0.99972457,0,nan,nan,0.0,0.0,0,3,0,0,1,10,0,0,0
7359000,0,47.3977508,8.5456074,488.05400000000003,488.05400000000003,1756384389305119,0,0.25,0.5,1.0,1.0,0.0,0.0,0,0,0.0,0.0,0.0,0.0,3.7276742,0,nan,nan,0.0,0.0,0,3,0,0,1,10,0,0,0
7755000,0,47.3977508,8.5456074,488.05400000000003,488.05400000000003,1756384389704119,0,0.25,0.5,1.0,1.0,0.0,0.0,0,0,0.0,0.0,0.0,-0.01,5.189213,0,nan,nan,0.0,0.0,0,3,0,0,1,10,0,0,0
8155000,0,47.3977508,8.5456074,488.053,488.053,1756384390104119,0,0.25,0.5,1.0,1.0,0.0,0.0,0,0,0.0,0.0,0.0,0.0,3.9180894,0,nan,nan,0.0,0.0,0,3,0,0,1,10,0,0,0
8555000,0,47.3977508,8.5456074,488.053,488.053,1756384390505119,0,0.25,0.5,1.0,1.0,0.0,0.0,0,0,0.0,0.0,0.0,0.02,4.6999974,0,nan,nan,0.0,0.0,0,3,0,0,1,10,0,0,0
8955000,0,47.3977508,8.5456074,488.053,488.053,1756384390904119,0,0.25,0.5,1.0,1.0,0.0,0.0,0,0,0.0,0.0,0.0,0.0,0.25743607,0,nan,nan,0.0,0.0,0,3,0,0,1,10,0,0,0
9355000,0,47.3977508,8.5456074,488.052,488.052,1756384391305119,0,0.25,0.5,1.0,1.0,0.0,0.0,0,0,0.0,0.0,0.0,-0.01,4.8141413,0,nan,nan,0.0,0.0,0,3,0,0,1,10,0,0,0
9755000,0,47.3977508,8.5456074,488.052,488.052,1756384391705119,0,0.25,0.5,1.0,1.0,0.0,0.0,0,0,0.0,0.0,0.0,0.0,4.69703,0,nan,nan,0.0,0.0,0,3,0,0,1,10,0,0,0
10155000,0,47.3977508,8.5456074,488.053,488.053,1756384392104119,0,0.25,0.5,1.0,1.0,0.0,0.0,0,0,0.0,0.0,0.0,0.01,1.4669491,0,nan,nan,0.0,0.0,0,3,0,0,1,10,0,0,0
10555000,0,47.3977508,8.5456074,488.05400000000003,488.05400000000003,1756384392505119,0,0.25,0.5,1.0,1.0,0.0,0.0,0,0,0.0,0.0,-0.01,0.0,4.9577823,0,nan,nan,0.0,0.0,0,3,0,0,1,10,0,0,0
10955000,0,47.3977508,8.5456074,488.05400000000003,488.05400000000003,1756384392904119,0,0.25,0.5,1.0,1.0,0.0,0.0,0,0,0.0,-0.01,0.0,0.0,2.948908,0,nan,nan,0.0,0.0,0,3,0,0,1,10,0,0,0
11355000,0,47.3977508,8.5456074,488.053,488.053,1756384393305119,0,0.25,0.5,1.0,1.0,0.0,0.0,0,0,0.0,0.0,0.0,0.0,2.15234,0,nan,nan,0.0,0.0,0,3,0,0,1,10,0,0,0
11755000,0,47.3977508,8.5456074,488.05400000000003,488.05400000000003,1756384393705119,0,0.25,0.5,1.0,1.0,0.0,0.0,0,0,0.0,0.0,0.0,-0.01,1.4463543,0,nan,nan,0.0,0.0,0,3,0,0,1,10,0,0,0
12155000,0,47.3977508,8.5456074,488.053,488.053,1756384394104119,0,0.25,0.5,1.0,1.0,0.0,0.0,0,0,0.0,0.0,0.0,0.0,2.530029,0,nan,nan,0.0,0.0,0,3,0,0,1,10,0,0,0
12555000,0,47.3977508,8.5456074,488.053,488.053,1756384394505119,0,0.25,0.5,1.0,1.0,0.0,0.0,0,0,0.0,0.0,-0.01,-0.01,4.231725,0,nan,nan,0.0,0.0,0,3,0,0,1,10,0,0,0
12955000,0,47.3977508,8.5456074,488.05400000000003,488.05400000000003,1756384394904119,0,0.25,0.5,1.0,1.0,0.0,0.0,0,0,0.0,0.0,0.0,0.01,1.8966492,0,nan,nan,0.0,0.0,0,3,0,0,1,10,0,0,0
13355000,0,47.3977508,8.5456074,488.053,488.053,1756384395305119,0,0.25,0.5,1.0,1.0,0.0,0.0,0,0,0.0,0.0,0.0,0.0,2.2514746,0,nan,nan,0.0,0.0,0,3,0,0,1,10,0,0,0
13755000,0,47.3977508,8.5456074,488.05400000000003,488.05400000000003,1756384395705119,0,0.25,0.5,1.0,1.0,0.0,0.0,0,0,0.0,0.0,0.0,0.0,0.43755403,0,nan,nan,0.0,0.0,0,3,0,0,1,10,0,0,0
14155000,0,47.3977508,8.5456074,488.055,488.055,1756384396104119,0,0.25,0.5,1.0,1.0,0.0,0.0,0,0,0.0,0.0,0.0,0.0,2.5007076,0,nan,nan,0.0,0.0,0,3,0,0,1,10,0,0,0
14555000,0,47.3977508,8.5456074,488.05400000000003,488.05400000000003,1756384396505119,0,0.25,0.5,1.0,1.0,0.0,0.0,0,0,0.0,0.0,0.0,-0.01,0.62465334,0,nan,nan,0.0,0.0,0,3,0,0,1,10,0,0,0
14959000,0,47.3977508,8.5456074,488.05400000000003,488.05400000000003,1756384396906119,0,0.25,0.5,1.0,1.0,0.0,0.0,0,0,0.0,0.0,0.01,-0.01,1.6613789,0,nan,nan,0.0,0.0,0,3,0,0,1,10,0,0,0
15359000,0,47.3977508,8.5456074,488.053,488.053,1756384397305119,0,0.25,0.5,1.0,1.0,0.0,0.0,0,0,0.0,0.0,0.0,0.0,3.9906952,0,nan,nan,0.0,0.0,0,3,0,0,1,10,0,0,0
15759000,0,47.3977508,8.5456074,488.05400000000003,488.05400000000003,1756384397706119,0,0.25,0.5,1.0,1.0,0.0,0.0,0,0,0.0,0.0,0.0,-0.02,2.195624,0,nan,nan,0.0,0.0,0,3,0,0,1,10,0,0,0
16159000,0,47.3977508,8.5456074,488.05400000000003,488.05400000000003,1756384398106119,0,0.25,0.5,1.0,1.0,0.0,0.0,0,0,0.0,0.0,0.0,0.0,0.5972516,0,nan,nan,0.0,0.0,0,3,0,0,1,10,0,0,0
16559000,0,47.3977508,8.5456074,488.052,488.052,1756384398506119,0,0.25,0.5,1.0,1.0,0.0,0.0,0,0,0.0,0.0,0.0,-0.01,2.7984607,0,nan,nan,0.0,0.0,0,3,0,0,1,10,0,0,0
16959000,0,47.3977508,8.5456074,488.055,488.055,1756384398905119,0,0.25,0.5,1.0,1.0,0.0,0.0,0,0,0.0,0.0,-0.01,0.0,4.5671773,0,nan,nan,0.0,0.0,0,3,0,0,1,10,0,0,0
17359000,0,47.3977508,8.5456074,488.053,488.053,1756384399305119,0,0.25,0.5,1.0,1.0,0.0,0.0,0,0,0.0,0.0,0.0,0.0,2.1034708,0,nan,nan,0.0,0.0,0,3,0,0,1,10,0,0,0
17759000,0,47.3977508,8.5456074,488.053,488.053,1756384399706119,0,0.25,0.5,1.0,1.0,0.0,0.0,0,0,0.0,0.0,0.0,0.0,1.3128366,0,nan,nan,0.0,0.0,0,3,0,0,1,10,0,0,0
17959000,0,47.3977508,8.5456074,488.053,488.053,1756384399909119,0,0.25,0.5,1.0,1.0,0.0,0.0,0,0,0.0,0.0,0.0,0.01,4.661076,0,nan,nan,0.0,0.0,0,3,0,0,1,10,0,0,0
18359000,0,47.3977508,8.5456074,488.05400000000003,488.05400000000003,1756384400308119,0,0.25,0.5,1.0,1.0,0.0,0.0,0,0,0.0,-0.01,0.0,0.0,3.6810737,0,nan,nan,0.0,0.0,0,3,0,0,1,10,0,0,0
18759000,0,47.3977508,8.5456074,488.05400000000003,488.05400000000003,1756384400708119,0,0.25,0.5,1.0,1.0,0.0,0.0,0,0,0.0,0.0,0.0,0.0,2.9728193,0,nan,nan,0.0,0.0,0,3,0,0,1,10,0,0,0
19159000,0,47.3977508,8.5456074,488.05400000000003,488.05400000000003,1756384401109119,0,0.25,0.5,1.0,1.0,0.0,0.0,0,0,0.0,0.0,0.0,0.01,2.6382396,0,nan,nan,0.0,0.0,0,3,0,0,1,10,0,0,0
19559000,0,47.3977508,8.5456074,488.053,488.053,1756384401509119,0,0.25,0.5,1.0,1.0,0.0,0.0,0,0,0.0,0.0,0.0,0.0,1.1185814,0,nan,nan,0.0,0.0,0,3,0,0,1,10,0,0,0
19959000,0,47.3977508,8.5456074,488.053,488.053,1756384401909119,0,0.25,0.5,1.0,1.0,0.0,0.0,0,0,0.0,0.0,0.0,0.0,2.476622,0,nan,nan,0.0,0.0,0,3,0,0,1,10,0,0,0
20359000,0,47.3977508,8.5456074,488.05400000000003,488.05400000000003,1756384402308119,0,0.25,0.5,1.0,1.0,0.0,0.0,0,0,0.0,0.0,0.0,-0.01,2.2245967,0,nan,nan,0.0,0.0,0,3,0,0,1,10,0,0,0
20759000,0,47.3977508,8.5456074,488.053,488.053,1756384402708119,0,0.25,0.5,1.0,1.0,0.0,0.0,0,0,0.0,-0.01,0.0,0.0,2.9487338,0,nan,nan,0.0,0.0,0,3,0,0,1,10,0,0,0
20963000,0,47.3977508,8.5456074,488.05400000000003,488.05400000000003,1756384402912119,0,0.25,0.5,1.0,1.0,0.0,0.0,0,0,0.0,0.0,0.0,0.0,5.6932635,0,nan,nan,0.0,0.0,0,3,0,0,1,10,0,0,0
21363000,0,47.3977508,8.5456074,488.053,488.053,1756384403311119,0,0.25,0.5,1.0,1.0,0.0,0.0,0,0,0.0,0.0,0.0,0.0,0.5305801,0,nan,nan,0.0,0.0,0,3,0,0,1,10,0,0,0
21763000,0,47.3977508,8.5456074,488.05400000000003,488.05400000000003,1756384403711119,0,0.25,0.5,1.0,1.0,0.0,0.0,0,0,0.0,0.0,0.0,0.0,1.1967722,0,nan,nan,0.0,0.0,0,3,0,0,1,10,0,0,0
22163000,0,47.3977508,8.5456074,488.052,488.052,1756384404111119,0,0.25,0.5,1.0,1.0,0.0,0.0,0,0,0.0,0.0,0.0,0.0,5.706528,0,nan,nan,0.0,0.0,0,3,0,0,1,10,0,0,0
22563000,0,47.3977508,8.5456074,488.05400000000003,488.05400000000003,1756384404512119,0,0.25,0.5,1.0,1.0,0.0,0.0,0,0,0.0,0.0,0.01,0.03,1.0295696,0,nan,nan,0.0,0.0,0,3,0,0,1,10,0,0,0
22963000,0,47.3977508,8.5456074,488.053,488.053,1756384404912119,0,0.25,0.5,1.0,1.0,0.0,0.0,0,0,0.0,0.0,-0.01,0.0,4.7184978,0,nan,nan,0.0,0.0,0,3,0,0,1,10,0,0,0
23363000,0,47.3977508,8.5456074,488.053,488.053,1756384405311119,0,0.25,0.5,1.0,1.0,0.0,0.0,0,0,0.0,0.01,0.01,0.0,0.7819075,0,nan,nan,0.0,0.0,0,3,0,0,1,10,0,0,0
23763000,0,47.3977508,8.5456074,488.05400000000003,488.05400000000003,1756384405711119,0,0.25,0.5,1.0,1.0,0.0,0.0,0,0,0.0,0.0,0.0,0.0,3.7693875,0,nan,nan,0.0,0.0,0,3,0,0,1,10,0,0,0
24163000,0,47.3977508,8.5456074,488.05400000000003,488.05400000000003,1756384406111119,0,0.25,0.5,1.0,1.0,0.0,0.0,0,0,0.0,0.0,0.0,0.0,3.2573078,0,nan,nan,0.0,0.0,0,3,0,0,1,10,0,0,0
24563000,0,47.3977508,8.5456074,488.05400000000003,488.05400000000003,1756384406512119,0,0.25,0.5,1.0,1.0,0.0,0.0,0,0,0.0,0.0,0.0,0.0,0.034382984,0,nan,nan,0.0,0.0,0,3,0,0,1,10,0,0,0
24963000,0,47.3977508,8.5456074,488.05400000000003,488.05400000000003,1756384406912119,0,0.25,0.5,1.0,1.0,0.0,0.0,0,0,0.0,0.0,0.0,0.01,1.113171,0,nan,nan,0.0,0.0,0,3,0,0,1,10,0,0,0
25363000,0,47.3977508,8.5456074,488.05400000000003,488.05400000000003,1756384407311119,0,0.25,0.5,1.0,1.0,0.0,0.0,0,0,0.0,0.0,0.01,-0.01,1.7090263,0,nan,nan,0.0,0.0,0,3,0,0,1,10,0,0,0
25763000,0,47.3977508,8.5456074,488.05400000000003,488.05400000000003,1756384407711119,0,0.25,0.5,1.0,1.0,0.0,0.0,0,0,0.0,0.0,0.0,0.0,5.673716,0,nan,nan,0.0,0.0,0,3,0,0,1,10,0,0,0
26163000,0,47.3977508,8.5456074,488.053,488.053,1756384408111119,0,0.25,0.5,1.0,1.0,0.0,0.0,0,0,0.0,-0.01,0.0,0.01,3.7926002,0,nan,nan,0.0,0.0,0,3,0,0,1,10,0,0,0
26563000,0,47.3977508,8.5456074,488.053,488.053,1756384408512119,0,0.25,0.5,1.0,1.0,0.0,0.0,0,0,0.0,0.0,0.0,0.0,3.7758453,0,nan,nan,0.0,0.0,0,3,0,0,1,10,0,0,0
26963000,0,47.3977508,8.5456074,488.053,488.053,1756384408912119,0,0.25,0.5,1.0,1.0,0.0,0.0,0,0,0.0,0.0,0.0,0.0,5.7548738,0,nan,nan,0.0,0.0,0,3,0,0,1,10,0,0,0
27363000,0,47.3977508,8.5456074,488.05400000000003,488.05400000000003,1756384409311119,0,0.25,0.5,1.0,1.0,0.0,0.0,0,0,0.0,0.0,0.0,0.01,3.9420006,0,nan,nan,0.0,0.0,0,3,0,0,1,10,0,0,0
27763000,0,47.3977508,8.5456074,488.053,488.053,1756384409711119,0,0.25,0.5,1.0,1.0,0.0,0.0,0,0,0.0,0.0,0.0,-0.01,3.1894145,0,nan,nan,0.0,0.0,0,3,0,0,1,10,0,0,0
28163000,0,47.3977508,8.5456074,488.053,488.053,1756384410111119,0,0.25,0.5,1.0,1.0,0.0,0.0,0,0,0.0,0.0,0.0,0.0,1.1044443,0,nan,nan,0.0,0.0,0,3,0,0,1,10,0,0,0
28563000,0,47.3977508,8.5456074,488.05400000000003,488.05400000000003,1756384410512119,0,0.25,0.5,1.0,1.0,0.0,0.0,0,0,0.0,0.0,0.0,-0.02,2.4244368,0,nan,nan,0.0,0.0,0,3,0,0,1,10,0,0,0
28963000,0,47.3977508,8.5456074,488.053,488.053,1756384410912119,0,0.25,0.5,1.0,1.0,0.0,0.0,0,0,0.0,0.0,0.0,0.0,4.432613,0,nan,nan,0.0,0.0,0,3,0,0,1,10,0,0,0
29363000,0,47.3977508,8.5456074,488.053,488.053,1756384411311119,0,0.25,0.5,1.0,1.0,0.0,0.0,0,0,0.0,0.0,0.0,0.01,3.136531,0,nan,nan,0.0,0.0,0,3,0,0,1,10,0,0,0
29763000,0,47.3977508,8.5456074,488.053,488.053,1756384411711119,0,0.25,0.5,1.0,1.0,0.0,0.0,0,0,0.0,0.0,0.0,-0.01,5.6620226,0,nan,nan,0.0,0.0,0,3,0,0,1,10,0,0,0
30163000,0,47.3977508,8.5456074,488.053,488.053,1756384412111119,0,0.25,0.5,1.0,1.0,0.0,0.0,0,0,0.0,0.0,0.01,-0.02,1.4859734,0,nan,nan,0.0,0.0,0,3,0,0,1,10,0,0,0
30563000,0,47.3977508,8.5456074,488.05400000000003,488.05400000000003,1756384412512119,0,0.25,0.5,1.0,1.0,0.0,0.0,0,0,0.0,0.0,0.0,0.01,4.5809655,0,nan,nan,0.0,0.0,0,3,0,0,1,10,0,0,0
30963000,0,47.3977508,8.5456074,488.05400000000003,488.05400000000003,1756384412912119,0,0.25,0.5,1.0,1.0,0.0,0.0,0,0,0.0,0.0,0.0,0.0,0.7614871,0,nan,nan,0.0,0.0,0,3,0,0,1,10,0,0,0
31363000,0,47.3977508,8.5456074,488.05400000000003,488.05400000000003,1756384413311119,0,0.25,0.5,1.0,1.0,0.0,0.0,0,0,0.0,0.0,0.0,-0.01,3.721042,0,nan,nan,0.0,0.0,0,3,0,0,1,10,0,0,0
31763000,0,47.3977508,8.5456074,488.05400000000003,488.05400000000003,1756384413711119,0,0.25,0.5,1.0,1.0,0.0,0.0,0,0,0.0,0.0,0.0,-0.03,5.460088,0,nan,nan,0.0,0.0,0,3,0,0,1,10,0,0,0
32163000,0,47.3977508,8.5456074,488.053,488.053,1756384414112119,0,0.25,0.5,1.0,1.0,0.0,0.0,0,0,0.0,0.0,0.0,0.0,1.1657054,0,nan,nan,0.0,0.0,0,3,0,0,1,10,0,0,0
32563000,0,47.3977508,8.5456074,488.05400000000003,488.05400000000003,1756384414512119,0,0.25,0.5,1.0,1.0,0.0,0.0,0,0,0.0,0.0,0.0,0.0,5.90759,0,nan,nan,0.0,0.0,0,3,0,0,1,10,0,0,0
32963000,0,47.3977508,8.5456074,488.05400000000003,488.05400000000003,1756384414911119,0,0.25,0.5,1.0,1.0,0.0,0.0,0,0,0.0,0.0,0.0,0.0,2.4169319,0,nan,nan,0.0,0.0,0,3,0,0,1,10,0,0,0
33363000,0,47.3977508,8.5456074,488.055,488.055,1756384415312119,0,0.25,0.5,1.0,1.0,0.0,0.0,0,0,0.0,0.0,0.01,0.0,1.8811158,0,nan,nan,0.0,0.0,0,3,0,0,1,10,0,0,0
33763000,0,47.3977508,8.5456074,488.053,488.053,1756384415711119,0,0.25,0.5,1.0,1.0,0.0,0.0,0,0,0.0,0.0,0.0,0.0,2.561096,0,nan,nan,0.0,0.0,0,3,0,0,1,10,0,0,0
34163000,0,47.3977508,8.5456074,488.053,488.053,1756384416112119,0,0.25,0.5,1.0,1.0,0.0,0.0,0,0,0.0,0.0,0.0,-0.01,4.1966443,0,nan,nan,0.0,0.0,0,3,0,0,1,10,0,0,0
34563000,0,47.3977508,8.5456074,488.053,488.053,1756384416512119,0,0.25,0.5,1.0,1.0,0.0,0.0,0,0,0.0,0.0,0.0,0.0,2.0823522,0,nan,nan,0.0,0.0,0,3,0,0,1,10,0,0,0
34963000,0,47.3977508,8.5456074,488.055,488.055,1756384416911119,0,0.25,0.5,1.0,1.0,0.0,0.0,0,0,0.0,0.0,0.0,-0.02,4.306425,0,nan,nan,0.0,0.0,0,3,0,0,1,10,0,0,0
35363000,0,47.3977508,8.5456074,488.053,488.053,1756384417312119,0,0.25,0.5,1.0,1.0,0.0,0.0,0,0,0.0,0.0,0.01,-0.01,1.1732104,0,nan,nan,0.0,0.0,0,3,0,0,1,10,0,0,0
35763000,0,47.3977508,8.5456074,488.053,488.053,1756384417711119,0,0.25,0.5,1.0,1.0,0.0,0.0,0,0,0.0,0.0,0.0,0.0,4.5587997,0,nan,nan,0.0,0.0,0,3,0,0,1,10,0,0,0
36163000,0,47.3977508,8.5456074,488.055,488.055,1756384418112119,0,0.25,0.5,1.0,1.0,0.0,0.0,0,0,0.0,0.0,0.01,0.0,1.5741123,0,nan,nan,0.0,0.0,0,3,0,0,1,10,0,0,0
36563000,0,47.3977508,8.5456074,488.053,488.053,1756384418512119,0,0.25,0.5,1.0,1.0,0.0,0.0,0,0,0.0,-0.01,0.0,0.0,3.8922586,0,nan,nan,0.0,0.0,0,3,0,0,1,10,0,0,0
36963000,0,47.3977508,8.5456074,488.05400000000003,488.05400000000003,1756384418911119,0,0.25,0.5,1.0,1.0,0.0,0.0,0,0,0.0,0.0,0.0,0.0,1.6920966,0,nan,nan,0.0,0.0,0,3,0,0,1,10,0,0,0
37363000,0,47.3977508,8.5456074,488.05400000000003,488.05400000000003,1756384419312119,0,0.25,0.5,1.0,1.0,0.0,0.0,0,0,0.0,0.0,0.0,0.01,2.7776914,0,nan,nan,0.0,0.0,0,3,0,0,1,10,0,0,0
37763000,0,47.3977508,8.5456074,488.053,488.053,1756384419711119,0,0.25,0.5,1.0,1.0,0.0,0.0,0,0,0.0,0.01,0.01,0.0,0.9176941,0,nan,nan,0.0,0.0,0,3,0,0,1,10,0,0,0
38163000,0,47.3977508,8.5456074,488.053,488.053,1756384420112119,0,0.25,0.5,1.0,1.0,0.0,0.0,0,0,0.0,0.0,0.0,0.01,4.0889573,0,nan,nan,0.0,0.0,0,3,0,0,1,10,0,0,0
38363000,0,47.3977508,8.5456074,488.05400000000003,488.05400000000003,1756384420313119,0,0.25,0.5,1.0,1.0,0.0,0.0,0,0,0.0,-0.01,0.0,0.0,3.3004174,0,nan,nan,0.0,0.0,0,3,0,0,1,10,0,0,0
38763000,0,47.3977508,8.5456074,488.05400000000003,488.05400000000003,1756384420713119,0,0.25,0.5,1.0,1.0,0.0,0.0,0,0,0.0,0.0,0.0,-0.01,1.7390461,0,nan,nan,0.0,0.0,0,3,0,0,1,10,0,0,0
39163000,0,47.3977508,8.5456074,488.05400000000003,488.05400000000003,1756384421112119,0,0.25,0.5,1.0,1.0,0.0,0.0,0,0,0.0,0.0,0.0,-0.01,0.33475414,0,nan,nan,0.0,0.0,0,3,0,0,1,10,0,0,0
39567000,0,47.3977508,8.5456074,488.05400000000003,488.05400000000003,1756384421513119,0,0.25,0.5,1.0,1.0,0.0,0.0,0,0,0.0,-0.01,0.0,0.0,3.2494538,0,nan,nan,0.0,0.0,0,3,0,0,1,10,0,0,0
39967000,0,47.3977508,8.5456074,488.053,488.053,1756384421912119,0,0.25,0.5,1.0,1.0,0.0,0.0,0,0,0.0,0.0,0.0,-0.01,6.0819488,0,nan,nan,0.0,0.0,0,3,0,0,1,10,0,0,0
40363000,0,47.3977508,8.5456074,488.053,488.053,1756384422313119,0,0.25,0.5,1.0,1.0,0.0,0.0,0,0,0.0,0.0,-0.01,0.0,4.854808,0,nan,nan,0.0,0.0,0,3,0,0,1,10,0,0,0
40763000,0,47.3977508,8.5456074,488.053,488.053,1756384422713119,0,0.25,0.5,1.0,1.0,0.0,0.0,0,0,0.0,0.0,0.0,0.01,4.0060544,0,nan,nan,0.0,0.0,0,3,0,0,1,10,0,0,0
41163000,0,47.3977508,8.5456074,488.055,488.055,1756384423112119,0,0.25,0.5,1.0,1.0,0.0,0.0,0,0,0.0,0.01,0.0,0.01,6.2217493,0,nan,nan,0.0,0.0,0,3,0,0,1,10,0,0,0
41563000,0,47.3977508,8.5456074,488.053,488.053,1756384423513119,0,0.25,0.5,1.0,1.0,0.0,0.0,0,0,0.0,0.0,0.0,0.0,4.9963536,0,nan,nan,0.0,0.0,0,3,0,0,1,10,0,0,0
41963000,0,47.3977508,8.5456074,488.05400000000003,488.05400000000003,1756384423912119,0,0.25,0.5,1.0,1.0,0.0,0.0,0,0,0.0,0.0,0.0,-0.03,1.6160003,0,nan,nan,0.0,0.0,0,3,0,0,1,10,0,0,0
42367000,0,47.3977508,8.5456074,488.055,488.055,1756384424313119,0,0.25,0.5,1.0,1.0,0.0,0.0,0,0,0.0,0.0,0.0,0.0,5.2256904,0,nan,nan,0.0,0.0,0,3,0,0,1,10,0,0,0
42767000,0,47.3977508,8.5456074,488.05400000000003,488.05400000000003,1756384424714119,0,0.25,0.5,1.0,1.0,0.0,0.0,0,0,0.0,0.0,0.0,0.01,6.0798545,0,nan,nan,0.0,0.0,0,3,0,0,1,10,0,0,0
43167000,0,47.3977508,8.5456074,488.05400000000003,488.05400000000003,1756384425113119,0,0.25,0.5,1.0,1.0,0.0,0.0,0,0,0.0,0.0,0.0,0.0,2.8461082,0,nan,nan,0.0,0.0,0,3,0,0,1,10,0,0,0
43567000,0,47.3977508,8.5456074,488.052,488.052,1756384425514119,0,0.25,0.5,1.0,1.0,0.0,0.0,0,0,0.0,0.0,0.0,0.01,2.764078,0,nan,nan,0.0,0.0,0,3,0,0,1,10,0,0,0
43967000,0,47.3977508,8.5456074,488.053,488.053,1756384425913119,0,0.25,0.5,1.0,1.0,0.0,0.0,0,0,0.0,0.0,0.0,0.0,4.7286205,0,nan,nan,0.0,0.0,0,3,0,0,1,10,0,0,0
44367000,0,47.3977508,8.5456074,488.053,488.053,1756384426313119,0,0.25,0.5,1.0,1.0,0.0,0.0,0,0,0.0,0.0,0.0,-0.01,0.13508847,0,nan,nan,0.0,0.0,0,3,0,0,1,10,0,0,0
44767000,0,47.3977508,8.5456074,488.05400000000003,488.05400000000003,1756384426714119,0,0.25,0.5,1.0,1.0,0.0,0.0,0,0,0.0,0.0,0.0,-0.02,4.642925,0,nan,nan,0.0,0.0,0,3,0,0,1,10,0,0,0
45167000,0,47.3977508,8.5456074,488.05400000000003,488.05400000000003,1756384427112119,0,0.25,0.5,1.0,1.0,0.0,0.0,0,0,0.0,0.0,0.0,0.01,1.7692401,0,nan,nan,0.0,0.0,0,3,0,0,1,10,0,0,0
45367000,0,47.3977508,8.5456074,488.05400000000003,488.05400000000003,1756384427313119,0,0.25,0.5,1.0,1.0,0.0,0.0,0,0,0.0,0.0,0.0,0.0,5.068087,0,nan,nan,0.0,0.0,0,3,0,0,1,10,0,0,0
45767000,0,47.3977508,8.5456074,488.052,488.052,1756384427714119,0,0.25,0.5,1.0,1.0,0.0,0.0,0,0,0.0,0.0,0.0,0.0,2.9064968,0,nan,nan,0.0,0.0,0,3,0,0,1,10,0,0,0
46167000,0,47.3977508,8.5456074,488.055,488.055,1756384428113119,0,0.25,0.5,1.0,1.0,0.0,0.0,0,0,0.0,0.0,0.0,0.0,0.4178318,0,nan,nan,0.0,0.0,0,3,0,0,1,10,0,0,0
46567000,0,47.3977508,8.5456074,488.053,488.053,1756384428514119,0,0.25,0.5,1.0,1.0,0.0,0.0,0,0,0.0,0.0,0.0,0.02,1.0061823,0,nan,nan,0.0,0.0,0,3,0,0,1,10,0,0,0
46967000,0,47.3977508,8.5456074,488.05400000000003,488.05400000000003,1756384428913119,0,0.25,0.5,1.0,1.0,0.0,0.0,0,0,0.0,0.0,0.0,0.0,4.340285,0,nan,nan,0.0,0.0,0,3,0,0,1,10,0,0,0
47367000,0,47.3977508,8.5456074,488.053,488.053,1756384429313119,0,0.25,0.5,1.0,1.0,0.0,0.0,0,0,0.0,0.0,0.0,0.0,3.859272,0,nan,nan,0.0,0.0,0,3,0,0,1,10,0,0,0
47767000,0,47.3977508,8.5456074,488.052,488.052,1756384429714119,0,0.25,0.5,1.0,1.0,0.0,0.0,0,0,0.0,0.0,0.01,0.0,1.9179423,0,nan,nan,0.0,0.0,0,3,0,0,1,10,0,0,0
48167000,0,47.3977508,8.5456074,488.05400000000003,488.05400000000003,1756384430113119,0,0.25,0.5,1.0,1.0,0.0,0.0,0,0,0.0,0.0,0.0,-0.01,2.5661576,0,nan,nan,0.0,0.0,0,3,0,0,1,10,0,0,0
48567000,0,47.3977508,8.5456074,488.055,488.055,1756384430514119,0,0.25,0.5,1.0,1.0,0.0,0.0,0,0,0.0,0.0,0.0,0.01,3.575656,0,nan,nan,0.0,0.0,0,3,0,0,1,10,0,0,0
48967000,0,47.3977508,8.5456074,488.05400000000003,488.05400000000003,1756384430913119,0,0.25,0.5,1.0,1.0,0.0,0.0,0,0,0.0,0.01,0.0,0.01,6.089628,0,nan,nan,0.0,0.0,0,3,0,0,1,10,0,0,0
49367000,0,47.3977508,8.5456074,488.05400000000003,488.05400000000003,1756384431313119,0,0.25,0.5,1.0,1.0,0.0,0.0,0,0,0.0,0.0,0.01,-0.02,1.8006562,0,nan,nan,0.0,0.0,0,3,0,0,1,10,0,0,0
49767000,0,47.3977508,8.5456074,488.053,488.053,1756384431714119,0,0.25,0.5,1.0,1.0,0.0,0.0,0,0,0.0,0.0,0.0,0.01,3.982143,0,nan,nan,0.0,0.0,0,3,0,0,1,10,0,0,0
50167000,0,47.3977508,8.5456074,488.053,488.053,1756384432113119,0,0.25,0.5,1.0,1.0,0.0,0.0,0,0,0.0,0.0,0.0,0.01,3.0377455,0,nan,nan,0.0,0.0,0,3,0,0,1,10,0,0,0
50567000,0,47.3977508,8.5456074,488.053,488.053,1756384432514119,0,0.25,0.5,1.0,1.0,0.0,0.0,0,0,0.0,0.0,-0.01,-0.01,3.994884,0,nan,nan,0.0,0.0,0,3,0,0,1,10,0,0,0
50967000,0,47.3977508,8.5456074,488.05400000000003,488.05400000000003,1756384432913119,0,0.25,0.5,1.0,1.0,0.0,0.0,0,0,0.0,0.01,0.0,0.0,5.752954,0,nan,nan,0.0,0.0,0,3,0,0,1,10,0,0,0
51363000,0,47.3977508,8.5456074,488.053,488.053,1756384433313119,0,0.25,0.5,1.0,1.0,0.0,0.0,0,0,0.0,0.0,0.0,0.02,3.1688197,0,nan,nan,0.0,0.0,0,3,0,0,1,10,0,0,0
51767000,0,47.3977508,8.5456074,488.053,488.053,1756384433716119,0,0.25,0.5,1.0,1.0,0.0,0.0,0,0,0.0,0.0,0.0,0.0,4.3455205,0,nan,nan,0.0,0.0,0,3,0,0,1,10,0,0,0
52167000,0,47.3977508,8.5456074,488.05400000000003,488.05400000000003,1756384434116119,0,0.25,0.5,1.0,1.0,0.0,0.0,0,0,0.0,0.0,0.01,0.02,1.0672688,0,nan,nan,0.0,0.0,0,3,0,0,1,10,0,0,0
52567000,0,47.3977508,8.5456074,488.053,488.053,1756384434515119,0,0.25,0.5,1.0,1.0,0.0,0.0,0,0,0.0,0.0,0.0,-0.02,3.1471775,0,nan,nan,0.0,0.0,0,3,0,0,1,10,0,0,0
52967000,0,47.3977508,8.5456074,488.053,488.053,1756384434916119,0,0.25,0.5,1.0,1.0,0.0,0.0,0,0,0.0,0.0,0.0,0.0,4.853411,0,nan,nan,0.0,0.0,0,3,0,0,1,10,0,0,0
53367000,0,47.3977508,8.5456074,488.053,488.053,1756384435315119,0,0.25,0.5,1.0,1.0,0.0,0.0,0,0,0.0,0.0,0.0,0.02,5.666386,0,nan,nan,0.0,0.0,0,3,0,0,1,10,0,0,0
53767000,0,47.3977508,8.5456074,488.053,488.053,1756384435716119,0,0.25,0.5,1.0,1.0,0.0,0.0,0,0,0.0,-0.01,0.0,0.0,2.8405232,0,nan,nan,0.0,0.0,0,3,0,0,1,10,0,0,0
54167000,0,47.3977508,8.5456074,488.053,488.053,1756384436116119,0,0.25,0.5,1.0,1.0,0.0,0.0,0,0,0.0,0.0,0.0,0.0,4.7310643,0,nan,nan,0.0,0.0,0,3,0,0,1,10,0,0,0
