timestamp,timestamp_sample,xyz[0],xyz[1],xyz[2]
4435000,4435000,0.13253237,-0.10897662,-9.838428
4439000,4439000,0.18117887,-0.077658206,-9.834097
4487000,4487000,0.008983599,-0.063711606,-9.840938
4531000,4531000,-0.09965944,-0.07403076,-9.766722
4587000,4587000,-0.06277077,0.193371,-9.833284
4635000,4635000,0.07015826,-0.10827716,-9.786491
4687000,4687000,0.014522548,-0.0026019271,-9.899456
4735000,4735000,0.022836255,-0.03741032,-9.793016
4787000,4787000,-0.038867626,-0.018355047,-9.969116
4835000,4835000,0.083974555,-0.0029379018,-9.884017
4887000,4887000,-0.058990832,-0.03408055,-9.778052
4935000,4935000,0.10040563,0.1322236,-9.758934
4987000,4987000,-0.03110842,-0.12107197,-9.851778
5035000,5035000,0.09363921,-0.07573073,-9.903107
5087000,5087000,0.019129965,0.039015345,-9.904417
5135000,5135000,0.09647697,0.08856691,-9.86782
5187000,5187000,-0.116993465,0.074069485,-9.952232
5235000,5235000,0.055028506,-0.03681893,-9.995949
5287000,5287000,-0.13875487,0.0748636,-9.907743
5335000,5335000,-0.044666335,0.19602011,-9.829241
5387000,5387000,-0.019636078,0.0104150195,-9.763333
5431000,5431000,0.09906749,-0.055530243,-9.583359
5487000,5487000,0.10143877,0.044852037,-9.856119
5535000,5535000,0.025248503,-0.053808823,-9.662126
5587000,5587000,0.003054848,-0.12730889,-9.845604
5635000,5635000,-0.2462259,-0.14898345,-9.739048
5687000,5687000,-0.00682153,0.0017750151,-9.876421
5735000,5735000,0.10821239,-0.117015176,-9.782729
5787000,5787000,-0.0006560795,-0.19691142,-9.736417
5835000,5835000,0.04835553,-0.06367886,-9.835981
5887000,5887000,-0.09134703,0.19383931,-9.825817
5935000,5935000,-0.073157005,-0.17876643,-9.7557125
5987000,5987000,-0.072904125,-0.094596766,-9.840557
6035000,6035000,-0.09575725,-0.19183435,-9.874061
6087000,6087000,-0.040593773,0.1432344,-9.656084
6135000,6135000,0.021545816,0.24600834,-9.709607
6187000,6187000,0.11513229,-0.096592024,-9.839928
6235000,6235000,-0.010284802,0.033269305,-9.773325
6287000,6287000,0.07442753,0.025042469,-9.883381
6335000,6335000,-0.14681931,-0.04020371,-9.911137
6387000,6387000,-0.10303804,-0.061019246,-9.7677555
6435000,6435000,-0.0560919,0.008200172,-9.957539
6487000,6487000,-0.020706069,-0.008563809,-9.749542
6535000,6535000,0.10032566,-0.099609464,-9.689205
6587000,6587000,0.110483155,0.1410326,-9.724504
6635000,6635000,-0.09980741,0.031592913,-9.766641
6687000,6687000,0.13867632,-0.0014612327,-9.822735
6731000,6731000,0.015366362,0.09870542,-9.750578
6787000,6787000,0.112178005,0.0024709615,-9.773164
6835000,6835000,0.023830475,0.12632798,-9.80572
6887000,6887000,0.115809724,0.0040418636,-9.839771
6935000,6935000,-0.17881371,0.10187228,-9.662386
6987000,6987000,-0.047374517,0.024280837,-9.811015
7031000,7031000,0.14331472,0.1280619,-9.999848
7087000,7087000,0.034448493,0.041569106,-9.847643
7135000,7135000,0.0035506748,-0.0013256347,-9.802792
7187000,7187000,0.002246797,0.013457824,-9.827661
7235000,7235000,-0.026472878,-0.014284532,-9.782266
7287000,7287000,0.051245138,0.078926146,-9.835621
7335000,7335000,0.007913463,0.059390232,-9.888525
7387000,7387000,-0.05744877,0.09430158,-9.986505
7435000,7435000,0.09788183,0.043019347,-9.724523
7487000,7487000,0.07231176,-0.22425207,-9.827837
7535000,7535000,-0.015673758,0.011810461,-9.885155
7587000,7587000,0.067454785,0.018536162,-9.802626
7635000,7635000,0.062494975,-0.14313658,-9.770271
7687000,7687000,0.19519597,-0.08115405,-9.82533
7735000,7735000,0.021285877,0.019404072,-9.707232
7787000,7787000,-0.011002911,0.041067667,-9.84059
7835000,7835000,0.03860031,0.08082973,-9.760544
7887000,7887000,-0.010332666,-0.08832571,-9.855936
7935000,7935000,0.13881549,0.04347194,-9.879946
7987000,7987000,-0.14988789,0.011243647,-9.74876
8035000,8035000,-0.021784063,-0.07149293,-9.822914
8087000,8087000,-0.12127745,-0.138485,-9.813692
8135000,8135000,0.06815081,-0.040006243,-9.733076
8187000,8187000,-0.01918558,0.055567045,-9.769703
8235000,8235000,0.26663634,-0.21482897,-9.683237
8287000,8287000,0.23903628,-0.02642396,-9.817043
8335000,8335000,0.06791728,-0.12865114,-9.751413
8383000,8383000,0.025305547,0.044757973,-9.7188835
8435000,8435000,0.010545426,-0.061082236,-9.807371
8487000,8487000,0.13622934,0.1937577,-9.903086
8535000,8535000,0.045041557,-0.13074814,-9.770442
8587000,8587000,-0.10201754,0.06590895,-9.843159
8635000,8635000,-0.06537507,-0.060138002,-9.945455
8687000,8687000,-0.23788644,-0.053976648,-9.756985
8735000,8735000,-0.047313157,-0.0402435,-9.840057
8787000,8787000,-0.053127185,0.02149646,-9.792321
8835000,8835000,-0.07558696,0.026736232,-10.033645
8887000,8887000,0.09141253,-0.044838663,-9.915787
8935000,8935000,0.025354106,0.06789771,-9.613052
8987000,8987000,-0.039698817,-0.047599185,-9.80362
9035000,9035000,0.064481914,0.05365564,-9.722988
9087000,9087000,0.041750435,-0.024566486,-9.606111
9135000,9135000,0.04368813,-0.06413025,-9.909693
9187000,9187000,-0.073166974,0.019518843,-9.6213665
9235000,9235000,-0.078579314,-0.07622558,-9.729524
9287000,9287000,0.095032305,0.09909387,-10.03443
9335000,9335000,-0.067459956,-0.01691172,-9.725981
9387000,9387000,-0.09271951,0.04798598,-9.84145
9435000,9435000,-0.14711094,0.031630885,-9.827945
9487000,9487000,0.024103839,-0.065525845,-9.799551
9531000,9531000,0.017963354,0.14142986,-9.899227
9587000,9587000,0.11016078,-0.025142236,-9.755692
9635000,9635000,-0.049748566,0.16750059,-9.8107395
9687000,9687000,-0.08950158,-0.09643974,-9.648081
9735000,9735000,0.021188619,-0.038183063,-9.745669
9787000,9787000,-0.110177696,0.0791497,-9.651662
9835000,9835000,-0.29517978,-0.057197876,-9.8354645
9887000,9887000,-0.088194296,0.0048239445,-9.743214
9935000,9935000,-0.14791995,-0.008244487,-9.847145
9987000,9987000,0.021189608,0.016947765,-9.858805
10035000,10035000,-0.16050391,0.14418982,-9.869417
10087000,10087000,0.013948856,0.08762942,-9.870809
10135000,10135000,0.042861942,-0.04566347,-9.848878
10183000,10183000,0.04413849,-0.062009733,-9.814001
10235000,10235000,-0.041303284,-0.07327176,-10.008257
10287000,10287000,0.033889584,-0.0880757,-9.652207
10335000,10335000,-0.093816675,-0.059822433,-9.900158
10387000,10387000,-0.13093096,0.10223478,-9.771093
10435000,10435000,0.053714056,-0.030444566,-9.673487
10487000,10487000,0.099683054,0.13703753,-9.686666
10531000,10531000,0.025240377,0.049389504,-9.774672
10587000,10587000,-0.02648833,-0.060081203,-9.852771
10635000,10635000,0.043866884,-0.08375318,-9.625564
10687000,10687000,-0.027899873,-0.080430314,-9.905895
10735000,10735000,-0.09241502,0.055888377,-9.981307
10787000,10787000,-0.14892684,0.06782445,-9.803461
10835000,10835000,-0.044573687,0.121509664,-9.734621
10887000,10887000,0.16094083,0.18405066,-9.771091
10931000,10931000,-0.049254894,-0.026983546,-9.97737
10987000,10987000,0.059963897,-0.16559523,-9.797799
11035000,11035000,-0.18098849,-0.000531666,-9.821747
11087000,11087000,0.08156027,0.029546546,-9.83054
11135000,11135000,-0.15626779,-0.0577806,-9.846184
11187000,11187000,0.04311998,0.050571848,-9.81592
11235000,11235000,-0.1273843,-0.12315494,-9.9294615
11287000,11287000,-0.053207137,-0.029181402,-9.864438
11331000,11331000,-0.01397036,-0.115730986,-10.0826025
11387000,11387000,0.14459258,0.042573787,-9.825317
11435000,11435000,-0.014978151,-0.01309404,-9.659533
11487000,11487000,-0.048009112,0.0027500112,-9.897848
11535000,11535000,-0.20152509,-0.009343966,-9.770213
11587000,11587000,-0.04354226,0.055253707,-9.890445
11635000,11635000,-0.09465733,-0.05284228,-9.74476
11687000,11687000,0.113018945,0.02385958,-10.050135
11735000,11735000,-0.07900128,-0.007907689,-9.754394
11787000,11787000,-0.014608642,0.021383546,-9.793804
11835000,11835000,-0.18530123,0.058091912,-9.897898
11887000,11887000,-0.18905216,0.06459177,-9.833412
11935000,11935000,-0.02115849,0.064485475,-9.773237
11987000,11987000,-0.084718816,-0.040073045,-9.799805
12035000,12035000,-0.12143235,-0.30787012,-9.979382
12087000,12087000,0.056983978,0.14919187,-9.809532
12135000,12135000,0.0038242107,0.07055047,-9.7300005
12187000,12187000,0.087282285,-0.04465627,-9.737099
12235000,12235000,-0.050121818,0.21154878,-9.637745
12287000,12287000,-0.20674141,-0.044202566,-9.990083
12335000,12335000,0.1063798,0.0062041124,-9.751876
12387000,12387000,0.04269578,0.0070643444,-9.794819
12435000,12435000,-0.13387555,0.026804611,-9.767866
12487000,12487000,0.080823965,-0.0005088318,-9.65819
12535000,12535000,-0.009478037,-0.027278569,-9.9432125
12587000,12587000,0.09969489,-0.0222425,-9.989795
12635000,12635000,-0.11006793,-0.03244082,-9.921746
12687000,12687000,-0.14228427,0.070131406,-9.910436
12735000,12735000,-0.01322418,0.1504544,-9.773463
12787000,12787000,0.02100683,0.14893396,-9.854704
12835000,12835000,-0.09802121,0.06974084,-9.882043
12887000,12887000,-0.16563198,-0.06453754,-9.622351
12935000,12935000,0.02812938,-0.075065814,-9.950933
12987000,12987000,-0.04931039,-0.14488935,-9.813686
13035000,13035000,-0.11382251,0.1057529,-9.830498
13083000,13083000,-0.20021063,0.015882341,-9.821431
13135000,13135000,-0.007623269,0.118502975,-9.940797
13187000,13187000,-0.015003443,-0.03234591,-9.935091
13235000,13235000,0.010918458,-0.10626076,-9.663916
13283000,13283000,0.08665865,-0.2021679,-9.825352
13335000,13335000,-0.014732451,0.15097563,-9.686262
13387000,13387000,-0.1271821,0.03482192,-9.959904
13435000,13435000,-0.22851494,0.07385899,-9.83342
13487000,13487000,0.045844782,0.019477084,-9.899174
13535000,13535000,-0.054502696,0.008438285,-9.843821
13587000,13587000,-0.017078202,-0.0010462385,-10.0239525
13635000,13635000,0.039417066,0.056185488,-9.921987
13687000,13687000,0.0061266823,-0.04820825,-9.923932
13735000,13735000,-0.19099213,0.069636144,-9.821174
13787000,13787000,-0.010879671,0.24628893,-9.845425
13835000,13835000,-0.049819525,0.05866832,-9.795715
13887000,13887000,-0.07299576,0.10078806,-9.64476
13935000,13935000,-0.08577128,-0.0518475,-9.7642145
13987000,13987000,0.09091132,-0.024135496,-10.051258
14035000,14035000,0.20720255,-0.17505188,-9.976553
14087000,14087000,0.05722267,0.067502335,-9.738173
14135000,14135000,0.08355403,-0.09138304,-9.896458
14187000,14187000,-0.04432654,0.045875218,-9.767902
14235000,14235000,-0.04306397,-0.09916594,-9.92257
14287000,14287000,-0.03813488,0.067877576,-9.846872
14335000,14335000,0.14941998,-0.22637525,-9.771089
14387000,14387000,-0.058099106,-0.029662058,-9.857465
14435000,14435000,0.009234611,-0.022010256,-9.747052
14487000,14487000,-0.121671304,-0.007926898,-9.711889
14535000,14535000,-0.0065863854,0.070156045,-9.710722
14587000,14587000,-0.16805205,-0.24749333,-9.756334
14635000,14635000,-0.22115383,0.13235357,-9.901922
14687000,14687000,-0.052880343,-0.13895692,-9.842681
14735000,14735000,-0.01130796,0.039411433,-9.727518
14787000,14787000,-0.050974306,-0.0800023,-9.837252
14831000,14831000,0.025106333,-0.007252576,-9.814357
14887000,14887000,0.055988997,-0.07338824,-9.735739
14935000,14935000,-0.00056976266,0.042431995,-9.970345
14983000,14983000,-0.017253492,-0.04376822,-9.884367
15035000,15035000,-0.07635176,-0.19793725,-9.695745
15087000,15087000,-0.023819473,0.14575994,-9.999922
15135000,15135000,-0.009568142,0.011064996,-9.793262
15187000,15187000,-0.21213791,-0.018475097,-9.88662
15235000,15235000,0.015805691,0.016339876,-9.922049
15287000,15287000,-0.0073277177,-0.0008048974,-9.983566
15331000,15331000,-0.15898111,-0.11290071,-9.68614
15387000,15387000,0.03208022,0.12904799,-9.725096
15435000,15435000,-0.24424616,-0.03970293,-9.8148
15487000,15487000,-0.11448514,-0.04172327,-9.621993
15535000,15535000,0.0022411998,0.02342131,-9.942006
15587000,15587000,0.055611715,-0.04845669,-9.697115
15635000,15635000,0.017242707,-0.003302168,-9.761422
15687000,15687000,0.02780258,0.13564737,-9.909297
15735000,15735000,-0.033143204,0.02819759,-9.942085
15783000,15783000,0.062438972,0.15813872,-9.823525
15831000,15831000,0.1087106,0.065127455,-9.833346
15883000,15883000,0.0889878,0.013592708,-9.777246
15935000,15935000,-0.10531151,-0.053053547,-9.850723
15987000,15987000,-0.11721068,-0.0508846,-9.805744
16035000,16035000,0.055841476,-0.014924904,-9.886049
16083000,16083000,-0.079072386,0.034184393,-9.887884
16135000,16135000,0.01596973,0.0019676108,-9.845289
16187000,16187000,-0.018742258,0.0726752,-9.802183
16235000,16235000,-0.0010175072,0.037889007,-9.751354
16287000,16287000,0.0036029294,-0.015585732,-9.794557
16335000,16335000,0.10993937,-0.0625606,-9.813334
16387000,16387000,-0.08563842,0.028236594,-9.833427
16435000,16435000,-0.06059674,0.18688956,-9.962676
16487000,16487000,-0.02150594,-0.19967656,-9.978819
16535000,16535000,0.01719362,-0.10736891,-9.831279
16587000,16587000,-0.048658438,-0.10556068,-9.681996
16635000,16635000,-0.19781637,0.08418273,-9.735063
16687000,16687000,-0.08672227,0.04144062,-9.824973
16735000,16735000,0.1695841,0.10096092,-9.961667
16787000,16787000,-0.10331212,0.0131241605,-9.837019
16835000,16835000,0.03871808,0.09868109,-9.887441
16887000,16887000,-0.10362221,-0.010651307,-9.870775
16935000,16935000,0.089730226,0.071962655,-9.915539
16987000,16987000,-0.1727779,-0.2520327,-9.831188
17031000,17031000,-0.051325817,0.008162312,-9.892442
17087000,17087000,0.0053518433,0.16844843,-9.769178
17135000,17135000,-0.1996556,0.0935429,-9.904841
17187000,17187000,-0.09242864,-0.01784149,-9.819576
17235000,17235000,-0.0009242571,0.056725767,-9.716648
17283000,17283000,-0.028516999,0.09988443,-9.772299
17335000,17335000,0.050044015,-0.099445015,-9.849883
17387000,17387000,0.0021530506,0.0317651,-9.739096
17435000,17435000,0.0931389,0.054607723,-9.799616
17487000,17487000,-0.02849886,-0.07654296,-9.913525
17535000,17535000,-0.03642422,0.029581655,-9.820359
17583000,17583000,0.017821632,0.047039617,-9.700866
17635000,17635000,0.10375844,0.068314984,-9.822448
17687000,17687000,-0.11088224,0.13768013,-9.828781
17735000,17735000,-0.124788724,0.16137785,-9.821309
17787000,17787000,-0.075904295,0.034029216,-9.766194
17835000,17835000,-0.09748317,-0.0927255,-9.825345
17887000,17887000,0.028469076,0.096058875,-9.799997
17935000,17935000,0.037895065,0.014289759,-9.751062
17987000,17987000,0.07304466,0.0698465,-9.779862
18035000,18035000,0.089129545,-0.00448862,-9.829746
18087000,18087000,-0.06720099,-0.0033411235,-9.791662
18135000,18135000,-0.016913082,-0.053410962,-9.962232
18187000,18187000,0.027610648,-0.17308603,-9.71267
18235000,18235000,-0.15310544,-0.15997474,-10.005558
18287000,18287000,-0.00823735,0.008972946,-9.884798
18335000,18335000,-0.048946258,0.011329952,-9.883005
18387000,18387000,-0.11355673,0.011434331,-9.529654
18435000,18435000,-0.047625206,-0.07266472,-9.711905
18487000,18487000,-0.08157245,0.08055624,-9.926032
18535000,18535000,0.09854205,0.115383774,-9.63233
18583000,18583000,0.049301416,-0.018602192,-9.865721
18635000,18635000,-0.040076137,-0.120580375,-9.928877
18687000,18687000,-0.1328267,-0.040457394,-9.527413
18735000,18735000,0.108201936,0.05938144,-9.969793
18787000,18787000,-0.1696656,0.16478729,-9.817318
18835000,18835000,0.078000344,-0.052260265,-9.752776
18887000,18887000,-0.108596,0.09585548,-9.862896
18935000,18935000,0.040959835,0.09879578,-9.632553
18987000,18987000,0.050961003,0.06085437,-9.84958
19035000,19035000,-0.09690133,0.12538181,-9.91521
19087000,19087000,0.082830116,0.1704687,-9.806198
19135000,19135000,0.015472555,-0.077554375,-9.964319
19187000,19187000,-0.03776422,-0.034636937,-9.6422825
19235000,19235000,-0.17950013,-0.12585768,-9.688951
19287000,19287000,-0.012581771,-0.004569123,-9.630816
19335000,19335000,0.1297816,0.18186143,-9.908732
19387000,19387000,-0.26594764,0.3180842,-9.771056
19435000,19435000,-0.1599275,0.007101696,-9.923741
19487000,19487000,0.19370113,-0.06942477,-9.924699
19535000,19535000,-0.12232177,-0.12515718,-9.710618
19587000,19587000,5.4758784e-05,-0.058854368,-9.760388
19635000,19635000,0.13657285,0.12633112,-9.968853
19687000,19687000,-0.107604116,-0.056300223,-9.883595
19735000,19735000,0.10423787,0.10434652,-9.82313
19787000,19787000,0.107370794,0.05765254,-9.705469
19835000,19835000,-0.02198178,0.028662909,-9.821041
19887000,19887000,-0.18745558,-0.083089806,-9.777628
19931000,19931000,-0.18836531,-0.050883926,-9.75321
19987000,19987000,0.02317816,0.08626295,-9.811479
20035000,20035000,-0.39318898,-0.10388734,-9.649479
20087000,20087000,-0.13351135,0.04229204,-9.629696
20135000,20135000,0.046497643,-0.10360208,-9.765445
20187000,20187000,-0.039756805,0.13829888,-9.792944
20235000,20235000,-0.17241439,0.08745777,-9.75621
20287000,20287000,-0.21057868,0.06716587,-9.743561
20335000,20335000,-0.11436321,-0.023507312,-9.727166
20387000,20387000,-0.14844988,-0.100085504,-9.730381
20435000,20435000,-0.1448389,-0.014944406,-9.83776
20487000,20487000,-0.07125825,-0.21495493,-9.869633
20535000,20535000,0.006457096,0.16864122,-9.675008
20587000,20587000,-0.14763236,-0.09515103,-9.825556
20635000,20635000,-0.09519124,0.23353212,-9.8283205
20687000,20687000,0.13713643,-0.03035297,-9.988786
20735000,20735000,0.042292695,0.06895249,-9.802348
20787000,20787000,0.006975727,0.07343183,-9.988282
20835000,20835000,-0.10169674,0.053987313,-9.9628525
20887000,20887000,-0.07446718,0.021683048,-9.893102
20935000,20935000,-0.059507184,0.10271357,-9.853118
20987000,20987000,-0.11534496,-0.03251956,-9.631935
21035000,21035000,-0.17092353,-0.07900138,-9.852639
21087000,21087000,0.0012836787,0.10203873,-9.576431
21135000,21135000,-0.1076999,0.24982038,-9.930172
21187000,21187000,-0.049037077,-0.066085495,-9.660599
21235000,21235000,-0.22086632,-0.33106387,-9.859442
21287000,21287000,-0.049798824,0.10973859,-9.785044
21335000,21335000,-0.26669964,-0.024061352,-9.755908
21387000,21387000,0.06775784,0.09428101,-9.879358
21435000,21435000,-0.050018974,0.13279995,-9.882121
21487000,21487000,-0.23269378,-0.10198409,-9.669039
21535000,21535000,-0.1413348,0.07212868,-9.865124
21587000,21587000,0.030746989,-0.08413212,-9.878291
21635000,21635000,-0.0997566,-0.092331275,-9.735981
21687000,21687000,-0.22752966,-0.07874403,-9.80585
21735000,21735000,0.078358725,-0.08889175,-9.821688
21783000,21783000,-0.10306794,-0.092198,-9.909909
21835000,21835000,-0.070460916,-0.06319342,-9.767838
21887000,21887000,-0.10401454,0.13877073,-9.786049
21935000,21935000,0.013618292,0.085824005,-9.607672
21987000,21987000,-0.037160937,0.021646213,-9.673119
22035000,22035000,0.06610678,0.16328655,-10.096964
22087000,22087000,0.074911565,-0.0041171517,-9.803466
22135000,22135000,-0.1902071,0.15318963,-9.76501
22183000,22183000,0.07001953,0.020096697,-9.728943
22235000,22235000,-0.14216612,0.09943159,-9.839518
22287000,22287000,-0.031013876,0.25952533,-9.796993
22335000,22335000,0.034222487,0.093128875,-9.750744
22383000,22383000,-0.07763907,0.06452066,-9.753775
22435000,22435000,-0.24716598,0.0014767637,-9.866969
22487000,22487000,0.017019348,-0.09462724,-9.731109
22531000,22531000,-0.12756905,-0.003936059,-9.796281
22587000,22587000,0.14000167,-0.057848547,-9.715671
22631000,22631000,-0.025143934,0.07187473,-9.878082
22687000,22687000,0.051326714,0.08246658,-9.86771
22731000,22731000,-0.041723296,0.03479232,-9.673897
22787000,22787000,-0.23367414,0.17406547,-9.893866
22835000,22835000,-0.0720882,0.13009377,-9.771857
22887000,22887000,-0.11466458,-0.061840713,-9.791165
22931000,22931000,-0.044284984,0.14487141,-9.80006
22987000,22987000,-0.15781577,-0.024384847,-9.604035
23035000,23035000,-0.05826915,-0.120541885,-9.6992855
23087000,23087000,0.01580719,-0.037579685,-9.835155
23135000,23135000,-0.09842235,0.08009164,-9.717365
23187000,23187000,-0.16110195,0.08298561,-9.963711
23235000,23235000,-0.040776715,-0.18367863,-9.59704
23287000,23287000,-0.055027895,0.0011887364,-9.691673
23335000,23335000,-0.16039482,-0.11339858,-9.90801
23387000,23387000,-0.040277775,0.08275449,-9.949994
23435000,23435000,-0.061270546,0.09751405,-9.827118
23487000,23487000,-0.025829988,-0.049348015,-9.661439
23535000,23535000,-0.1408247,-0.00646344,-9.756962
23587000,23587000,-0.08416006,-0.050919995,-9.906551
23635000,23635000,-0.1234825,-0.0006507039,-9.809803
23687000,23687000,-0.119454324,-0.057855934,-9.8386345
23735000,23735000,0.04975399,-0.09056111,-9.836395
23787000,23787000,0.044284493,-0.0153942555,-9.768214
23835000,23835000,-0.038049407,-0.029136386,-9.787228
23887000,23887000,0.10807476,-0.18120813,-9.637886
23935000,23935000,0.06271379,0.07997728,-10.025381
23987000,23987000,-0.26542768,0.25165847,-9.902855
24031000,24031000,-0.0043292628,-0.06118661,-9.957191
24087000,24087000,-0.14658323,0.024211021,-9.989952
24135000,24135000,-0.04910237,-0.08919881,-9.779972
24187000,24187000,-0.02933189,0.028319627,-9.846805
24235000,24235000,-0.13398555,0.054389812,-9.896658
24287000,24287000,-0.051727686,0.10171035,-9.904257
24335000,24335000,-0.061935842,-0.012858971,-9.763551
24387000,24387000,-0.11478011,-0.0048821606,-9.707838
24435000,24435000,-0.07574816,-0.0371341,-9.671537
24487000,24487000,-0.20726573,-0.093116716,-9.816521
24531000,24531000,-0.098694816,-0.008909076,-9.63386
24587000,24587000,-0.2256616,0.06798181,-10.015396
24635000,24635000,0.023023523,-0.11578978,-9.753682
24687000,24687000,-0.07099639,0.008588004,-9.733002
24735000,24735000,-0.06416343,-0.0449799,-9.784063
24787000,24787000,0.15444481,0.071924604,-9.844272
24835000,24835000,-0.072612226,-0.014058892,-9.682911
24887000,24887000,-0.13884878,0.13444121,-9.853416
24931000,24931000,-0.23859102,0.0027389564,-9.893689
24983000,24983000,-0.14936242,-0.17121445,-9.751561
25035000,25035000,0.039778326,-0.024538273,-9.731867
25087000,25087000,0.20685497,0.03467112,-9.67414
25135000,25135000,-0.05660566,0.18054879,-9.799999
25187000,25187000,-0.06395824,0.23180231,-9.785762
25235000,25235000,-0.19644651,-0.04657631,-9.844664
25287000,25287000,-0.09094752,0.23222953,-9.753865
25335000,25335000,0.026179353,0.12842202,-9.913946
25387000,25387000,-0.19532046,0.00400733,-10.00453
25435000,25435000,-0.06992794,0.035771362,-9.908481
25483000,25483000,0.060246486,-0.07622244,-9.7888565
25535000,25535000,-0.07860346,0.07790082,-9.912909
25587000,25587000,-0.116330236,0.015033871,-9.844088
25635000,25635000,-0.11505837,-0.06621575,-10.047275
25687000,25687000,0.012210638,0.0011315793,-9.913784
25735000,25735000,-0.007299931,-0.15748902,-9.73182
25787000,25787000,0.13462617,-0.004901959,-9.597184
25835000,25835000,0.089799166,0.0558185,-9.736753
25887000,25887000,-0.119256526,0.019365542,-9.821041
25931000,25931000,-0.1268173,0.08432385,-9.74723
25987000,25987000,0.14724234,0.07831964,-9.834106
26035000,26035000,-0.21819963,-0.13894302,-9.822586
26087000,26087000,-0.07990513,0.01942233,-9.8748455
26135000,26135000,-0.2016845,-0.03904204,-9.867749
26187000,26187000,0.066513956,0.07611884,-9.948126
26235000,26235000,0.08580066,-0.030655466,-9.781261
26287000,26287000,-0.16937275,0.26572305,-9.857235
26335000,26335000,-0.18167834,-0.05034328,-9.662704
26387000,26387000,-0.12594116,-0.12971611,-9.785546
26435000,26435000,-0.15920609,-0.12704192,-9.817461
26487000,26487000,-0.09234543,0.10220583,-9.574814
26535000,26535000,-0.06316737,-0.028635,-9.750483
26587000,26587000,-0.06135632,0.043996915,-9.918771
26635000,26635000,-0.11527434,-0.039243847,-9.852273
26687000,26687000,0.020800697,-0.35891664,-9.666358
26735000,26735000,-0.11160373,0.009655048,-9.928137
26787000,26787000,0.03548515,-0.057873175,-9.801891
26835000,26835000,0.12640283,-0.11449288,-9.857937
26887000,26887000,-0.15328243,0.101465575,-9.783779
26935000,26935000,0.0021955566,-0.06569989,-9.931413
26987000,26987000,0.12149708,-0.04386881,-9.726961
27031000,27031000,-0.0957469,0.056520298,-9.709742
27087000,27087000,0.0796284,0.06337229,-9.799775
27135000,27135000,-0.001245439,-0.040473487,-9.871777
27187000,27187000,-0.037753385,0.03829901,-9.860345
27235000,27235000,-0.046480708,0.009885157,-9.77898
27287000,27287000,0.0034150928,-0.1544837,-9.907164
27335000,27335000,0.010525993,-0.11494924,-9.80316
27387000,27387000,-0.048311815,-0.08239716,-9.677535
27435000,27435000,-0.11142697,0.031749662,-9.911428
27487000,27487000,-0.015699476,0.10205421,-9.6889925
27535000,27535000,-0.14465128,-0.08122047,-9.927389
27587000,27587000,0.007373311,0.030388879,-9.870482
27635000,27635000,-0.15101701,0.16601618,-9.891329
27687000,27687000,-0.08294781,0.109113246,-9.822943
27735000,27735000,-0.06775655,-0.1231488,-9.99169
27787000,27787000,0.019372873,0.07529096,-9.724413
27835000,27835000,-0.016799869,0.013189537,-9.717847
27887000,27887000,-0.16488335,0.080251865,-9.803144
27935000,27935000,-0.111394815,-0.072065115,-9.711075
27987000,27987000,-0.06894487,0.036840547,-9.856953
28035000,28035000,0.07790674,-0.102825806,-9.590692
28087000,28087000,-0.12734568,0.035095587,-9.896475
28135000,28135000,-0.18402874,0.11864053,-9.758223
28187000,28187000,-0.31938723,-0.024774477,-9.754637
28235000,28235000,-0.11350808,-0.055091165,-9.792036
28287000,28287000,-0.10411862,0.05860443,-9.902105
28335000,28335000,0.018997189,-0.14476992,-9.782212
28387000,28387000,0.10069483,-0.014613913,-9.882425
28435000,28435000,-0.0040052356,-0.039884813,-9.894562
28487000,28487000,0.1108865,0.055159952,-9.852538
28535000,28535000,0.08325128,-0.09205178,-9.791712
28587000,28587000,-0.08339994,-0.08745794,-9.796934
28635000,28635000,-0.04783177,-0.055802546,-9.760859
28687000,28687000,0.12854443,0.06171918,-9.915665
28735000,28735000,-0.07126875,-0.23808682,-10.019657
28787000,28787000,-0.1588653,0.020794865,-9.913334
28835000,28835000,-0.07372318,-0.12037763,-9.780703
28887000,28887000,-0.08462135,0.12609929,-9.811547
28935000,28935000,0.16751671,-0.08570844,-9.922455
28987000,28987000,-0.13002491,0.037550014,-9.666397
29035000,29035000,-0.14660439,0.06685047,-9.848252
29087000,29087000,0.058520906,-0.026810244,-9.860247
29131000,29131000,-0.18921486,-0.02583863,-9.664831
29187000,29187000,0.13308227,0.07941131,-9.682899
29231000,29231000,-0.10928027,-0.051494434,-9.769375
29287000,29287000,-0.16414328,0.096527606,-9.783649
29335000,29335000,0.12096481,0.0121450955,-9.806543
29387000,29387000,-0.34582928,0.038067408,-9.838729
29435000,29435000,0.0049381023,0.12837027,-9.767216
29483000,29483000,0.048397,-0.07467584,-9.734348
29531000,29531000,-0.06757031,-0.038437076,-9.722655
29587000,29587000,0.040821835,-0.18736956,-9.905172
29635000,29635000,-0.08596759,0.068052955,-9.857854
29687000,29687000,0.031538572,-0.08347452,-9.920696
29735000,29735000,-0.038693383,0.064273275,-9.808119
29783000,29783000,0.11410604,0.05721099,-9.724122
29835000,29835000,0.07314968,0.19162415,-9.851592
29883000,29883000,-0.21443811,0.07514188,-9.661001
29935000,29935000,0.08758042,0.046468087,-9.713705
29987000,29987000,-0.1491946,0.04359328,-9.68997
30035000,30035000,-0.08052533,-0.10101271,-9.748819
30087000,30087000,-0.18093674,-0.04814639,-9.882336
30135000,30135000,0.09671047,-0.036950752,-9.896959
30187000,30187000,0.08377447,0.11382358,-9.84659
30235000,30235000,-0.0013096798,-0.15521759,-9.80363
30287000,30287000,-0.08692671,-0.09721917,-9.947781
30335000,30335000,-0.12002389,0.019331828,-9.709795
30387000,30387000,-0.024136238,0.06486498,-9.926994
30435000,30435000,0.12146239,-0.075899534,-9.960951
30487000,30487000,-0.023212511,-0.036276504,-9.843779
30535000,30535000,-0.07654608,-0.13455424,-9.801006
30587000,30587000,0.10613129,-0.09205235,-9.918349
30635000,30635000,-0.03412504,0.10794983,-9.854509
30687000,30687000,-0.01189456,-0.052763373,-9.703829
30731000,30731000,-0.023445535,-0.009293268,-9.944653
30787000,30787000,-0.17781031,0.023516404,-9.857511
30835000,30835000,0.09968817,-0.053248603,-9.865841
30887000,30887000,-0.006463376,0.03156975,-9.694159
30935000,30935000,-0.056411855,-0.0283758,-9.694014
30987000,30987000,0.08037615,0.11182904,-9.807129
31035000,31035000,-0.056979436,-0.04222256,-9.872759
31087000,31087000,-0.121077135,0.007123381,-9.88573
31135000,31135000,0.09123098,0.0008868128,-9.771868
31187000,31187000,-0.19328561,-0.07990253,-9.905015
31235000,31235000,-0.040534087,-0.062330015,-9.908123
31287000,31287000,0.04067775,-0.071433105,-9.929512
31335000,31335000,0.06929312,-0.05528453,-9.772659
31387000,31387000,0.14865163,-0.060367104,-9.768211
31435000,31435000,0.053589955,-0.15118788,-9.725389
31487000,31487000,-0.005342059,-0.03249441,-9.819713
31535000,31535000,0.09799389,0.04412092,-9.828853
31583000,31583000,0.0834129,0.039158583,-9.735572
31635000,31635000,-0.01639904,0.08909722,-9.890113
31687000,31687000,-0.032718927,-0.04361261,-9.858055
31735000,31735000,-0.27052346,0.059382867,-9.687717
31787000,31787000,0.03953001,0.084515914,-9.880429
31835000,31835000,-0.09092468,0.18138994,-9.913482
31887000,31887000,0.11420525,0.055063717,-9.648748
31935000,31935000,-0.029426299,-0.059102103,-9.83263
31987000,31987000,-0.1374923,-0.006975429,-9.779456
32035000,32035000,-0.052086446,-0.113548584,-9.636305
32087000,32087000,0.18389589,0.017146522,-9.835364
32135000,32135000,-0.1514364,0.07501803,-9.832316
32187000,32187000,0.033450097,0.059909202,-9.857283
32235000,32235000,0.11747497,-0.09415788,-9.71426
32287000,32287000,-0.26593992,-0.03253161,-9.903872
32335000,32335000,-0.17500725,0.06304028,-9.632969
32387000,32387000,0.010692468,-0.013950055,-9.843961
32435000,32435000,-0.06099804,0.08841249,-9.82667
32487000,32487000,-0.08104636,-0.08474689,-9.935409
32535000,32535000,-0.17474005,-0.022236165,-9.669227
32587000,32587000,-0.027035419,0.067691706,-9.93935
32635000,32635000,-0.069949575,-0.069163844,-9.846755
32687000,32687000,-0.006349667,-0.010169035,-9.892867
32735000,32735000,0.026623696,-0.0018220814,-9.975603
32787000,32787000,0.04006665,-0.032014836,-9.798383
32831000,32831000,-0.18122429,0.1493979,-9.8577
32887000,32887000,0.04760558,-0.06890111,-9.827229
32935000,32935000,0.057778206,-0.22225177,-9.837318
32987000,32987000,-0.05115403,-0.004720578,-9.708629
33035000,33035000,-0.03670881,0.0106136985,-9.809798
33087000,33087000,-0.20345207,-0.1458068,-9.789779
33135000,33135000,-0.05975277,0.00999129,-9.638336
33183000,33183000,-0.06005242,-0.099081144,-9.74469
33231000,33231000,-0.26698905,0.11323966,-9.901998
33287000,33287000,-0.040927883,0.022036612,-9.855859
33335000,33335000,-0.117996536,0.048516393,-9.746068
33387000,33387000,-0.037071433,0.015591661,-10.065673
33435000,33435000,0.12270501,0.020754013,-9.618813
33487000,33487000,0.021812897,-0.041226078,-9.734896
33535000,33535000,0.077614516,0.06576275,-9.767959
33587000,33587000,0.093163535,0.0047494518,-9.466315
33635000,33635000,-0.07945728,0.009454492,-10.035374
33687000,33687000,-0.15962481,-0.008975204,-9.766651
33735000,33735000,-0.26944366,0.08833853,-9.782722
33787000,33787000,-0.0044121863,-0.054642137,-9.723197
33835000,33835000,-0.019472526,0.017393228,-9.833252
33887000,33887000,-0.048902996,-0.039482623,-9.824607
33935000,33935000,-0.09338519,0.021240802,-9.8977
33987000,33987000,-0.1895308,-0.12244722,-9.820927
34031000,34031000,-0.07233865,0.024313789,-9.767381
34087000,34087000,0.04493359,0.035164814,-9.751427
34131000,34131000,-0.035835825,0.0690206,-9.758696
34187000,34187000,0.0033737645,0.0042012567,-9.761257
34235000,34235000,0.02844583,0.0057794927,-9.853326
34287000,34287000,0.008535821,0.106446296,-9.792776
34335000,34335000,-0.045305774,-0.0077634174,-9.682031
34387000,34387000,-0.09387807,0.11683458,-9.633456
34435000,34435000,-0.23676752,-0.020466417,-9.8830385
34487000,34487000,-0.009992507,-0.03577341,-9.830241
34535000,34535000,-0.0025909832,-0.04871611,-9.828028
34587000,34587000,-0.2752099,-0.037428617,-9.822953
34635000,34635000,-0.050895996,-0.014067985,-10.015505
34687000,34687000,-0.016687034,-0.08502271,-9.730162
34735000,34735000,-0.109672315,-0.0064220564,-9.853931
34787000,34787000,-0.019474577,-0.02621504,-9.88765
34835000,34835000,-0.05193939,0.00816363,-9.845076
34887000,34887000,-0.030623514,-0.11864598,-9.771843
34935000,34935000,-0.21153753,0.045032848,-9.933722
34987000,34987000,-0.05446246,0.083014615,-9.923094
35035000,35035000,-0.12855439,-0.16668165,-9.78406
35087000,35087000,-0.15165459,-0.017671343,-9.768406
35135000,35135000,-0.17657001,-0.029165646,-9.96219
35187000,35187000,-0.121998355,-0.0070841205,-9.847378
35235000,35235000,-0.0988457,0.047358442,-9.9017935
35287000,35287000,-0.102033585,-0.057660095,-9.840998
35335000,35335000,-0.048749663,0.106341794,-9.784304
35387000,35387000,-0.07048166,0.046521712,-9.7746525
35435000,35435000,-0.058025826,-0.017515654,-9.816694
35487000,35487000,-0.039105117,-0.005251592,-9.783869
35535000,35535000,0.10937585,0.0028920881,-9.903215
35587000,35587000,0.023770854,-0.0045622205,-9.851751
35631000,35631000,-0.17051901,-0.0057798605,-9.776369
35687000,35687000,-0.01237287,-0.16412881,-9.923883
35735000,35735000,0.040913466,0.12955058,-9.89993
35787000,35787000,-0.2881309,-0.09070158,-9.767807
35835000,35835000,0.11048256,0.07413932,-9.860398
35887000,35887000,0.06524672,-0.011705776,-9.697216
35935000,35935000,-0.18149203,-0.017011221,-9.738097
35987000,35987000,0.019457022,-0.0328131,-9.8811865
36035000,36035000,0.021867432,-0.040878754,-9.700497
36087000,36087000,1.0473654e-05,-0.24017912,-9.803423
36135000,36135000,-0.026585482,0.10551928,-9.874224
36187000,36187000,-0.06376466,0.0575563,-9.851413
36235000,36235000,-0.14317018,-0.17262062,-9.941032
36287000,36287000,0.004254249,0.045487184,-9.744351
36335000,36335000,-0.14156234,0.042354643,-9.808371
36387000,36387000,-0.15379697,0.046037376,-9.650679
36435000,36435000,-0.06860364,0.01620652,-9.878448
36487000,36487000,0.13335788,-0.04482299,-9.775747
36535000,36535000,-0.1465764,-0.1116848,-9.966602
36587000,36587000,-0.021582425,0.16163084,-9.871671
36635000,36635000,-0.101265684,0.07233755,-9.856
36687000,36687000,-0.085699,0.026625179,-9.921513
36735000,36735000,0.016669616,0.15075047,-9.717054
36787000,36787000,0.014401916,0.03071856,-9.816852
36835000,36835000,-0.19649059,-0.022805464,-9.66431
36887000,36887000,-0.16201805,-0.19406967,-9.789635
36935000,36935000,-0.13374741,0.0322875,-9.813462
36987000,36987000,0.11074723,0.019158004,-9.717352
37035000,37035000,-0.07678847,-0.021235477,-9.844023
37087000,37087000,-0.031242449,-0.051727317,-9.690857
37135000,37135000,-0.14681175,0.1023169,-9.760928
37187000,37187000,0.0022388175,-0.10375658,-9.874473
37235000,37235000,-0.072840214,0.008105028,-9.854856
37287000,37287000,-0.06771803,0.104391925,-9.86775
37335000,37335000,-0.044752304,-0.078006126,-9.96566
37387000,37387000,-0.10412919,0.098052196,-9.821933
37431000,37431000,0.24343826,-0.041327015,-9.843822
37487000,37487000,-0.19901186,-0.21153471,-9.78704
37535000,37535000,-0.15102056,0.0071986346,-9.791858
37587000,37587000,-0.023762733,-0.05073847,-9.742689
37635000,37635000,-0.051258568,-0.09399499,-9.766959
37687000,37687000,-0.09546534,0.10393223,-9.904863
37735000,37735000,0.011569518,0.045165207,-9.81305
37783000,37783000,0.033363126,-0.044531167,-10.007673
37835000,37835000,0.031204771,-0.19067118,-9.77276
37887000,37887000,-0.11798048,-0.044576503,-9.644254
37935000,37935000,0.09934834,0.023938673,-9.701299
37987000,37987000,-0.07527552,-0.12646356,-9.642708
38031000,38031000,-0.013868148,-0.10640721,-9.774302
38087000,38087000,0.021387193,-0.12720436,-9.876052
38135000,38135000,-0.13421118,0.033569396,-9.812208
38187000,38187000,0.107652746,-0.07557789,-9.966366
38235000,38235000,-0.050708156,0.037287783,-9.770091
38287000,38287000,-0.067218184,-0.066997156,-9.847158
38335000,38335000,-0.05287496,0.063815385,-9.732602
38387000,38387000,0.015882488,0.061340455,-9.944107
38431000,38431000,-0.005346291,0.12252353,-9.887489
38487000,38487000,-0.076439425,0.001957303,-9.729912
38535000,38535000,-0.095147535,-0.08006357,-9.786247
38587000,38587000,0.12520236,0.06304159,-9.875952
38635000,38635000,-0.0009302818,-0.055102155,-9.835147
38683000,38683000,-0.240833,0.11480953,-9.981823
38735000,38735000,-0.033605926,0.05587443,-9.840975
38787000,38787000,-0.15038961,-0.15504678,-9.992517
38835000,38835000,0.037793376,-0.10448801,-9.905115
38887000,38887000,0.042598996,-0.10581141,-9.806419
38935000,38935000,-0.08733172,-0.22876166,-9.705047
38987000,38987000,-0.28216824,-0.14143816,-9.71253
39035000,39035000,-0.08455686,0.11624963,-9.725556
39087000,39087000,-0.22188373,-0.05646412,-9.964284
39135000,39135000,0.07014333,-0.11072903,-9.688635
39187000,39187000,0.0074330363,0.21302646,-9.861111
39235000,39235000,-0.1585019,-0.019294612,-9.635341
39287000,39287000,-0.12264803,-0.02261829,-9.73836
39335000,39335000,-0.1944126,0.2588615,-9.813803
39387000,39387000,0.08667314,-0.11840625,-9.737591
39435000,39435000,-0.0307892,-0.098189,-9.994364
39487000,39487000,-0.12944037,-0.23501554,-9.880454
39535000,39535000,-0.0671866,0.15753292,-9.641894
39587000,39587000,-0.036383934,0.04820613,-9.67984
39635000,39635000,-0.07191428,0.08049011,-9.7412615
39683000,39683000,0.10985896,0.14852592,-9.762586
39735000,39735000,-0.057975717,-0.041263595,-9.741852
39787000,39787000,-0.24171627,0.12084312,-9.741484
39835000,39835000,0.09706417,0.06334098,-9.819681
39887000,39887000,-0.15777877,-0.030980075,-9.739889
39931000,39931000,-0.010074557,0.004376807,-9.736326
39987000,39987000,-0.08617602,0.067055605,-9.8384
40035000,40035000,-0.102877945,0.06339425,-9.595057
40087000,40087000,0.046237864,0.07441665,-9.722057
40135000,40135000,-0.069971025,-0.11316426,-9.689116
40187000,40187000,0.13423763,-0.0898055,-9.977543
40235000,40235000,0.15119767,-0.09106758,-9.793238
40287000,40287000,0.014129484,-0.089053534,-9.845528
40335000,40335000,-0.027442921,-0.046914972,-9.813418
40387000,40387000,0.08930731,0.099607415,-9.636356
40435000,40435000,-0.11430064,0.0066208486,-9.866966
40487000,40487000,-0.1310566,-0.04462733,-9.595441
40535000,40535000,-0.11505027,-0.068086274,-9.831928
40587000,40587000,-0.07932687,-0.036987655,-10.020783
40635000,40635000,-0.07712663,-0.005272193,-9.780842
40687000,40687000,-0.09304463,0.03557987,-9.8234215
40735000,40735000,-0.15939702,-0.07547371,-9.726456
40787000,40787000,-0.1892973,-0.08884791,-9.705735
40835000,40835000,-0.18792158,-0.066400364,-9.893055
40887000,40887000,-0.04153056,-0.113484785,-9.779185
40935000,40935000,-0.022465035,-0.20395654,-9.8879595
40987000,40987000,-0.06531133,0.01092452,-9.701876
41035000,41035000,-0.34694242,-0.03718003,-9.928293
41087000,41087000,0.23367499,0.04441466,-9.785105
41135000,41135000,-0.16725373,0.07438767,-10.04812
41187000,41187000,-0.10820727,-0.055442538,-9.900955
41235000,41235000,-0.19694248,0.0016206801,-9.82651
41287000,41287000,-0.052661233,0.092151575,-9.895706
41335000,41335000,-0.046852216,0.043445766,-9.645788
41387000,41387000,-0.022166833,0.0913734,-9.851104
41435000,41435000,-0.113749996,0.088237666,-9.738529
41487000,41487000,-0.13023646,0.0021356046,-9.9449005
41535000,41535000,-0.102483585,-0.08950558,-9.9228115
41587000,41587000,-0.1030532,0.04407751,-9.869862
41635000,41635000,0.0054248436,0.09141528,-9.839719
41687000,41687000,-0.047529694,-0.11032295,-9.799361
41731000,41731000,-0.036186025,-0.29971394,-9.745851
41787000,41787000,-0.027009722,0.10958871,-9.909406
41835000,41835000,0.0040172096,-0.0068460735,-9.760823
41887000,41887000,-0.20969996,-0.0639299,-9.807096
41935000,41935000,-0.08323057,-0.09231823,-9.815615
41987000,41987000,-0.024090115,-0.027423767,-9.719194
42031000,42031000,-0.17307813,-0.12570044,-9.730505
42087000,42087000,-0.0059465915,0.045457244,-9.8007555
42135000,42135000,-0.01603602,0.18951575,-9.807323
42187000,42187000,0.103483975,0.062037945,-9.757441
42235000,42235000,0.1482071,-0.099605516,-9.895234
42287000,42287000,-0.2228418,-0.051142193,-9.533645
42335000,42335000,0.060937103,0.004027372,-9.7784815
42387000,42387000,-0.15356699,-0.02379742,-9.989805
42435000,42435000,-0.1538418,0.1066683,-9.819366
42487000,42487000,-0.19273241,-0.047269035,-9.855563
42535000,42535000,-0.21160448,-0.20332706,-9.900457
42587000,42587000,-0.15816623,0.089210406,-9.724147
42635000,42635000,-0.1478206,-0.111049846,-9.817089
42687000,42687000,-0.16111498,0.044652246,-9.816606
42735000,42735000,-0.016106796,0.020976763,-9.831753
42787000,42787000,0.06955161,-0.032216847,-9.598967
42835000,42835000,-0.067179754,0.097141884,-9.777613
42887000,42887000,-0.004915299,-0.045097504,-9.794651
42935000,42935000,0.07633756,-0.0004799792,-9.904504
42987000,42987000,-0.0059563704,0.044175148,-9.772996
43035000,43035000,-0.06436738,0.0036738631,-9.98998
43087000,43087000,-0.08247871,0.078018405,-9.764662
43135000,43135000,-0.08942726,0.05096747,-9.873996
43187000,43187000,-0.021366358,-0.033694483,-9.646967
43235000,43235000,-0.16240281,-0.08300251,-9.781215
43287000,43287000,-0.02112092,-0.044470444,-9.971642
43335000,43335000,-0.086386584,-0.18909882,-9.820097
43387000,43387000,-0.047267288,-0.107937336,-10.016708
43435000,43435000,-0.14106888,-0.06962883,-9.86273
43487000,43487000,-0.08714766,0.03508162,-9.685402
43535000,43535000,-0.12357533,-0.14572582,-9.919083
43587000,43587000,-0.21754733,-0.09717946,-9.960436
43635000,43635000,-0.08663676,-0.053792283,-9.679387
43687000,43687000,-0.25606117,-0.015137445,-9.667983
43735000,43735000,-0.14638638,-0.0862378,-9.841837
43787000,43787000,0.20813064,0.017935202,-9.942289
43835000,43835000,-0.15285662,0.008526614,-9.731491
43887000,43887000,-0.01592851,-0.05912648,-9.760642
43935000,43935000,-0.0866741,0.0987024,-9.89354
43987000,43987000,-0.06678242,-0.10098007,-9.727545
44035000,44035000,-0.116825335,-0.004196776,-9.8453245
44087000,44087000,-0.10735586,-0.09007898,-9.686625
44135000,44135000,-0.131381,-0.1786384,-9.952033
44187000,44187000,0.051231667,-0.011291136,-9.696084
44235000,44235000,-0.14860246,-0.023301853,-9.736705
44287000,44287000,-0.079395995,-0.122322254,-9.714515
44335000,44335000,-0.055480663,-0.08653716,-9.763701
44387000,44387000,-0.053137064,-0.12495893,-9.892128
44435000,44435000,-0.100908905,0.06221975,-9.86526
44487000,44487000,-0.06564125,-0.008158648,-9.9373865
44535000,44535000,-0.29762188,0.046562977,-9.794024
44587000,44587000,-0.18578024,-0.096305415,-9.649427
44635000,44635000,-0.0139546245,0.034372743,-9.853723
44687000,44687000,0.014327319,-0.032908082,-9.835213
44735000,44735000,-0.17558435,-0.14979589,-9.934622
44787000,44787000,0.10449548,-0.014577323,-9.836525
44835000,44835000,-0.008147029,-0.024210386,-9.703036
44887000,44887000,-0.039472766,0.13157186,-9.802114
44935000,44935000,0.044051554,-0.06871424,-9.703953
44987000,44987000,-0.19819072,-0.11751586,-9.684633
45035000,45035000,-0.2236166,0.109769925,-9.7910595
45087000,45087000,0.054713573,-0.031646445,-9.815037
45135000,45135000,-0.23493126,-0.0053941864,-9.815578
45187000,45187000,0.008372569,-0.16724107,-9.795808
45235000,45235000,-0.09787425,-0.027504597,-9.903135
45287000,45287000,-0.17933688,0.09233451,-9.748547
45331000,45331000,-0.09576285,0.046481974,-9.766592
45387000,45387000,-0.17056118,0.014940399,-9.839627
45435000,45435000,-0.14240322,-0.10034555,-9.982724
45487000,45487000,-0.05881121,-0.12396544,-9.809602
45535000,45535000,-0.29690585,-0.10737953,-9.705587
45587000,45587000,-0.10448386,-0.1340433,-9.7568865
45635000,45635000,0.13133213,0.104475565,-9.827517
45687000,45687000,-0.13808158,0.00615836,-9.755451
45731000,45731000,-0.041140348,-0.11334208,-9.694668
45787000,45787000,-0.16197284,0.0053389743,-9.827849
45835000,45835000,-0.12138323,0.08686949,-9.928408
45887000,45887000,-0.18755083,-0.069860645,-9.842712
45935000,45935000,-0.15966633,-0.016304493,-9.650348
45983000,45983000,-0.19972368,-0.08374456,-9.715683
46035000,46035000,-0.0142755145,-0.011646377,-9.82392
46087000,46087000,0.07256653,-0.12591043,-9.899406
46131000,46131000,-0.23095246,-0.16084486,-9.907988
46187000,46187000,0.07129776,0.10241555,-9.86381
46235000,46235000,-0.14087981,-0.07422462,-9.799891
46287000,46287000,0.13969934,-0.17186055,-9.884224
46335000,46335000,-0.22335936,0.021194711,-9.690748
46383000,46383000,0.030761361,-0.23739544,-9.797389
46435000,46435000,-0.19582154,-0.13827927,-9.995782
46487000,46487000,-0.1888677,0.0071717314,-9.904383
46535000,46535000,-0.1570445,-0.047021884,-9.712803
46587000,46587000,-0.19186215,0.058635682,-9.805093
46635000,46635000,-0.0990032,-0.13345349,-9.659844
46687000,46687000,-0.18585812,0.14594232,-9.935839
46731000,46731000,-0.20505491,-0.043951936,-9.676065
46787000,46787000,-0.14314374,0.007584053,-9.820936
46835000,46835000,-0.086262144,-0.05360665,-9.863412
46883000,46883000,-0.12947819,0.05673488,-9.708902
46935000,46935000,-0.06644957,-0.056129687,-9.674455
46987000,46987000,-0.1619257,-0.09371748,-9.8427925
47035000,47035000,-0.16373417,-0.0023523122,-9.780952
47087000,47087000,-0.26694673,-0.05238472,-9.590532
47135000,47135000,-0.21314558,0.039078392,-9.718941
47187000,47187000,-0.11202012,-0.034354836,-9.816734
47235000,47235000,0.05529494,0.05758566,-9.822691
47287000,47287000,0.09776387,-0.2095035,-9.766607
47335000,47335000,-0.09470177,0.19497049,-9.602767
47387000,47387000,-0.13643065,0.02692554,-9.907217
47435000,47435000,0.12674046,-0.053179584,-9.715984
47487000,47487000,-0.07837941,-0.18539275,-9.7915745
47535000,47535000,-0.2448565,-0.06191565,-9.822004
47587000,47587000,-0.17335148,-0.110991955,-9.780983
47635000,47635000,-0.048887283,-0.12055734,-9.752677
47683000,47683000,-0.13814469,-0.13322675,-9.887985
47735000,47735000,-0.14871298,-0.111818,-9.831757
47787000,47787000,-0.18151937,0.020230226,-9.80378
47835000,47835000,-0.08139588,-0.016015526,-9.717771
47887000,47887000,-0.09328799,-0.036461115,-9.713291
47931000,47931000,-0.10226682,0.0031481362,-9.847805
47987000,47987000,-0.12865677,-0.08558915,-9.918828
48031000,48031000,-0.124661356,-0.16053838,-9.750268
48083000,48083000,-0.18275376,0.020712659,-9.732977
48135000,48135000,-0.1789613,-0.034461856,-9.775285
48187000,48187000,0.04861991,-0.11176309,-9.760638
48235000,48235000,-0.14200988,-0.18637574,-9.82078
48287000,48287000,-0.006243009,-0.1489008,-9.626987
48335000,48335000,-0.3553958,-0.12545426,-9.857619
48383000,48383000,-0.14067647,0.008061988,-9.955518
48435000,48435000,0.027363535,0.03603553,-9.815226
48487000,48487000,0.046907358,-0.029071555,-9.802608
48535000,48535000,-0.15885143,0.06978397,-9.859423
48587000,48587000,-0.1272899,-0.05658585,-9.697742
48635000,48635000,-0.06757035,-0.1894407,-9.989624
48687000,48687000,-0.03790205,-0.15553969,-9.884247
48731000,48731000,-0.2058189,-0.0796618,-9.809348
48787000,48787000,-0.12899996,-0.11307891,-9.685694
48831000,48831000,-0.23973012,-0.0195482,-9.927785
48887000,48887000,-0.17360336,0.09950194,-9.873049
48935000,48935000,-0.13618602,0.16657874,-9.702585
48987000,48987000,-0.19940975,-0.05271148,-9.541764
49035000,49035000,-0.29182735,-0.07908335,-9.779174
49087000,49087000,-0.1972757,0.009468414,-9.741189
49131000,49131000,-0.39458525,0.11837024,-9.938889
49187000,49187000,0.01677657,0.037113942,-9.679246
49231000,49231000,-0.0696389,0.028013641,-9.749813
49287000,49287000,-0.1325976,-0.08162148,-9.89841
49335000,49335000,-0.027974712,-0.16325507,-9.824562
49383000,49383000,0.030733017,-0.11998194,-9.843416
49435000,49435000,-0.1538458,-0.08848664,-9.673294
49487000,49487000,-0.1425577,0.18670408,-9.887406
49535000,49535000,-0.01132592,0.104059905,-10.058285
49587000,49587000,-0.09221978,-0.08826055,-9.699901
49635000,49635000,-0.07563174,-0.309712,-9.543649
49687000,49687000,-0.14475203,0.033141866,-9.659227
49731000,49731000,-0.098000765,-0.08806032,-9.645639
49787000,49787000,-0.02231565,0.104429066,-9.873693
49835000,49835000,-0.13430269,-0.089500055,-9.694696
49887000,49887000,-0.14880611,-0.013414713,-9.864847
49935000,49935000,-0.041944705,-0.24715304,-9.79458
49987000,49987000,-0.14442913,-0.21335252,-9.869274
50035000,50035000,-0.12654865,0.021477675,-9.691021
50087000,50087000,-0.19402096,0.07728906,-9.677591
50135000,50135000,-0.07978534,-0.09794876,-9.996609
50187000,50187000,-0.1433275,-0.034702405,-9.638774
50235000,50235000,-0.11926769,-0.109264374,-9.911725
50287000,50287000,0.03991534,-0.045950346,-9.731723
50335000,50335000,-0.20671482,-0.16090626,-9.736533
50387000,50387000,-0.111073285,0.07117807,-9.782627
50431000,50431000,-0.1811271,-0.00027329195,-9.93741
50487000,50487000,-0.014791563,-0.07774915,-9.914018
50535000,50535000,-0.06471482,0.049559936,-9.61981
50587000,50587000,-0.11359352,-0.0026347367,-9.929617
50635000,50635000,-0.14251533,-0.06324248,-9.827704
50687000,50687000,0.009248359,0.10260035,-9.661402
50735000,50735000,-0.13609225,0.07918847,-9.901257
50787000,50787000,-0.18417516,0.026737321,-9.785498
50835000,50835000,-0.00543664,0.031499,-9.705962
50887000,50887000,-0.042884376,0.084233515,-9.814545
50935000,50935000,-0.16372378,0.040019266,-9.7298155
50987000,50987000,-0.0012053745,-0.0024250865,-9.64728
51035000,51035000,-0.17761368,0.060888387,-9.82723
51083000,51083000,-0.12714276,-0.057980303,-9.853407
51135000,51135000,0.010642906,0.058734387,-9.934818
51187000,51187000,-0.060048793,0.036133576,-9.746646
51235000,51235000,-0.17161667,-0.032062743,-9.884359
51287000,51287000,0.00074828975,-0.052224193,-9.735779
51335000,51335000,-0.116172925,0.058698226,-9.746521
51387000,51387000,-0.03764132,-0.08031956,-9.844147
51435000,51435000,-0.27156162,-0.08199274,-9.846439
51487000,51487000,-0.10583046,-0.25948507,-9.873133
51535000,51535000,-0.014469791,-0.18638897,-9.956051
51587000,51587000,-0.1308164,0.028286885,-9.934307
51635000,51635000,-0.14915262,0.066942684,-9.696225
51687000,51687000,-0.12125512,0.10676506,-9.929083
51735000,51735000,-0.13864912,-0.007095522,-9.780346
51787000,51787000,-0.053762775,0.15534507,-9.792744
51835000,51835000,-0.22345522,-0.009291815,-9.844809
51887000,51887000,-0.19835599,0.054305613,-9.8809805
51935000,51935000,-0.17631948,0.040606596,-9.767636
51987000,51987000,-0.13974574,-0.020177495,-9.725634
52035000,52035000,-0.19069594,-0.00855111,-9.870605
52087000,52087000,-0.16377746,-0.06545213,-9.839699
52135000,52135000,-0.05492867,-0.008459037,-9.77451
52187000,52187000,-0.015166832,-0.092231825,-9.782428
52235000,52235000,-0.23524368,-0.19242896,-9.77477
52283000,52283000,-0.28943366,0.15847345,-9.7524185
52335000,52335000,-0.024252355,-0.06905435,-9.72238
52387000,52387000,-0.007106822,-0.061529394,-9.85825
52435000,52435000,-0.07332794,-0.23539297,-9.856312
52483000,52483000,0.16527255,0.182726,-9.912658
52531000,52531000,0.049223237,-0.14790374,-9.802068
52583000,52583000,-0.075643405,-0.0033246907,-9.802474
52635000,52635000,-0.0917131,0.078036994,-9.610234
52687000,52687000,-0.09977,-0.038365297,-9.812378
52735000,52735000,0.12900224,0.08773838,-9.915454
52787000,52787000,-0.15428284,0.04500703,-9.911466
52831000,52831000,-0.13518974,0.11810424,-9.741664
52887000,52887000,-0.14141288,-0.08907628,-9.7112875
52935000,52935000,-0.0044810064,0.05345386,-9.921867
52987000,52987000,-0.054784738,0.0759477,-9.929868
53035000,53035000,0.015117948,-0.02754852,-9.762381
53087000,53087000,-0.19823126,-0.063308336,-9.908257
53135000,53135000,-0.074310474,0.21163167,-9.914669
53187000,53187000,0.044561848,-0.0060414867,-9.763445
53235000,53235000,-0.11796071,-0.2756649,-9.921156
53283000,53283000,0.13300583,-0.24613392,-9.857238
53335000,53335000,-0.08510092,0.09342387,-9.716343
53383000,53383000,-0.21211408,0.079304144,-9.681017
53435000,53435000,-0.12300442,0.084032334,-9.854966
53487000,53487000,-0.08814638,0.06391051,-9.700612
53531000,53531000,-0.042546336,0.017113805,-9.448885
53587000,53587000,-0.06980972,0.1144191,-9.800296
53635000,53635000,-0.073389016,-0.06598321,-9.698706
53687000,53687000,-0.018217275,-0.060447082,-9.806036
53735000,53735000,0.17127194,-0.12968178,-9.9441185
53787000,53787000,0.031019945,-0.08181866,-9.740002
53835000,53835000,0.051630273,-0.10004173,-9.968732
53887000,53887000,-0.18906409,0.022360202,-9.917618
53935000,53935000,-0.098625,0.02231034,-9.751444
53987000,53987000,-0.11227194,0.03241942,-9.91211
54035000,54035000,0.025728818,-0.037751716,-9.879227
54087000,54087000,0.03338663,-0.06276008,-9.797973
54135000,54135000,-0.042133976,-0.015030389,-9.673046
54187000,54187000,-0.035342705,0.093307994,-9.741317
54235000,54235000,-0.109180644,-0.040061295,-9.727241
54287000,54287000,-0.12673517,-0.14926596,-9.598475
54335000,54335000,-0.029740416,0.07825169,-9.731143
