timestamp,timestamp_sample,q[0],q[1],q[2],q[3],delta_q_reset[0],delta_q_reset[1],delta_q_reset[2],delta_q_reset[3],quat_reset_counter
5311000,5311000,0.99994767,-0.009149274,-0.0036864805,-0.0027481697,1.0,0.0,0.0,0.0,0
5315000,5315000,0.9999494,-0.008992924,-0.003640234,-0.0026535704,1.0,0.0,0.0,0.0,0
5319000,5319000,0.999951,-0.008838824,-0.0036096983,-0.0026109086,1.0,0.0,0.0,0.0,0
5323000,5323000,0.9999526,-0.008666488,-0.003597742,-0.002615956,1.0,0.0,0.0,0.0,0
5327000,5327000,0.9999543,-0.008472638,-0.0035950814,-0.0026090376,1.0,0.0,0.0,0.0,0
5331000,5331000,0.9999562,-0.008260289,-0.0035980304,-0.0025668505,1.0,0.0,0.0,0.0,0
5335000,5335000,0.99995804,-0.008049728,-0.003576387,-0.0025338596,1.0,0.0,0.0,0.0,0
5339000,5339000,0.9999593,-0.007920042,-0.0035349044,-0.0025103712,1.0,0.0,0.0,0.0,0
5343000,5343000,0.9999601,-0.007858338,-0.0034799005,-0.002438668,1.0,0.0,0.0,0.0,0
5347000,5347000,0.9999612,-0.0077710934,-0.0034157948,-0.002353099,1.0,0.0,0.0,0.0,0
5351000,5351000,0.99996275,-0.0076365187,-0.0033323884,-0.002272243,1.0,0.0,0.0,0.0,0
5355000,5355000,0.9999645,-0.0074940403,-0.00322846,-0.0021521014,1.0,0.0,0.0,0.0,0
5359000,5359000,0.9999659,-0.007374639,-0.003117222,-0.002021375,1.0,0.0,0.0,0.0,0
5363000,5363000,0.9999674,-0.00723652,-0.0030286824,-0.0019298396,1.0,0.0,0.0,0.0,0
5367000,5367000,0.99996895,-0.0070591285,-0.0029887275,-0.0018745085,1.0,0.0,0.0,0.0,0
5371000,5371000,0.9999701,-0.006899309,-0.0029717507,-0.0018345136,1.0,0.0,0.0,0.0,0
5375000,5375000,0.99997133,-0.00674223,-0.0029328845,-0.0018111285,1.0,0.0,0.0,0.0,0
5379000,5379000,0.99997246,-0.0065994,-0.002865414,-0.0018151428,1.0,0.0,0.0,0.0,0
5387000,5387000,0.9999745,-0.0063740746,-0.0027547164,-0.0017207349,1.0,0.0,0.0,0.0,0
5391000,5391000,0.9999755,-0.0062340014,-0.0027444034,-0.0016635036,1.0,0.0,0.0,0.0,0
5395000,5395000,0.99997634,-0.0061083003,-0.0027378283,-0.001611615,1.0,0.0,0.0,0.0,0
5403000,5403000,0.99997836,-0.005843944,-0.002646035,-0.0015070215,1.0,0.0,0.0,0.0,0
5407000,5407000,0.9999791,-0.0057254587,-0.0026059567,-0.0015143043,1.0,0.0,0.0,0.0,0
5411000,5411000,0.99997973,-0.0056245634,-0.00257277,-0.0015205282,1.0,0.0,0.0,0.0,0
5415000,5415000,0.99998057,-0.0055020885,-0.0025089134,-0.0014900516,1.0,0.0,0.0,0.0,0
5419000,5419000,0.99998176,-0.005348227,-0.0024279223,-0.001434557,1.0,0.0,0.0,0.0,0
5423000,5423000,0.9999828,-0.0051929783,-0.0023687785,-0.001403945,1.0,0.0,0.0,0.0,0
5427000,5427000,0.9999838,-0.005021711,-0.0023140174,-0.0013924475,1.0,0.0,0.0,0.0,0
5431000,5431000,0.9999848,-0.004850996,-0.002247304,-0.0013864327,1.0,0.0,0.0,0.0,0
5435000,5435000,0.9999857,-0.004693102,-0.0021863668,-0.0013671026,1.0,0.0,0.0,0.0,0
5443000,5443000,0.9999872,-0.0044766264,-0.0020357948,-0.0012378228,1.0,0.0,0.0,0.0,0
5447000,5447000,0.9999876,-0.0044323476,-0.0019607495,-0.0011864057,1.0,0.0,0.0,0.0,0
5451000,5451000,0.9999881,-0.004364166,-0.001909615,-0.0011156606,1.0,0.0,0.0,0.0,0
5455000,5455000,0.9999888,-0.0042481925,-0.001859236,-0.0010315934,1.0,0.0,0.0,0.0,0
5459000,5459000,0.9999896,-0.0040661343,-0.0018026057,-0.00096447434,1.0,0.0,0.0,0.0,0
5463000,5463000,0.9999906,-0.0038511693,-0.0017615822,-0.0009452251,1.0,0.0,0.0,0.0,0
5471000,5471000,0.9999921,-0.0035075475,-0.0016509866,-0.0009869403,1.0,0.0,0.0,0.0,0
5475000,5475000,0.9999925,-0.0033896465,-0.0015939896,-0.0009956767,1.0,0.0,0.0,0.0,0
5479000,5479000,0.9999931,-0.0032480122,-0.0015322834,-0.0010204489,1.0,0.0,0.0,0.0,0
5483000,5483000,0.9999936,-0.0030941018,-0.0014679747,-0.0010601245,1.0,0.0,0.0,0.0,0
5487000,5487000,0.99999416,-0.0029362978,-0.001433556,-0.0010822263,1.0,0.0,0.0,0.0,0
5495000,5495000,0.99999505,-0.0026546842,-0.0013831501,-0.0010455424,1.0,0.0,0.0,0.0,0
5499000,5499000,0.99999547,-0.0024967322,-0.0013726451,-0.0010282418,1.0,0.0,0.0,0.0,0
5503000,5503000,0.99999595,-0.0023192842,-0.00134105,-0.0010259283,1.0,0.0,0.0,0.0,0
5511000,5511000,0.9999968,-0.0020322124,-0.0012008237,-0.0010146882,1.0,0.0,0.0,0.0,0
5515000,5515000,0.999997,-0.001936498,-0.001118219,-0.0009780164,1.0,0.0,0.0,0.0,0
5519000,5519000,0.9999972,-0.0019034239,-0.0010581147,-0.0009302273,1.0,0.0,0.0,0.0,0
5523000,5523000,0.9999973,-0.0018938,-0.0010043648,-0.0008744616,1.0,0.0,0.0,0.0,0
5527000,5527000,0.99999756,-0.001811487,-0.0009185186,-0.0008651082,1.0,0.0,0.0,0.0,0
5531000,5531000,0.9999979,-0.001631692,-0.000836512,-0.00087057217,1.0,0.0,0.0,0.0,0
5535000,5535000,0.9999984,-0.0014384924,-0.0007728507,-0.0008409126,1.0,0.0,0.0,0.0,0
5539000,5539000,0.99999857,-0.0012857539,-0.0006974535,-0.00082301814,1.0,0.0,0.0,0.0,0
5543000,5543000,0.99999887,-0.0011744364,-0.00063676864,-0.0008254405,1.0,0.0,0.0,0.0,0
5547000,5547000,0.999999,-0.0010663512,-0.00059948524,-0.0008006731,1.0,0.0,0.0,0.0,0
5551000,5551000,0.99999917,-0.0009485475,-0.0005582896,-0.00075362495,1.0,0.0,0.0,0.0,0
5555000,5555000,0.99999934,-0.00086002133,-0.00051070156,-0.0007289697,1.0,0.0,0.0,0.0,0
5559000,5559000,0.9999993,-0.00080176577,-0.0004618608,-0.0007113335,1.0,0.0,0.0,0.0,0
5563000,5563000,0.9999995,-0.0007243451,-0.00040768425,-0.00066493073,1.0,0.0,0.0,0.0,0
5567000,5567000,0.9999995,-0.00064527715,-0.00035336585,-0.0006100854,1.0,0.0,0.0,0.0,0
5571000,5571000,0.99999964,-0.00058643013,-0.0002697433,-0.0005595272,1.0,0.0,0.0,0.0,0
5575000,5575000,0.99999976,-0.00053448783,-0.00015778559,-0.0005111918,1.0,0.0,0.0,0.0,0
5579000,5579000,0.9999998,-0.0004367491,-6.7692396e-05,-0.0004692294,1.0,0.0,0.0,0.0,0
5583000,5583000,0.9999999,-0.00030385368,-2.5475356e-05,-0.00042786062,1.0,0.0,0.0,0.0,0
5587000,5587000,0.99999994,-0.0001693723,-1.09557095e-05,-0.0003854179,1.0,0.0,0.0,0.0,0
5591000,5591000,0.99999994,-4.4467724e-05,1.552366e-06,-0.00035315988,1.0,0.0,0.0,0.0,0
5595000,5595000,0.99999994,5.434069e-05,2.205802e-05,-0.0003480664,1.0,0.0,0.0,0.0,0
5599000,5599000,0.99999994,0.00011851336,2.3979483e-05,-0.00038189368,1.0,0.0,0.0,0.0,0
5607000,5607000,0.9999999,0.00027142657,5.6068813e-05,-0.0005214674,1.0,0.0,0.0,0.0,0
5611000,5611000,0.9999999,0.00035964747,0.00010645643,-0.00053346687,1.0,0.0,0.0,0.0,0
5619000,5619000,0.99999976,0.00060065096,0.00014288414,-0.0004675177,1.0,0.0,0.0,0.0,0
5623000,5623000,0.99999976,0.0006964909,0.00021098093,-0.00039963642,1.0,0.0,0.0,0.0,0
5627000,5627000,0.99999964,0.00067620975,0.00027008116,-0.00034931352,1.0,0.0,0.0,0.0,0
5631000,5631000,0.99999976,0.00065613695,0.00032454464,-0.0003596988,1.0,0.0,0.0,0.0,0
5635000,5635000,0.9999996,0.00072874175,0.00039230156,-0.00038661758,1.0,0.0,0.0,0.0,0
5643000,5643000,0.9999995,0.00081214384,0.00041780047,-0.00031155284,1.0,0.0,0.0,0.0,0
5647000,5647000,0.9999996,0.00086615013,0.0004107217,-0.00027133865,1.0,0.0,0.0,0.0,0
5651000,5651000,0.9999995,0.00093666627,0.00041163564,-0.0002401791,1.0,0.0,0.0,0.0,0
5655000,5655000,0.99999946,0.0010092288,0.00038287684,-0.00019887504,1.0,0.0,0.0,0.0,0
5659000,5659000,0.9999994,0.0010871107,0.00035893175,-0.0001783407,1.0,0.0,0.0,0.0,0
5663000,5663000,0.99999934,0.0011468565,0.00037146665,-0.00021680939,1.0,0.0,0.0,0.0,0
5667000,5667000,0.9999992,0.0011719746,0.00036803802,-0.00026220788,1.0,0.0,0.0,0.0,0
5671000,5671000,0.9999992,0.0011620596,0.0003621221,-0.0002579618,1.0,0.0,0.0,0.0,0
5675000,5675000,0.9999992,0.0011580244,0.00039931666,-0.0002270364,1.0,0.0,0.0,0.0,0
5679000,5679000,0.99999917,0.0012058504,0.00044263998,-0.00021731129,1.0,0.0,0.0,0.0,0
5683000,5683000,0.99999905,0.0012967933,0.00044445493,-0.00024600487,1.0,0.0,0.0,0.0,0
5687000,5687000,0.9999989,0.0013784511,0.0004279692,-0.00029376312,1.0,0.0,0.0,0.0,0
5691000,5691000,0.9999988,0.0014558585,0.00045303648,-0.00034625552,1.0,0.0,0.0,0.0,0
5699000,5699000,0.9999986,0.0015503117,0.0005672715,-0.00041462094,1.0,0.0,0.0,0.0,0
5703000,5703000,0.99999857,0.0015759426,0.0005744343,-0.00042101508,1.0,0.0,0.0,0.0,0
5707000,5707000,0.99999857,0.0015738847,0.00058958575,-0.0004193913,1.0,0.0,0.0,0.0,0
5711000,5711000,0.99999845,0.0015718786,0.0006387204,-0.00042766085,1.0,0.0,0.0,0.0,0
5715000,5715000,0.99999845,0.0016247359,0.000695291,-0.00043755193,1.0,0.0,0.0,0.0,0
5723000,5723000,0.99999815,0.0017456955,0.00071129465,-0.00043634663,1.0,0.0,0.0,0.0,0
5727000,5727000,0.99999815,0.0017366341,0.0006820284,-0.00043528172,1.0,0.0,0.0,0.0,0
5731000,5731000,0.99999803,0.0017946707,0.00068209483,-0.00047309336,1.0,0.0,0.0,0.0,0
5735000,5735000,0.9999979,0.001864254,0.00070187025,-0.0005181055,1.0,0.0,0.0,0.0,0
5739000,5739000,0.99999785,0.0018896526,0.00072480604,-0.0005316555,1.0,0.0,0.0,0.0,0
5743000,5743000,0.99999774,0.0019443094,0.0007551917,-0.0005332602,1.0,0.0,0.0,0.0,0
5747000,5747000,0.9999975,0.0020421043,0.0007951688,-0.0005487273,1.0,0.0,0.0,0.0,0
5751000,5751000,0.9999974,0.0021047129,0.00080865645,-0.0005772856,1.0,0.0,0.0,0.0,0
5755000,5755000,0.9999974,0.0021161786,0.0007779247,-0.00058672106,1.0,0.0,0.0,0.0,0
5759000,5759000,0.9999974,0.0020963019,0.00073079875,-0.00056554,1.0,0.0,0.0,0.0,0
5763000,5763000,0.99999756,0.0020540745,0.000723109,-0.00054852135,1.0,0.0,0.0,0.0,0
5767000,5767000,0.9999975,0.0020024888,0.00079336273,-0.0005619452,1.0,0.0,0.0,0.0,0
5771000,5771000,0.9999975,0.0019722187,0.0008961155,-0.0005854407,1.0,0.0,0.0,0.0,0
5775000,5775000,0.9999974,0.0019986806,0.00094296405,-0.0005800399,1.0,0.0,0.0,0.0,0
5779000,5779000,0.9999974,0.0020592024,0.0009285256,-0.00056733674,1.0,0.0,0.0,0.0,0
5783000,5783000,0.9999973,0.0020908557,0.00090890366,-0.00054950867,1.0,0.0,0.0,0.0,0
5787000,5787000,0.9999973,0.002098047,0.00092227035,-0.00050868606,1.0,0.0,0.0,0.0,0
5791000,5791000,0.99999726,0.0020918984,0.00096631184,-0.00051166693,1.0,0.0,0.0,0.0,0
5799000,5799000,0.9999972,0.002073116,0.0010169799,-0.0005876693,1.0,0.0,0.0,0.0,0
5803000,5803000,0.9999972,0.0020738407,0.0010101743,-0.0006085337,1.0,0.0,0.0,0.0,0
5807000,5807000,0.9999972,0.0020704411,0.0009832893,-0.00058487605,1.0,0.0,0.0,0.0,0
5811000,5811000,0.9999973,0.0020505488,0.00094944116,-0.00053778087,1.0,0.0,0.0,0.0,0
5819000,5819000,0.99999756,0.0019803334,0.00091660843,-0.0004795162,1.0,0.0,0.0,0.0,0
5827000,5827000,0.9999977,0.0019766774,0.00081746007,-0.00043826556,1.0,0.0,0.0,0.0,0
5831000,5831000,0.99999774,0.0019698734,0.00075668877,-0.000436445,1.0,0.0,0.0,0.0,0
5835000,5835000,0.99999785,0.0019322076,0.00071024697,-0.0004015498,1.0,0.0,0.0,0.0,0
5839000,5839000,0.99999785,0.0019275082,0.00069940137,-0.00034703483,1.0,0.0,0.0,0.0,0
5847000,5847000,0.9999977,0.0019959635,0.00077782344,-0.0002481071,1.0,0.0,0.0,0.0,0
5851000,5851000,0.9999978,0.00193219,0.00078035466,-0.00022506806,1.0,0.0,0.0,0.0,0
5859000,5859000,0.99999803,0.0018122108,0.00079892174,-0.0002175455,1.0,0.0,0.0,0.0,0
5863000,5863000,0.99999815,0.0018002494,0.00077336485,-0.00018788807,1.0,0.0,0.0,0.0,0
5867000,5867000,0.99999815,0.001834088,0.0007083815,-0.00015673912,1.0,0.0,0.0,0.0,0
5871000,5871000,0.9999982,0.0018329741,0.000627513,-0.00013261245,1.0,0.0,0.0,0.0,0
5875000,5875000,0.9999982,0.0018073465,0.0005781217,-0.0001350442,1.0,0.0,0.0,0.0,0
5879000,5879000,0.9999983,0.0017863048,0.00061729166,-0.00014912052,1.0,0.0,0.0,0.0,0
5883000,5883000,0.9999982,0.0017833813,0.00067028735,-0.0001519979,1.0,0.0,0.0,0.0,0
5887000,5887000,0.99999815,0.001805861,0.00063609454,-0.0001327525,1.0,0.0,0.0,0.0,0
5891000,5891000,0.9999982,0.0018059751,0.0005677893,-9.864074e-05,1.0,0.0,0.0,0.0,0
5895000,5895000,0.99999833,0.001742089,0.00052577746,-6.6111046e-05,1.0,0.0,0.0,0.0,0
5899000,5899000,0.99999857,0.0016627485,0.0004923195,-5.1134768e-05,1.0,0.0,0.0,0.0,0
5903000,5903000,0.9999986,0.0016387557,0.00048635853,-6.389653e-05,1.0,0.0,0.0,0.0,0
5907000,5907000,0.9999985,0.0016462065,0.00051442924,-4.3061937e-05,1.0,0.0,0.0,0.0,0
5915000,5915000,0.9999984,0.0017399627,0.0006130746,3.2621367e-05,1.0,0.0,0.0,0.0,0
5919000,5919000,0.9999983,0.0017740899,0.0006783605,6.938893e-05,1.0,0.0,0.0,0.0,0
5923000,5923000,0.9999981,0.001813011,0.0007042379,0.00010288686,1.0,0.0,0.0,0.0,0
5927000,5927000,0.99999803,0.0018605137,0.00069320365,7.9812206e-05,1.0,0.0,0.0,0.0,0
5931000,5931000,0.99999803,0.0018744564,0.0006843079,5.0906165e-05,1.0,0.0,0.0,0.0,0
5935000,5935000,0.99999803,0.0018662482,0.0006996078,3.7474558e-05,1.0,0.0,0.0,0.0,0
5939000,5939000,0.99999803,0.0018580449,0.0007212853,3.1511638e-05,1.0,0.0,0.0,0.0,0
5943000,5943000,0.99999803,0.0018490144,0.00072681106,3.135187e-05,1.0,0.0,0.0,0.0,0
5947000,5947000,0.999998,0.0018730147,0.00071793806,4.1261428e-05,1.0,0.0,0.0,0.0,0
5951000,5951000,0.9999979,0.0019004344,0.0007317769,6.876594e-05,1.0,0.0,0.0,0.0,0
5955000,5955000,0.999998,0.0018964136,0.0007951788,8.040894e-05,1.0,0.0,0.0,0.0,0
5963000,5963000,0.9999976,0.001988358,0.00088235555,2.0411533e-05,1.0,0.0,0.0,0.0,0
5967000,5967000,0.9999977,0.0020178603,0.00087353645,-1.6609894e-05,1.0,0.0,0.0,0.0,0
5971000,5971000,0.99999756,0.0020282075,0.00086733414,-3.0705873e-05,1.0,0.0,0.0,0.0,0
5975000,5975000,0.9999976,0.0020548522,0.00083749025,-2.196772e-05,1.0,0.0,0.0,0.0,0
5979000,5979000,0.99999756,0.0020745646,0.0008135252,-2.2798993e-05,1.0,0.0,0.0,0.0,0
5983000,5983000,0.9999976,0.00203822,0.0008373973,-1.5497364e-05,1.0,0.0,0.0,0.0,0
5987000,5987000,0.99999774,0.001969921,0.00085433695,-3.9219203e-06,1.0,0.0,0.0,0.0,0
5991000,5991000,0.9999978,0.0019324118,0.00083927665,-6.814821e-06,1.0,0.0,0.0,0.0,0
5995000,5995000,0.99999774,0.0019566957,0.0008444385,-6.6594885e-07,1.0,0.0,0.0,0.0,0
6003000,6003000,0.9999976,0.0020110146,0.00093245745,-2.922277e-05,1.0,0.0,0.0,0.0,0
6007000,6007000,0.99999774,0.0019525829,0.0009328563,-6.9868285e-05,1.0,0.0,0.0,0.0,0
6011000,6011000,0.99999785,0.0018962967,0.00093109306,-9.45414e-05,1.0,0.0,0.0,0.0,0
6015000,6015000,0.99999785,0.0018431493,0.00095694244,-8.453433e-05,1.0,0.0,0.0,0.0,0
6019000,6019000,0.999998,0.0017569769,0.001001976,-7.818848e-05,1.0,0.0,0.0,0.0,0
6023000,6023000,0.9999981,0.0016813853,0.0010240519,-6.0693288e-05,1.0,0.0,0.0,0.0,0
6027000,6027000,0.9999981,0.0016723989,0.0010109239,-1.5628713e-05,1.0,0.0,0.0,0.0,0
6031000,6031000,0.99999803,0.0017256716,0.0009860594,6.467528e-06,1.0,0.0,0.0,0.0,0
6035000,6035000,0.999998,0.0017682589,0.0009633823,-4.4452386e-06,1.0,0.0,0.0,0.0,0
6039000,6039000,0.9999981,0.0017554186,0.000955023,-5.1426814e-06,1.0,0.0,0.0,0.0,0
6043000,6043000,0.9999981,0.0017303324,0.0009887329,-9.608957e-07,1.0,0.0,0.0,0.0,0
6051000,6051000,0.9999982,0.0016380297,0.00097212614,-2.5145953e-05,1.0,0.0,0.0,0.0,0
6059000,6059000,0.99999845,0.0015096895,0.00097051496,-3.804434e-05,1.0,0.0,0.0,0.0,0
6063000,6063000,0.9999985,0.0015171877,0.00090371835,-8.5119675e-05,1.0,0.0,0.0,0.0,0
6067000,6067000,0.99999857,0.0014991288,0.0008193298,-0.000120481236,1.0,0.0,0.0,0.0,0
6075000,6075000,0.9999986,0.001539498,0.00068733795,-0.00017358233,1.0,0.0,0.0,0.0,0
6079000,6079000,0.99999857,0.0015830393,0.0006445423,-0.00018384491,1.0,0.0,0.0,0.0,0
6083000,6083000,0.99999857,0.0015898095,0.00060499937,-0.00022550431,1.0,0.0,0.0,0.0,0
6087000,6087000,0.9999986,0.0015680145,0.0005739825,-0.00026444226,1.0,0.0,0.0,0.0,0
6091000,6091000,0.9999987,0.0015334759,0.00057164335,-0.00024740148,1.0,0.0,0.0,0.0,0
6095000,6095000,0.99999875,0.0014926804,0.0005885202,-0.00022710458,1.0,0.0,0.0,0.0,0
6099000,6099000,0.9999987,0.0014678306,0.0005687036,-0.000248417,1.0,0.0,0.0,0.0,0
6103000,6103000,0.9999988,0.0014926498,0.0005047,-0.00024902113,1.0,0.0,0.0,0.0,0
6107000,6107000,0.9999988,0.0014977903,0.00046300172,-0.0002027106,1.0,0.0,0.0,0.0,0
6111000,6111000,0.9999989,0.0014380455,0.00048098207,-0.00016583997,1.0,0.0,0.0,0.0,0
6115000,6115000,0.9999989,0.0013687111,0.00050749787,-0.00013694176,1.0,0.0,0.0,0.0,0
6119000,6119000,0.9999991,0.0013095953,0.0004855573,-0.00010595514,1.0,0.0,0.0,0.0,0
6123000,6123000,0.99999905,0.0012813507,0.00044981766,-0.00011548191,1.0,0.0,0.0,0.0,0
6131000,6131000,0.9999992,0.0012278815,0.0004732446,-0.0001141152,1.0,0.0,0.0,0.0,0
6135000,6135000,0.9999992,0.0011499786,0.0004849653,-9.047347e-05,1.0,0.0,0.0,0.0,0
6139000,6139000,0.9999993,0.0011178873,0.00048867863,-5.46129e-05,1.0,0.0,0.0,0.0,0
6143000,6143000,0.9999993,0.0011072811,0.000496142,-7.5444405e-06,1.0,0.0,0.0,0.0,0
6147000,6147000,0.99999934,0.0010732374,0.00052438147,3.636297e-05,1.0,0.0,0.0,0.0,0
6151000,6151000,0.9999993,0.001051102,0.0005829714,0.00010109898,1.0,0.0,0.0,0.0,0
6155000,6155000,0.9999993,0.001051344,0.00063090085,0.0001753981,1.0,0.0,0.0,0.0,0
6159000,6159000,0.9999993,0.0010427096,0.0006331121,0.0002203894,1.0,0.0,0.0,0.0,0
6167000,6167000,0.99999934,0.0010064067,0.0006168474,0.00029441254,1.0,0.0,0.0,0.0,0
6171000,6171000,0.99999917,0.0010730252,0.0006042383,0.00034150176,1.0,0.0,0.0,0.0,0
6175000,6175000,0.99999917,0.0011606338,0.00055977463,0.00034170004,1.0,0.0,0.0,0.0,0
6179000,6179000,0.9999992,0.0011720782,0.00048227923,0.00032645566,1.0,0.0,0.0,0.0,0
6187000,6187000,0.9999993,0.0011075096,0.0004744092,0.0003004988,1.0,0.0,0.0,0.0,0
6195000,6195000,0.99999934,0.0010785533,0.0003926381,0.00019194686,1.0,0.0,0.0,0.0,0
6203000,6203000,0.99999946,0.0009945452,0.0003099734,0.00013726437,1.0,0.0,0.0,0.0,0
6211000,6211000,0.9999995,0.00094292016,0.00029294795,0.00019667708,1.0,0.0,0.0,0.0,0
6215000,6215000,0.9999995,0.00095536275,0.00029934224,0.00021735771,1.0,0.0,0.0,0.0,0
6219000,6219000,0.99999946,0.0009225339,0.00030465456,0.00024497518,1.0,0.0,0.0,0.0,0
6227000,6227000,0.9999996,0.0007757461,0.00026466697,0.00032900635,1.0,0.0,0.0,0.0,0
6235000,6235000,0.9999997,0.00075814314,0.00017809418,0.00031714677,1.0,0.0,0.0,0.0,0
6239000,6239000,0.9999997,0.0007630086,0.00019209519,0.000324599,1.0,0.0,0.0,0.0,0
6243000,6243000,0.9999997,0.0007694782,0.00021139134,0.00037360023,1.0,0.0,0.0,0.0,0
6247000,6247000,0.9999997,0.0007813826,0.00022334601,0.00038320423,1.0,0.0,0.0,0.0,0
6251000,6251000,0.9999997,0.0007831604,0.0002422351,0.0003747065,1.0,0.0,0.0,0.0,0
6259000,6259000,0.99999964,0.0006805655,0.00019631538,0.0004930072,1.0,0.0,0.0,0.0,0
6263000,6263000,0.99999976,0.0006448169,0.00016151821,0.0004776014,1.0,0.0,0.0,0.0,0
6271000,6271000,0.9999997,0.0007055254,0.00011349528,0.00033495133,1.0,0.0,0.0,0.0,0
6275000,6275000,0.9999997,0.0007071957,8.099324e-05,0.0003014508,1.0,0.0,0.0,0.0,0
6279000,6279000,0.99999976,0.00065676175,2.6180827e-05,0.00026476433,1.0,0.0,0.0,0.0,0
6283000,6283000,0.9999998,0.00060046767,-2.1727903e-05,0.00025684483,1.0,0.0,0.0,0.0,0
6291000,6291000,0.99999994,0.00051083276,-3.70081e-05,0.00028903256,1.0,0.0,0.0,0.0,0
6295000,6295000,0.9999998,0.00047593948,-7.780231e-05,0.00030406457,1.0,0.0,0.0,0.0,0
6299000,6299000,0.9999998,0.00049430964,-0.000119112425,0.00031803525,1.0,0.0,0.0,0.0,0
6303000,6303000,0.9999998,0.00051919644,-0.00013050604,0.0003059411,1.0,0.0,0.0,0.0,0
6307000,6307000,0.9999998,0.00053182937,-0.00012858435,0.0002874606,1.0,0.0,0.0,0.0,0
6311000,6311000,0.9999998,0.00053298834,-0.00016442391,0.00030253173,1.0,0.0,0.0,0.0,0
6315000,6315000,0.9999998,0.00052776013,-0.00022584252,0.00033782824,1.0,0.0,0.0,0.0,0
6323000,6323000,0.9999998,0.0004947341,-0.00031397212,0.0003823695,1.0,0.0,0.0,0.0,0
6327000,6327000,0.9999998,0.00050052506,-0.00032621063,0.0003724559,1.0,0.0,0.0,0.0,0
6331000,6331000,0.9999998,0.0004999156,-0.00031927938,0.00036787608,1.0,0.0,0.0,0.0,0
6335000,6335000,0.9999998,0.0004973145,-0.00026855548,0.00037878062,1.0,0.0,0.0,0.0,0
6339000,6339000,0.9999998,0.0005250678,-0.00020770318,0.0003960896,1.0,0.0,0.0,0.0,0
6343000,6343000,0.9999997,0.00055351906,-0.00021122202,0.00043202206,1.0,0.0,0.0,0.0,0
6347000,6347000,0.9999998,0.000557475,-0.00021260256,0.00043492785,1.0,0.0,0.0,0.0,0
6355000,6355000,0.9999999,0.00043494112,-7.895484e-05,0.00034654472,1.0,0.0,0.0,0.0,0
6363000,6363000,0.9999999,0.00039872786,-3.7863927e-05,0.00039983116,1.0,0.0,0.0,0.0,0
6367000,6367000,0.9999999,0.0003996024,2.5402223e-05,0.00039534696,1.0,0.0,0.0,0.0,0
6371000,6371000,0.9999999,0.0004015445,8.069229e-05,0.0003583689,1.0,0.0,0.0,0.0,0
6375000,6375000,0.9999999,0.00042647758,0.00013074001,0.00032885585,1.0,0.0,0.0,0.0,0
6379000,6379000,0.9999999,0.00045834263,0.00017704148,0.00034621207,1.0,0.0,0.0,0.0,0
6383000,6383000,0.7031812,0.00017754377,0.00049012544,0.7110105,0.70346093,-1.1695533e-11,5.592682e-11,0.7107339,1
6387000,6387000,0.7031742,0.0001669371,0.0004976123,0.7110175,0.70346093,-1.1695533e-11,5.592682e-11,0.7107339,1
6395000,6395000,0.70319307,0.00013236146,0.0004128677,0.71099883,0.70346093,-1.1695533e-11,5.592682e-11,0.7107339,1
6399000,6399000,0.7031997,8.728925e-05,0.00039171297,0.7109924,0.70346093,-1.1695533e-11,5.592682e-11,0.7107339,1
6403000,6403000,0.70322067,8.674592e-05,0.00035347993,0.71097165,0.70346093,-1.1695533e-11,5.592682e-11,0.7107339,1
6407000,6407000,0.70324653,9.590342e-05,0.00031687308,0.710946,0.70346093,-1.1695533e-11,5.592682e-11,0.7107339,1
6411000,6411000,0.70326674,0.00011203286,0.00031457702,0.71092606,0.70346093,-1.1695533e-11,5.592682e-11,0.7107339,1
6415000,6415000,0.70327216,0.00011724062,0.00031352707,0.7109207,0.70346093,-1.1695533e-11,5.592682e-11,0.7107339,1
6419000,6419000,0.7032598,0.00010148753,0.0002897628,0.7109329,0.70346093,-1.1695533e-11,5.592682e-11,0.7107339,1
6423000,6423000,0.7032433,8.170259e-05,0.00024908362,0.71094924,0.70346093,-1.1695533e-11,5.592682e-11,0.7107339,1
6427000,6427000,0.70322603,6.91004e-05,0.00020354729,0.71096635,0.70346093,-1.1695533e-11,5.592682e-11,0.7107339,1
6435000,6435000,0.7031763,9.396199e-05,0.00017997665,0.7110156,0.70346093,-1.1695533e-11,5.592682e-11,0.7107339,1
6443000,6443000,0.7031686,9.846292e-05,0.00021860348,0.7110232,0.70346093,-1.1695533e-11,5.592682e-11,0.7107339,1
6447000,6447000,0.7032009,0.0001300973,0.00020602082,0.71099126,0.70346093,-1.1695533e-11,5.592682e-11,0.7107339,1
6451000,6451000,0.70323014,0.00015157838,0.00019074533,0.7109623,0.70346093,-1.1695533e-11,5.592682e-11,0.7107339,1
6455000,6455000,0.7032086,0.00017073206,0.00018692626,0.7109836,0.70346093,-1.1695533e-11,5.592682e-11,0.7107339,1
6463000,6463000,0.70321524,0.000235344,0.00018559543,0.710977,0.70346093,-1.1695533e-11,5.592682e-11,0.7107339,1
6467000,6467000,0.70324296,0.00027967073,0.00018845277,0.7109496,0.70346093,-1.1695533e-11,5.592682e-11,0.7107339,1
6471000,6471000,0.70319915,0.00033906824,0.0001929711,0.71099293,0.70346093,-1.1695533e-11,5.592682e-11,0.7107339,1
6475000,6475000,0.7031663,0.0003627936,0.0001773373,0.7110254,0.70346093,-1.1695533e-11,5.592682e-11,0.7107339,1
6479000,6479000,0.70318186,0.00038167697,0.0001477984,0.7110099,0.70346093,-1.1695533e-11,5.592682e-11,0.7107339,1
6483000,6483000,0.70318425,0.00038527758,8.992013e-05,0.7110076,0.70346093,-1.1695533e-11,5.592682e-11,0.7107339,1
6487000,6487000,0.7031627,0.0003542902,3.5637637e-05,0.7110289,0.70346093,-1.1695533e-11,5.592682e-11,0.7107339,1
6491000,6491000,0.70313895,0.00032111214,3.6706842e-05,0.7110524,0.70346093,-1.1695533e-11,5.592682e-11,0.7107339,1
6495000,6495000,0.7031193,0.00030679337,3.7903174e-05,0.71107185,0.70346093,-1.1695533e-11,5.592682e-11,0.7107339,1
6499000,6499000,0.7030686,0.00030710993,-1.8079818e-05,0.71112204,0.70346093,-1.1695533e-11,5.592682e-11,0.7107339,1
6507000,6507000,0.7029543,0.00030858986,-0.00015033734,0.711235,0.70346093,-1.1695533e-11,5.592682e-11,0.7107339,1
6515000,6515000,0.7028945,0.00036424233,-0.0002041444,0.711294,0.70346093,-1.1695533e-11,5.592682e-11,0.7107339,1
6523000,6523000,0.702923,0.0004453703,-0.00016165202,0.7112658,0.70346093,-1.1695533e-11,5.592682e-11,0.7107339,1
6531000,6531000,0.7028437,0.00047701632,-0.000157187,0.7113441,0.70346093,-1.1695533e-11,5.592682e-11,0.7107339,1
6535000,6535000,0.7027808,0.000523938,-0.00018340761,0.71140635,0.70346093,-1.1695533e-11,5.592682e-11,0.7107339,1
6543000,6543000,0.7027298,0.00045869214,-0.00019831475,0.7114567,0.70346093,-1.1695533e-11,5.592682e-11,0.7107339,1
6547000,6547000,0.70272326,0.00047617007,-0.00020128574,0.71146315,0.70346093,-1.1695533e-11,5.592682e-11,0.7107339,1
6551000,6551000,0.70272315,0.00049081026,-0.0002268957,0.7114633,0.70346093,-1.1695533e-11,5.592682e-11,0.7107339,1
6555000,6555000,0.7027488,0.00047269053,-0.00025231362,0.71143794,0.70346093,-1.1695533e-11,5.592682e-11,0.7107339,1
6559000,6559000,0.70277214,0.0004342914,-0.00028687427,0.7114149,0.70346093,-1.1695533e-11,5.592682e-11,0.7107339,1
6563000,6563000,0.7027504,0.00043261526,-0.00035551182,0.71143633,0.70346093,-1.1695533e-11,5.592682e-11,0.7107339,1
6567000,6567000,0.70271915,0.00047484,-0.00039561468,0.71146715,0.70346093,-1.1695533e-11,5.592682e-11,0.7107339,1
6571000,6571000,0.7027069,0.0005046135,-0.00036949414,0.71147925,0.70346093,-1.1695533e-11,5.592682e-11,0.7107339,1
6579000,6579000,0.70273346,0.00052080344,-0.0002959617,0.71145296,0.70346093,-1.1695533e-11,5.592682e-11,0.7107339,1
6587000,6587000,0.7027548,0.00047284662,-0.0003192114,0.711432,0.70346093,-1.1695533e-11,5.592682e-11,0.7107339,1
6591000,6591000,0.70275235,0.00045866225,-0.0002967034,0.7114344,0.70346093,-1.1695533e-11,5.592682e-11,0.7107339,1
6595000,6595000,0.70273435,0.00040009947,-0.00028577665,0.7114522,0.70346093,-1.1695533e-11,5.592682e-11,0.7107339,1
6599000,6599000,0.7027263,0.00032207358,-0.00028850813,0.7114601,0.70346093,-1.1695533e-11,5.592682e-11,0.7107339,1
6607000,6607000,0.70277816,0.00016184736,-0.00021408264,0.71140903,0.70346093,-1.1695533e-11,5.592682e-11,0.7107339,1
6611000,6611000,0.70281523,0.00015880603,-0.00021065059,0.71137244,0.70346093,-1.1695533e-11,5.592682e-11,0.7107339,1
6615000,6615000,0.7028503,0.00019215055,-0.00022890166,0.7113378,0.70346093,-1.1695533e-11,5.592682e-11,0.7107339,1
6623000,6623000,0.7028884,0.00010252279,-0.00025171664,0.71130013,0.70346093,-1.1695533e-11,5.592682e-11,0.7107339,1
6627000,6627000,0.7029184,5.2245286e-05,-0.0002554646,0.7112705,0.70346093,-1.1695533e-11,5.592682e-11,0.7107339,1
6631000,6631000,0.70295966,2.0060834e-05,-0.00024259195,0.71122974,0.70346093,-1.1695533e-11,5.592682e-11,0.7107339,1
6635000,6635000,0.7029668,6.061275e-06,-0.00024995173,0.71122265,0.70346093,-1.1695533e-11,5.592682e-11,0.7107339,1
6643000,6643000,0.70291054,5.8711783e-05,-0.0002739602,0.71127826,0.70346093,-1.1695533e-11,5.592682e-11,0.7107339,1
6651000,6651000,0.702877,0.00014231222,-0.00032041853,0.71131146,0.70346093,-1.1695533e-11,5.592682e-11,0.7107339,1
6655000,6655000,0.7028677,0.00012283683,-0.0003659055,0.7113206,0.70346093,-1.1695533e-11,5.592682e-11,0.7107339,1
6659000,6659000,0.7028508,0.000110294255,-0.00043771666,0.7113372,0.70346093,-1.1695533e-11,5.592682e-11,0.7107339,1
6663000,6663000,0.70284826,0.0001358176,-0.00050220604,0.7113397,0.70346093,-1.1695533e-11,5.592682e-11,0.7107339,1
6671000,6671000,0.70284855,0.00016429847,-0.00050175114,0.7113394,0.70346093,-1.1695533e-11,5.592682e-11,0.7107339,1
6679000,6679000,0.7027458,0.00018851635,-0.0005457112,0.71144086,0.70346093,-1.1695533e-11,5.592682e-11,0.7107339,1
6683000,6683000,0.70269746,0.00018642163,-0.0005843152,0.7114886,0.70346093,-1.1695533e-11,5.592682e-11,0.7107339,1
6687000,6687000,0.70267516,0.00016441045,-0.0005657401,0.7115106,0.70346093,-1.1695533e-11,5.592682e-11,0.7107339,1
6691000,6691000,0.70268625,0.00017724207,-0.0005134192,0.7114997,0.70346093,-1.1695533e-11,5.592682e-11,0.7107339,1
6695000,6695000,0.70270216,0.00024182184,-0.0004821854,0.711484,0.70346093,-1.1695533e-11,5.592682e-11,0.7107339,1
6703000,6703000,0.70261675,0.0003408417,-0.00062373333,0.7115682,0.70346093,-1.1695533e-11,5.592682e-11,0.7107339,1
6707000,6707000,0.7025576,0.0003434227,-0.0006961396,0.7116265,0.70346093,-1.1695533e-11,5.592682e-11,0.7107339,1
6711000,6711000,0.70255715,0.00035239104,-0.0006976766,0.711627,0.70346093,-1.1695533e-11,5.592682e-11,0.7107339,1
6715000,6715000,0.70259225,0.00038853975,-0.0007035416,0.71159226,0.70346093,-1.1695533e-11,5.592682e-11,0.7107339,1
6723000,6723000,0.70260024,0.00037330383,-0.00075843895,0.7115843,0.70346093,-1.1695533e-11,5.592682e-11,0.7107339,1
6727000,6727000,0.70259506,0.00030341963,-0.00079740613,0.7115894,0.70346093,-1.1695533e-11,5.592682e-11,0.7107339,1
6731000,6731000,0.7025804,0.00027048626,-0.0008444282,0.7116038,0.70346093,-1.1695533e-11,5.592682e-11,0.7107339,1
6739000,6739000,0.7025236,0.00020213089,-0.0008485022,0.7116599,0.70346093,-1.1695533e-11,5.592682e-11,0.7107339,1
6747000,6747000,0.7024083,0.00015557205,-0.0007971027,0.71177375,0.70346093,-1.1695533e-11,5.592682e-11,0.7107339,1
6751000,6751000,0.70235187,0.00020354844,-0.000781866,0.71182954,0.70346093,-1.1695533e-11,5.592682e-11,0.7107339,1
6755000,6755000,0.7023226,0.00026973843,-0.0007823183,0.71185833,0.70346093,-1.1695533e-11,5.592682e-11,0.7107339,1
6763000,6763000,0.702313,0.00032038812,-0.00083123776,0.71186775,0.70346093,-1.1695533e-11,5.592682e-11,0.7107339,1
6767000,6767000,0.70231366,0.00030817036,-0.00081716763,0.7118671,0.70346093,-1.1695533e-11,5.592682e-11,0.7107339,1
6775000,6775000,0.70232856,0.00019835193,-0.0007481765,0.7118525,0.70346093,-1.1695533e-11,5.592682e-11,0.7107339,1
6783000,6783000,0.7023342,6.828346e-05,-0.0007512838,0.71184695,0.70346093,-1.1695533e-11,5.592682e-11,0.7107339,1
6787000,6787000,0.7023196,8.0448095e-05,-0.0007822668,0.7118614,0.70346093,-1.1695533e-11,5.592682e-11,0.7107339,1
6791000,6791000,0.70228124,0.000102894264,-0.0007792931,0.7118992,0.70346093,-1.1695533e-11,5.592682e-11,0.7107339,1
6795000,6795000,0.70222163,0.00012523023,-0.0007635175,0.71195805,0.70346093,-1.1695533e-11,5.592682e-11,0.7107339,1
6799000,6799000,0.7021788,0.00015184509,-0.0007661707,0.7120003,0.70346093,-1.1695533e-11,5.592682e-11,0.7107339,1
6803000,6803000,0.70216244,0.00016667746,-0.0008035508,0.71201634,0.70346093,-1.1695533e-11,5.592682e-11,0.7107339,1
6807000,6807000,0.7021477,0.00016044443,-0.00084560254,0.71203077,0.70346093,-1.1695533e-11,5.592682e-11,0.7107339,1
6811000,6811000,0.70212585,0.00014073943,-0.00084745,0.71205235,0.70346093,-1.1695533e-11,5.592682e-11,0.7107339,1
6815000,6815000,0.70209867,0.00016453669,-0.00082489365,0.7120792,0.70346093,-1.1695533e-11,5.592682e-11,0.7107339,1
6819000,6819000,0.7020767,0.00022915323,-0.0008216331,0.7121009,0.70346093,-1.1695533e-11,5.592682e-11,0.7107339,1
6823000,6823000,0.70206016,0.00025472135,-0.0008359767,0.7121172,0.70346093,-1.1695533e-11,5.592682e-11,0.7107339,1
6831000,6831000,0.7020413,0.00023961418,-0.00081730034,0.7121357,0.70346093,-1.1695533e-11,5.592682e-11,0.7107339,1
6835000,6835000,0.7020683,0.00020295117,-0.0007612683,0.71210915,0.70346093,-1.1695533e-11,5.592682e-11,0.7107339,1
6843000,6843000,0.70210636,0.00016474239,-0.00072053215,0.7120717,0.70346093,-1.1695533e-11,5.592682e-11,0.7107339,1
6847000,6847000,0.702142,0.000228373,-0.0007349871,0.7120365,0.70346093,-1.1695533e-11,5.592682e-11,0.7107339,1
6851000,6851000,0.7021819,0.0002506116,-0.00075424934,0.71199715,0.70346093,-1.1695533e-11,5.592682e-11,0.7107339,1
6859000,6859000,0.70215434,0.0003131834,-0.00070607796,0.7120244,0.70346093,-1.1695533e-11,5.592682e-11,0.7107339,1
6863000,6863000,0.7021438,0.0003176354,-0.000713792,0.7120348,0.70346093,-1.1695533e-11,5.592682e-11,0.7107339,1
6867000,6867000,0.7021647,0.000300038,-0.00074160815,0.7120142,0.70346093,-1.1695533e-11,5.592682e-11,0.7107339,1
6871000,6871000,0.7022032,0.00025654494,-0.0007714585,0.7119762,0.70346093,-1.1695533e-11,5.592682e-11,0.7107339,1
6875000,6875000,0.7022319,0.00020438667,-0.0008025021,0.71194786,0.70346093,-1.1695533e-11,5.592682e-11,0.7107339,1
6879000,6879000,0.7022486,0.00016192667,-0.0008131217,0.71193135,0.70346093,-1.1695533e-11,5.592682e-11,0.7107339,1
6883000,6883000,0.7022436,0.00011407644,-0.00081022375,0.71193624,0.70346093,-1.1695533e-11,5.592682e-11,0.7107339,1
6887000,6887000,0.7022243,8.6119384e-05,-0.00079021894,0.7119553,0.70346093,-1.1695533e-11,5.592682e-11,0.7107339,1
6891000,6891000,0.7022354,8.51827e-05,-0.0007511933,0.7119445,0.70346093,-1.1695533e-11,5.592682e-11,0.7107339,1
6895000,6895000,0.70226824,5.184064e-05,-0.00069805223,0.71191216,0.70346093,-1.1695533e-11,5.592682e-11,0.7107339,1
6899000,6899000,0.7022852,-3.094204e-06,-0.00062886387,0.7118955,0.70346093,-1.1695533e-11,5.592682e-11,0.7107339,1
6903000,6903000,0.70227075,-9.011816e-06,-0.00056308496,0.71190983,0.70346093,-1.1695533e-11,5.592682e-11,0.7107339,1
6907000,6907000,0.7022665,3.9249484e-05,-0.00048789766,0.71191406,0.70346093,-1.1695533e-11,5.592682e-11,0.7107339,1
6915000,6915000,0.70228964,0.00016358252,-0.00047400224,0.7118912,0.70346093,-1.1695533e-11,5.592682e-11,0.7107339,1
6923000,6923000,0.7023084,0.00027273467,-0.00059236394,0.71187264,0.70346093,-1.1695533e-11,5.592682e-11,0.7107339,1
6927000,6927000,0.70228434,0.00032102363,-0.00060826226,0.7118963,0.70346093,-1.1695533e-11,5.592682e-11,0.7107339,1
6931000,6931000,0.70228416,0.00034981567,-0.00063407456,0.71189636,0.70346093,-1.1695533e-11,5.592682e-11,0.7107339,1
6935000,6935000,0.7023072,0.00037687868,-0.00067078584,0.7118736,0.70346093,-1.1695533e-11,5.592682e-11,0.7107339,1
6939000,6939000,0.7022977,0.000400007,-0.00068720273,0.711883,0.70346093,-1.1695533e-11,5.592682e-11,0.7107339,1
6943000,6943000,0.70226246,0.00040353488,-0.00069620943,0.71191776,0.70346093,-1.1695533e-11,5.592682e-11,0.7107339,1
6947000,6947000,0.7022409,0.0003796937,-0.0007215907,0.71193904,0.70346093,-1.1695533e-11,5.592682e-11,0.7107339,1
6951000,6951000,0.70220464,0.00035535553,-0.0007778416,0.71197474,0.70346093,-1.1695533e-11,5.592682e-11,0.7107339,1
6955000,6955000,0.70213574,0.0003525189,-0.0008441289,0.71204257,0.70346093,-1.1695533e-11,5.592682e-11,0.7107339,1
6959000,6959000,0.70208496,0.00034301664,-0.0008618434,0.71209264,0.70346093,-1.1695533e-11,5.592682e-11,0.7107339,1
6963000,6963000,0.70207554,0.00030347847,-0.0008326716,0.712102,0.70346093,-1.1695533e-11,5.592682e-11,0.7107339,1
6967000,6967000,0.7020973,0.000264133,-0.0008170187,0.71208054,0.70346093,-1.1695533e-11,5.592682e-11,0.7107339,1
6971000,6971000,0.70211864,0.00024320507,-0.00084944535,0.71205944,0.70346093,-1.1695533e-11,5.592682e-11,0.7107339,1
6975000,6975000,0.70213205,0.00024720622,-0.0008846873,0.7120462,0.70346093,-1.1695533e-11,5.592682e-11,0.7107339,1
6979000,6979000,0.7021621,0.00027902416,-0.00090918277,0.7120165,0.70346093,-1.1695533e-11,5.592682e-11,0.7107339,1
6987000,6987000,0.7022295,0.00031010332,-0.0009154083,0.71195,0.70346093,-1.1695533e-11,5.592682e-11,0.7107339,1
6991000,6991000,0.70227253,0.0003121619,-0.00091933826,0.71190757,0.70346093,-1.1695533e-11,5.592682e-11,0.7107339,1
6995000,6995000,0.702289,0.00031811657,-0.0009473579,0.7118913,0.70346093,-1.1695533e-11,5.592682e-11,0.7107339,1
6999000,6999000,0.7022755,0.00030660484,-0.0009513788,0.7119046,0.70346093,-1.1695533e-11,5.592682e-11,0.7107339,1
7003000,7003000,0.70222986,0.00028201926,-0.0009223583,0.7119497,0.70346093,-1.1695533e-11,5.592682e-11,0.7107339,1
7007000,7007000,0.70217466,0.00027998167,-0.0008788489,0.7120041,0.70346093,-1.1695533e-11,5.592682e-11,0.7107339,1
7011000,7011000,0.7021384,0.0003062478,-0.0008400316,0.71203995,0.70346093,-1.1695533e-11,5.592682e-11,0.7107339,1
7015000,7015000,0.7021333,0.00031059515,-0.00083033013,0.712045,0.70346093,-1.1695533e-11,5.592682e-11,0.7107339,1
7019000,7019000,0.7021399,0.00030115072,-0.0008391755,0.7120385,0.70346093,-1.1695533e-11,5.592682e-11,0.7107339,1
7023000,7023000,0.702126,0.0003059431,-0.0008320855,0.7120522,0.70346093,-1.1695533e-11,5.592682e-11,0.7107339,1
7027000,7027000,0.7021133,0.00031054794,-0.00085173757,0.7120648,0.70346093,-1.1695533e-11,5.592682e-11,0.7107339,1
7031000,7031000,0.70211416,0.00029939789,-0.0009230687,0.7120638,0.70346093,-1.1695533e-11,5.592682e-11,0.7107339,1
7039000,7039000,0.7021365,0.00032013032,-0.001013797,0.7120417,0.70346093,-1.1695533e-11,5.592682e-11,0.7107339,1
7043000,7043000,0.70215744,0.00038607258,-0.0010563069,0.7120209,0.70346093,-1.1695533e-11,5.592682e-11,0.7107339,1
7047000,7047000,0.7021667,0.00042221864,-0.0010873313,0.7120117,0.70346093,-1.1695533e-11,5.592682e-11,0.7107339,1
7051000,7051000,0.702157,0.00042874974,-0.001088442,0.7120212,0.70346093,-1.1695533e-11,5.592682e-11,0.7107339,1
7055000,7055000,0.7021482,0.00044688256,-0.0010709933,0.7120299,0.70346093,-1.1695533e-11,5.592682e-11,0.7107339,1
7059000,7059000,0.702134,0.0004956162,-0.0010680226,0.7120439,0.70346093,-1.1695533e-11,5.592682e-11,0.7107339,1
7063000,7063000,0.7021138,0.00052705815,-0.0010636485,0.7120638,0.70346093,-1.1695533e-11,5.592682e-11,0.7107339,1
7067000,7067000,0.70209897,0.00052668655,-0.0010331299,0.7120785,0.70346093,-1.1695533e-11,5.592682e-11,0.7107339,1
7071000,7071000,0.70208377,0.00053317106,-0.0010063077,0.71209353,0.70346093,-1.1695533e-11,5.592682e-11,0.7107339,1
7075000,7075000,0.702078,0.0005859203,-0.0010220875,0.7120992,0.70346093,-1.1695533e-11,5.592682e-11,0.7107339,1
7079000,7079000,0.7020783,0.000636115,-0.0010412494,0.71209884,0.70346093,-1.1695533e-11,5.592682e-11,0.7107339,1
7083000,7083000,0.7020783,0.00062405766,-0.0010454105,0.71209884,0.70346093,-1.1695533e-11,5.592682e-11,0.7107339,1
7087000,7087000,0.70206845,0.0006103611,-0.0010793258,0.7121085,0.70346093,-1.1695533e-11,5.592682e-11,0.7107339,1
7091000,7091000,0.70204073,0.00061645644,-0.0010931537,0.71213573,0.70346093,-1.1695533e-11,5.592682e-11,0.7107339,1
7095000,7095000,0.70201504,0.0006004396,-0.0010626753,0.7121611,0.70346093,-1.1695533e-11,5.592682e-11,0.7107339,1
7103000,7103000,0.7020029,0.00048673403,-0.0010577362,0.71217316,0.70346093,-1.1695533e-11,5.592682e-11,0.7107339,1
7107000,7107000,0.7019948,0.00046204453,-0.0010782491,0.7121812,0.70346093,-1.1695533e-11,5.592682e-11,0.7107339,1
7115000,7115000,0.70203924,0.0003973094,-0.0012115996,0.7121372,0.70346093,-1.1695533e-11,5.592682e-11,0.7107339,1
7119000,7119000,0.7019999,0.00037030168,-0.0012731749,0.71217585,0.70346093,-1.1695533e-11,5.592682e-11,0.7107339,1
7123000,7123000,0.7019394,0.00038576245,-0.0012749467,0.7122355,0.70346093,-1.1695533e-11,5.592682e-11,0.7107339,1
7131000,7131000,0.70192075,0.0004052421,-0.0012227613,0.712254,0.70346093,-1.1695533e-11,5.592682e-11,0.7107339,1
7135000,7135000,0.70193785,0.00037347106,-0.0012771734,0.71223694,0.70346093,-1.1695533e-11,5.592682e-11,0.7107339,1
7139000,7139000,0.7019436,0.00038111222,-0.0013158624,0.7122312,0.70346093,-1.1695533e-11,5.592682e-11,0.7107339,1
7143000,7143000,0.7019278,0.00036683632,-0.0012933234,0.71224684,0.70346093,-1.1695533e-11,5.592682e-11,0.7107339,1
7147000,7147000,0.70189947,0.00033080947,-0.0012867681,0.7122748,0.70346093,-1.1695533e-11,5.592682e-11,0.7107339,1
7151000,7151000,0.7018748,0.00033286208,-0.0013311482,0.712299,0.70346093,-1.1695533e-11,5.592682e-11,0.7107339,1
7155000,7155000,0.7018607,0.0003617325,-0.0013832352,0.71231276,0.70346093,-1.1695533e-11,5.592682e-11,0.7107339,1
7163000,7163000,0.70186585,0.0004269629,-0.0015148183,0.71230745,0.70346093,-1.1695533e-11,5.592682e-11,0.7107339,1
7167000,7167000,0.7018858,0.00047283326,-0.0015558259,0.71228766,0.70346093,-1.1695533e-11,5.592682e-11,0.7107339,1
7171000,7171000,0.70188004,0.00051912875,-0.001559937,0.7122933,0.70346093,-1.1695533e-11,5.592682e-11,0.7107339,1
7175000,7175000,0.7018507,0.00055025093,-0.0015521188,0.7123222,0.70346093,-1.1695533e-11,5.592682e-11,0.7107339,1
7179000,7179000,0.7018537,0.0005353176,-0.0015713585,0.7123192,0.70346093,-1.1695533e-11,5.592682e-11,0.7107339,1
7183000,7183000,0.70186734,0.000495713,-0.0015580013,0.7123059,0.70346093,-1.1695533e-11,5.592682e-11,0.7107339,1
7191000,7191000,0.70191383,0.0005064019,-0.001506126,0.7122602,0.70346093,-1.1695533e-11,5.592682e-11,0.7107339,1
7195000,7195000,0.70189893,0.00048683185,-0.0015073245,0.71227485,0.70346093,-1.1695533e-11,5.592682e-11,0.7107339,1
7199000,7199000,0.70186853,0.00043222602,-0.0015084115,0.71230483,0.70346093,-1.1695533e-11,5.592682e-11,0.7107339,1
7203000,7203000,0.7018495,0.00036468793,-0.0015400948,0.7123235,0.70346093,-1.1695533e-11,5.592682e-11,0.7107339,1
7211000,7211000,0.7018268,0.00038596877,-0.0015996537,0.7123457,0.70346093,-1.1695533e-11,5.592682e-11,0.7107339,1
7215000,7215000,0.70181334,0.00040524467,-0.0016487656,0.7123589,0.70346093,-1.1695533e-11,5.592682e-11,0.7107339,1
7219000,7219000,0.70180666,0.0004125296,-0.0017039893,0.7123653,0.70346093,-1.1695533e-11,5.592682e-11,0.7107339,1
7227000,7227000,0.7017884,0.00040598915,-0.0017577225,0.71238315,0.70346093,-1.1695533e-11,5.592682e-11,0.7107339,1
7231000,7231000,0.7017553,0.00038005164,-0.0017555817,0.7124159,0.70346093,-1.1695533e-11,5.592682e-11,0.7107339,1
7235000,7235000,0.70171034,0.00037380002,-0.001770624,0.71246016,0.70346093,-1.1695533e-11,5.592682e-11,0.7107339,1
7239000,7239000,0.70166844,0.00036442225,-0.0018169497,0.7125013,0.70346093,-1.1695533e-11,5.592682e-11,0.7107339,1
7243000,7243000,0.70163566,0.0003755647,-0.0018348659,0.71253353,0.70346093,-1.1695533e-11,5.592682e-11,0.7107339,1
7247000,7247000,0.70158917,0.00042744065,-0.0018136812,0.7125793,0.70346093,-1.1695533e-11,5.592682e-11,0.7107339,1
7255000,7255000,0.7015136,0.0005347499,-0.0018816291,0.71265346,0.70346093,-1.1695533e-11,5.592682e-11,0.7107339,1
7259000,7259000,0.7014948,0.00056828023,-0.0018639612,0.7126719,0.70346093,-1.1695533e-11,5.592682e-11,0.7107339,1
7263000,7263000,0.7014556,0.000573945,-0.001840423,0.71271056,0.70346093,-1.1695533e-11,5.592682e-11,0.7107339,1
7267000,7267000,0.7014271,0.0005235064,-0.0018154399,0.7127387,0.70346093,-1.1695533e-11,5.592682e-11,0.7107339,1
7271000,7271000,0.70142895,0.00044803703,-0.0017931919,0.71273696,0.70346093,-1.1695533e-11,5.592682e-11,0.7107339,1
7275000,7275000,0.70144707,0.00042370192,-0.0018017862,0.7127192,0.70346093,-1.1695533e-11,5.592682e-11,0.7107339,1
7279000,7279000,0.70145905,0.0004245038,-0.0017871273,0.7127074,0.70346093,-1.1695533e-11,5.592682e-11,0.7107339,1
7283000,7283000,0.7014574,0.0004084488,-0.0017409725,0.7127091,0.70346093,-1.1695533e-11,5.592682e-11,0.7107339,1
7287000,7287000,0.7014508,0.00038202773,-0.0017061223,0.71271574,0.70346093,-1.1695533e-11,5.592682e-11,0.7107339,1
7291000,7291000,0.70145524,0.00036145904,-0.0016934414,0.71271145,0.70346093,-1.1695533e-11,5.592682e-11,0.7107339,1
7295000,7295000,0.70146024,0.00036503468,-0.0017200356,0.71270645,0.70346093,-1.1695533e-11,5.592682e-11,0.7107339,1
7299000,7299000,0.7014595,0.00040432182,-0.0017870257,0.712707,0.70346093,-1.1695533e-11,5.592682e-11,0.7107339,1
7303000,7303000,0.70145947,0.0004737977,-0.0018484223,0.7127068,0.70346093,-1.1695533e-11,5.592682e-11,0.7107339,1
7307000,7307000,0.7014758,0.0005182618,-0.0018851489,0.7126906,0.70346093,-1.1695533e-11,5.592682e-11,0.7107339,1
7315000,7315000,0.701473,0.00050134235,-0.0019461269,0.7126933,0.70346093,-1.1695533e-11,5.592682e-11,0.7107339,1
7323000,7323000,0.7013661,0.000391685,-0.002101165,0.712798,0.70346093,-1.1695533e-11,5.592682e-11,0.7107339,1
7331000,7331000,0.7013441,0.0003445451,-0.0022483347,0.7128193,0.70346093,-1.1695533e-11,5.592682e-11,0.7107339,1
7335000,7335000,0.7013184,0.00035956118,-0.0022898968,0.7128444,0.70346093,-1.1695533e-11,5.592682e-11,0.7107339,1
7339000,7339000,0.701332,0.00039666137,-0.0022529194,0.71283114,0.70346093,-1.1695533e-11,5.592682e-11,0.7107339,1
7347000,7347000,0.7013775,0.0004805781,-0.0022777754,0.7127862,0.70346093,-1.1695533e-11,5.592682e-11,0.7107339,1
7351000,7351000,0.7013668,0.00048649329,-0.0022823391,0.71279675,0.70346093,-1.1695533e-11,5.592682e-11,0.7107339,1
7359000,7359000,0.7013756,0.0004891817,-0.0023016103,0.712788,0.70346093,-1.1695533e-11,5.592682e-11,0.7107339,1
7363000,7363000,0.70139676,0.00048347886,-0.0023355456,0.7127671,0.70346093,-1.1695533e-11,5.592682e-11,0.7107339,1
7371000,7371000,0.70143497,0.00046764076,-0.0023456716,0.7127295,0.70346093,-1.1695533e-11,5.592682e-11,0.7107339,1
7375000,7375000,0.70146835,0.00044533852,-0.0023479369,0.7126967,0.70346093,-1.1695533e-11,5.592682e-11,0.7107339,1
7379000,7379000,0.7014798,0.0003721477,-0.0023540088,0.7126854,0.70346093,-1.1695533e-11,5.592682e-11,0.7107339,1
7387000,7387000,0.7014892,0.00023560999,-0.0024001983,0.7126761,0.70346093,-1.1695533e-11,5.592682e-11,0.7107339,1
7391000,7391000,0.70150036,0.00024512917,-0.002410355,0.712665,0.70346093,-1.1695533e-11,5.592682e-11,0.7107339,1
7399000,7399000,0.7014849,0.00027821455,-0.002354033,0.7126804,0.70346093,-1.1695533e-11,5.592682e-11,0.7107339,1
7403000,7403000,0.70149696,0.00027837037,-0.0023114544,0.71266866,0.70346093,-1.1695533e-11,5.592682e-11,0.7107339,1
7407000,7407000,0.7015269,0.00027121988,-0.0022786409,0.71263933,0.70346093,-1.1695533e-11,5.592682e-11,0.7107339,1
7411000,7411000,0.70152295,0.00027609046,-0.002255537,0.71264327,0.70346093,-1.1695533e-11,5.592682e-11,0.7107339,1
7415000,7415000,0.7015023,0.0002612128,-0.0022547378,0.7126636,0.70346093,-1.1695533e-11,5.592682e-11,0.7107339,1
7419000,7419000,0.7015098,0.00022522142,-0.0022876165,0.71265614,0.70346093,-1.1695533e-11,5.592682e-11,0.7107339,1
7427000,7427000,0.7015098,0.0002536939,-0.0023234321,0.712656,0.70346093,-1.1695533e-11,5.592682e-11,0.7107339,1
7431000,7431000,0.7015058,0.00028472178,-0.0023360502,0.7126599,0.70346093,-1.1695533e-11,5.592682e-11,0.7107339,1
7435000,7435000,0.70147604,0.0002612014,-0.0023675635,0.71268904,0.70346093,-1.1695533e-11,5.592682e-11,0.7107339,1
7439000,7439000,0.7014539,0.00024784092,-0.0023842326,0.71271074,0.70346093,-1.1695533e-11,5.592682e-11,0.7107339,1
7447000,7447000,0.701427,0.00027064446,-0.0024705837,0.71273696,0.70346093,-1.1695533e-11,5.592682e-11,0.7107339,1
7451000,7451000,0.7014165,0.0002810118,-0.002566461,0.71274704,0.70346093,-1.1695533e-11,5.592682e-11,0.7107339,1
7455000,7455000,0.70139396,0.00030248324,-0.002634315,0.712769,0.70346093,-1.1695533e-11,5.592682e-11,0.7107339,1
7463000,7463000,0.7013593,0.00024862832,-0.0026155578,0.7128031,0.70346093,-1.1695533e-11,5.592682e-11,0.7107339,1
7467000,7467000,0.70133394,0.00025759157,-0.0026186637,0.7128281,0.70346093,-1.1695533e-11,5.592682e-11,0.7107339,1
7471000,7471000,0.701299,0.00025375022,-0.0026636203,0.7128623,0.70346093,-1.1695533e-11,5.592682e-11,0.7107339,1
7475000,7475000,0.70125717,0.00024095524,-0.0027222112,0.7129032,0.70346093,-1.1695533e-11,5.592682e-11,0.7107339,1
7479000,7479000,0.70122296,0.0002588364,-0.002743574,0.7129368,0.70346093,-1.1695533e-11,5.592682e-11,0.7107339,1
7483000,7483000,0.7012145,0.00030986557,-0.0027533544,0.7129451,0.70346093,-1.1695533e-11,5.592682e-11,0.7107339,1
7491000,7491000,0.7011919,0.0002870815,-0.0028292013,0.7129669,0.70346093,-1.1695533e-11,5.592682e-11,0.7107339,1
7499000,7499000,0.7011341,0.00028595192,-0.0028380968,0.71302384,0.70346093,-1.1695533e-11,5.592682e-11,0.7107339,1
7503000,7503000,0.7011199,0.00028899792,-0.002838585,0.7130378,0.70346093,-1.1695533e-11,5.592682e-11,0.7107339,1
7507000,7507000,0.7011346,0.00026971957,-0.0028132622,0.7130233,0.70346093,-1.1695533e-11,5.592682e-11,0.7107339,1
7515000,7515000,0.70111114,0.00021680135,-0.002857572,0.71304625,0.70346093,-1.1695533e-11,5.592682e-11,0.7107339,1
7523000,7523000,0.70110047,0.00023372391,-0.002857507,0.7130568,0.70346093,-1.1695533e-11,5.592682e-11,0.7107339,1
7527000,7527000,0.7011032,0.00025428488,-0.0028068547,0.7130543,0.70346093,-1.1695533e-11,5.592682e-11,0.7107339,1
7531000,7531000,0.7010899,0.00025522689,-0.0028042065,0.71306735,0.70346093,-1.1695533e-11,5.592682e-11,0.7107339,1
7535000,7535000,0.70106256,0.00023711215,-0.0028201384,0.7130942,0.70346093,-1.1695533e-11,5.592682e-11,0.7107339,1
7543000,7543000,0.70109516,0.00022620316,-0.002860008,0.713062,0.70346093,-1.1695533e-11,5.592682e-11,0.7107339,1
7547000,7547000,0.7011103,0.00023954021,-0.0028729846,0.7130471,0.70346093,-1.1695533e-11,5.592682e-11,0.7107339,1
7551000,7551000,0.7010962,0.00026225403,-0.0028899957,0.7130609,0.70346093,-1.1695533e-11,5.592682e-11,0.7107339,1
7555000,7555000,0.70109504,0.0002411674,-0.0028877875,0.7130619,0.70346093,-1.1695533e-11,5.592682e-11,0.7107339,1
7559000,7559000,0.7011021,0.00015356767,-0.0028947669,0.713055,0.70346093,-1.1695533e-11,5.592682e-11,0.7107339,1
7563000,7563000,0.701092,7.3082876e-05,-0.0029050787,0.71306497,0.70346093,-1.1695533e-11,5.592682e-11,0.7107339,1
7567000,7567000,0.70106936,4.7029924e-05,-0.0028508678,0.7130874,0.70346093,-1.1695533e-11,5.592682e-11,0.7107339,1
7571000,7571000,0.70104784,6.0484293e-05,-0.0027914252,0.7131088,0.70346093,-1.1695533e-11,5.592682e-11,0.7107339,1
7575000,7575000,0.70102656,8.830085e-05,-0.002777402,0.71312976,0.70346093,-1.1695533e-11,5.592682e-11,0.7107339,1
7583000,7583000,0.7009869,0.00014989119,-0.0027797827,0.7131687,0.70346093,-1.1695533e-11,5.592682e-11,0.7107339,1
7587000,7587000,0.7009736,0.00016339311,-0.0028016327,0.71318173,0.70346093,-1.1695533e-11,5.592682e-11,0.7107339,1
7591000,7591000,0.7009367,0.00019290895,-0.0028093853,0.713218,0.70346093,-1.1695533e-11,5.592682e-11,0.7107339,1
7595000,7595000,0.7008768,0.00020130245,-0.0027807932,0.71327704,0.70346093,-1.1695533e-11,5.592682e-11,0.7107339,1
7599000,7599000,0.70081425,0.00019719978,-0.0027413617,0.7133386,0.70346093,-1.1695533e-11,5.592682e-11,0.7107339,1
7603000,7603000,0.70078737,0.00019922067,-0.002739908,0.713365,0.70346093,-1.1695533e-11,5.592682e-11,0.7107339,1
7607000,7607000,0.700789,0.00018449622,-0.0027457278,0.7133634,0.70346093,-1.1695533e-11,5.592682e-11,0.7107339,1
7611000,7611000,0.7007819,0.00013855642,-0.0027604897,0.7133703,0.70346093,-1.1695533e-11,5.592682e-11,0.7107339,1
7615000,7615000,0.70078576,6.8218294e-05,-0.002819135,0.71336627,0.70346093,-1.1695533e-11,5.592682e-11,0.7107339,1
7619000,7619000,0.7008113,-1.980508e-05,-0.0028700272,0.7133409,0.70346093,-1.1695533e-11,5.592682e-11,0.7107339,1
7623000,7623000,0.7008195,-8.756495e-05,-0.002875144,0.7133329,0.70346093,-1.1695533e-11,5.592682e-11,0.7107339,1
7627000,7627000,0.7008139,-0.000111759786,-0.0028723401,0.7133384,0.70346093,-1.1695533e-11,5.592682e-11,0.7107339,1
7635000,7635000,0.7008351,-0.000119191405,-0.0029209505,0.71331733,0.70346093,-1.1695533e-11,5.592682e-11,0.7107339,1
7643000,7643000,0.7008716,-0.00014239775,-0.0029628873,0.7132814,0.70346093,-1.1695533e-11,5.592682e-11,0.7107339,1
7647000,7647000,0.7008925,-0.00017825361,-0.002984995,0.71326077,0.70346093,-1.1695533e-11,5.592682e-11,0.7107339,1
7651000,7651000,0.7009518,-0.00022286427,-0.002978189,0.7132024,0.70346093,-1.1695533e-11,5.592682e-11,0.7107339,1
7655000,7655000,0.701013,-0.0002358215,-0.0029703418,0.71314234,0.70346093,-1.1695533e-11,5.592682e-11,0.7107339,1
7659000,7659000,0.70104903,-0.00022391057,-0.002975831,0.7131069,0.70346093,-1.1695533e-11,5.592682e-11,0.7107339,1
7663000,7663000,0.70105726,-0.00020257688,-0.0029837973,0.7130987,0.70346093,-1.1695533e-11,5.592682e-11,0.7107339,1
7667000,7667000,0.70102715,-0.000181346,-0.0029985318,0.71312827,0.70346093,-1.1695533e-11,5.592682e-11,0.7107339,1
7671000,7671000,0.70098513,-0.00019449717,-0.003038347,0.71316946,0.70346093,-1.1695533e-11,5.592682e-11,0.7107339,1
7675000,7675000,0.7009576,-0.00025720222,-0.0030898931,0.7131963,0.70346093,-1.1695533e-11,5.592682e-11,0.7107339,1
7679000,7679000,0.7009631,-0.00030490174,-0.0031066036,0.71319073,0.70346093,-1.1695533e-11,5.592682e-11,0.7107339,1
7683000,7683000,0.7009728,-0.000309352,-0.0030702131,0.7131813,0.70346093,-1.1695533e-11,5.592682e-11,0.7107339,1
7687000,7687000,0.7009582,-0.00030210026,-0.003037787,0.7131958,0.70346093,-1.1695533e-11,5.592682e-11,0.7107339,1
7691000,7691000,0.7009526,-0.00027441606,-0.003055282,0.7132013,0.70346093,-1.1695533e-11,5.592682e-11,0.7107339,1
7699000,7699000,0.70098644,-0.00019383486,-0.0031302427,0.7131677,0.70346093,-1.1695533e-11,5.592682e-11,0.7107339,1
7703000,7703000,0.700977,-0.00014048004,-0.0031345831,0.71317697,0.70346093,-1.1695533e-11,5.592682e-11,0.7107339,1
7711000,7711000,0.7009775,-0.00015982366,-0.0031804503,0.71317637,0.70346093,-1.1695533e-11,5.592682e-11,0.7107339,1
7715000,7715000,0.7009879,-0.00017698435,-0.0032414605,0.7131659,0.70346093,-1.1695533e-11,5.592682e-11,0.7107339,1
7719000,7719000,0.70100516,-0.0001735841,-0.0032702207,0.7131488,0.70346093,-1.1695533e-11,5.592682e-11,0.7107339,1
7723000,7723000,0.7010255,-0.00018267913,-0.0032896723,0.7131286,0.70346093,-1.1695533e-11,5.592682e-11,0.7107339,1
7731000,7731000,0.701047,-0.00029775867,-0.0033511207,0.71310717,0.70346093,-1.1695533e-11,5.592682e-11,0.7107339,1
7739000,7739000,0.70102644,-0.00030938056,-0.0033124913,0.7131276,0.70346093,-1.1695533e-11,5.592682e-11,0.7107339,1
7747000,7747000,0.70102173,-0.00028188273,-0.0032828324,0.7131324,0.70346093,-1.1695533e-11,5.592682e-11,0.7107339,1
7755000,7755000,0.7009948,-0.0003023279,-0.0034075011,0.7131583,0.70346093,-1.1695533e-11,5.592682e-11,0.7107339,1
7759000,7759000,0.7010162,-0.0002841303,-0.0033947858,0.7131372,0.70346093,-1.1695533e-11,5.592682e-11,0.7107339,1
7763000,7763000,0.7010351,-0.0002790538,-0.003346778,0.71311885,0.70346093,-1.1695533e-11,5.592682e-11,0.7107339,1
7771000,7771000,0.70104235,-0.0002601422,-0.0033466045,0.7131118,0.70346093,-1.1695533e-11,5.592682e-11,0.7107339,1
7775000,7775000,0.7010585,-0.00025018753,-0.00336586,0.71309584,0.70346093,-1.1695533e-11,5.592682e-11,0.7107339,1
7779000,7779000,0.7010674,-0.00023777653,-0.0034122101,0.7130869,0.70346093,-1.1695533e-11,5.592682e-11,0.7107339,1
7783000,7783000,0.70107317,-0.00021493784,-0.0034806367,0.7130809,0.70346093,-1.1695533e-11,5.592682e-11,0.7107339,1
7787000,7787000,0.7010817,-0.00017539744,-0.0035184145,0.71307236,0.70346093,-1.1695533e-11,5.592682e-11,0.7107339,1
7791000,7791000,0.70107204,-0.00012894643,-0.0035278248,0.7130818,0.70346093,-1.1695533e-11,5.592682e-11,0.7107339,1
7795000,7795000,0.7010465,-0.00012462054,-0.0035534084,0.71310675,0.70346093,-1.1695533e-11,5.592682e-11,0.7107339,1
7803000,7803000,0.70107055,-0.00019033146,-0.003610015,0.71308285,0.70346093,-1.1695533e-11,5.592682e-11,0.7107339,1
7807000,7807000,0.70104426,-0.00016841227,-0.0036481442,0.7131085,0.70346093,-1.1695533e-11,5.592682e-11,0.7107339,1
7815000,7815000,0.70096374,-0.00019144473,-0.0037938377,0.71318686,0.70346093,-1.1695533e-11,5.592682e-11,0.7107339,1
7823000,7823000,0.7008921,-2.000329e-05,-0.0038853888,0.71325684,0.70346093,-1.1695533e-11,5.592682e-11,0.7107339,1
7827000,7827000,0.70087034,0.00013026469,-0.003847716,0.71327835,0.70346093,-1.1695533e-11,5.592682e-11,0.7107339,1
7835000,7835000,0.70084953,0.00032072212,-0.0038579768,0.71329874,0.70346093,-1.1695533e-11,5.592682e-11,0.7107339,1
7843000,7843000,0.7008755,0.00029279187,-0.003830121,0.7132733,0.70346093,-1.1695533e-11,5.592682e-11,0.7107339,1
7851000,7851000,0.70090026,0.00016337444,-0.0038531553,0.71324885,0.70346093,-1.1695533e-11,5.592682e-11,0.7107339,1
7855000,7855000,0.700902,0.00015025484,-0.0038619186,0.7132472,0.70346093,-1.1695533e-11,5.592682e-11,0.7107339,1
7859000,7859000,0.70089686,0.00011677436,-0.003872367,0.7132521,0.70346093,-1.1695533e-11,5.592682e-11,0.7107339,1
7867000,7867000,0.7009111,7.218506e-05,-0.0038797953,0.7132382,0.70346093,-1.1695533e-11,5.592682e-11,0.7107339,1
7875000,7875000,0.70083344,-3.9421047e-05,-0.0039754836,0.71331394,0.70346093,-1.1695533e-11,5.592682e-11,0.7107339,1
7879000,7879000,0.70081747,-5.727582e-05,-0.003991318,0.71332955,0.70346093,-1.1695533e-11,5.592682e-11,0.7107339,1
7883000,7883000,0.7008296,-3.5112524e-05,-0.0039574625,0.7133178,0.70346093,-1.1695533e-11,5.592682e-11,0.7107339,1
7887000,7887000,0.70084554,1.7103375e-05,-0.003949291,0.71330225,0.70346093,-1.1695533e-11,5.592682e-11,0.7107339,1
7891000,7891000,0.7008487,7.854067e-05,-0.003969663,0.7132989,0.70346093,-1.1695533e-11,5.592682e-11,0.7107339,1
7895000,7895000,0.700835,0.00012702301,-0.0039773067,0.7133123,0.70346093,-1.1695533e-11,5.592682e-11,0.7107339,1
7899000,7899000,0.70081484,0.00015741866,-0.003988124,0.71333206,0.70346093,-1.1695533e-11,5.592682e-11,0.7107339,1
7903000,7903000,0.7007928,0.00018486273,-0.0040086573,0.7133536,0.70346093,-1.1695533e-11,5.592682e-11,0.7107339,1
7907000,7907000,0.70076233,0.00022024557,-0.0040377844,0.7133833,0.70346093,-1.1695533e-11,5.592682e-11,0.7107339,1
7911000,7911000,0.7007384,0.00025235006,-0.00406954,0.7134067,0.70346093,-1.1695533e-11,5.592682e-11,0.7107339,1
7915000,7915000,0.7007324,0.00027839575,-0.0040862793,0.7134125,0.70346093,-1.1695533e-11,5.592682e-11,0.7107339,1
7919000,7919000,0.7007311,0.00027759784,-0.0040832628,0.7134138,0.70346093,-1.1695533e-11,5.592682e-11,0.7107339,1
7923000,7923000,0.7007203,0.00026852096,-0.004087103,0.7134243,0.70346093,-1.1695533e-11,5.592682e-11,0.7107339,1
7931000,7931000,0.7007317,0.00031713617,-0.004116707,0.713413,0.70346093,-1.1695533e-11,5.592682e-11,0.7107339,1
7935000,7935000,0.7007296,0.00038135154,-0.004087811,0.7134152,0.70346093,-1.1695533e-11,5.592682e-11,0.7107339,1
7939000,7939000,0.70070034,0.00048224407,-0.0040921187,0.7134439,0.70346093,-1.1695533e-11,5.592682e-11,0.7107339,1
7943000,7943000,0.70066166,0.0005525271,-0.004128318,0.7134816,0.70346093,-1.1695533e-11,5.592682e-11,0.7107339,1
7947000,7947000,0.7006462,0.00056557934,-0.0041932664,0.71349627,0.70346093,-1.1695533e-11,5.592682e-11,0.7107339,1
7955000,7955000,0.7006728,0.00054750766,-0.004306895,0.7134696,0.70346093,-1.1695533e-11,5.592682e-11,0.7107339,1
7963000,7963000,0.7006557,0.000499398,-0.00432925,0.71348625,0.70346093,-1.1695533e-11,5.592682e-11,0.7107339,1
7971000,7971000,0.70071816,0.0005205786,-0.004413773,0.7134244,0.70346093,-1.1695533e-11,5.592682e-11,0.7107339,1
7979000,7979000,0.7006943,0.00048959366,-0.004487853,0.7134474,0.70346093,-1.1695533e-11,5.592682e-11,0.7107339,1
7983000,7983000,0.7007015,0.00045484747,-0.004482285,0.71344036,0.70346093,-1.1695533e-11,5.592682e-11,0.7107339,1
7987000,7987000,0.70072234,0.00041496896,-0.0044827815,0.7134199,0.70346093,-1.1695533e-11,5.592682e-11,0.7107339,1
7995000,7995000,0.7006994,0.00042130786,-0.0044634095,0.7134426,0.70346093,-1.1695533e-11,5.592682e-11,0.7107339,1
8003000,8003000,0.70072997,0.0004415075,-0.0043929988,0.713413,0.70346093,-1.1695533e-11,5.592682e-11,0.7107339,1
8011000,8011000,0.7007371,0.0006372453,-0.004377113,0.7134059,0.70346093,-1.1695533e-11,5.592682e-11,0.7107339,1
8015000,8015000,0.70072174,0.0007218257,-0.00436778,0.7134209,0.70346093,-1.1695533e-11,5.592682e-11,0.7107339,1
8019000,8019000,0.70071405,0.0007860751,-0.0043541016,0.7134285,0.70346093,-1.1695533e-11,5.592682e-11,0.7107339,1
8027000,8027000,0.7007296,0.00089953525,-0.0043878313,0.71341294,0.70346093,-1.1695533e-11,5.592682e-11,0.7107339,1
8031000,8031000,0.70073855,0.0008915562,-0.0044090273,0.71340406,0.70346093,-1.1695533e-11,5.592682e-11,0.7107339,1
8039000,8039000,0.70073533,0.0008465222,-0.0044558328,0.713407,0.70346093,-1.1695533e-11,5.592682e-11,0.7107339,1
8043000,8043000,0.7007143,0.0008476712,-0.004463784,0.71342754,0.70346093,-1.1695533e-11,5.592682e-11,0.7107339,1
8047000,8047000,0.7006731,0.0008537927,-0.004492417,0.71346784,0.70346093,-1.1695533e-11,5.592682e-11,0.7107339,1
8051000,8051000,0.7006451,0.00086462166,-0.004574098,0.71349484,0.70346093,-1.1695533e-11,5.592682e-11,0.7107339,1
8055000,8055000,0.7006191,0.00086170016,-0.004631786,0.71352,0.70346093,-1.1695533e-11,5.592682e-11,0.7107339,1
8059000,8059000,0.7005727,0.00086190255,-0.0046337266,0.7135655,0.70346093,-1.1695533e-11,5.592682e-11,0.7107339,1
8063000,8063000,0.7005286,0.0008506285,-0.004649716,0.71360874,0.70346093,-1.1695533e-11,5.592682e-11,0.7107339,1
8071000,8071000,0.7004798,0.00083074445,-0.0046108286,0.7136569,0.70346093,-1.1695533e-11,5.592682e-11,0.7107339,1
8075000,8075000,0.70048374,0.00081244594,-0.004601607,0.71365315,0.70346093,-1.1695533e-11,5.592682e-11,0.7107339,1
8079000,8079000,0.70052713,0.00077493273,-0.004639615,0.71361035,0.70346093,-1.1695533e-11,5.592682e-11,0.7107339,1
8083000,8083000,0.7005837,0.0007611594,-0.0046694796,0.71355456,0.70346093,-1.1695533e-11,5.592682e-11,0.7107339,1
8091000,8091000,0.7006174,0.00077668735,-0.00470783,0.71352124,0.70346093,-1.1695533e-11,5.592682e-11,0.7107339,1
8099000,8099000,0.7006584,0.0009340662,-0.004796507,0.71348023,0.70346093,-1.1695533e-11,5.592682e-11,0.7107339,1
8103000,8103000,0.70067614,0.0009621738,-0.004886329,0.7134621,0.70346093,-1.1695533e-11,5.592682e-11,0.7107339,1
8107000,8107000,0.7007078,0.00095000706,-0.0049685887,0.71343046,0.70346093,-1.1695533e-11,5.592682e-11,0.7107339,1
8115000,8115000,0.7007589,0.00095450843,-0.005113687,0.71337926,0.70346093,-1.1695533e-11,5.592682e-11,0.7107339,1
