timestamp,timestamp_sample,lat,lon,alt,alt_ellipsoid,delta_alt,delta_terrain,eph,epv,terrain_alt,lat_lon_valid,alt_valid,lat_lon_reset_counter,alt_reset_counter,terrain_reset_counter,terrain_alt_valid,dead_reckoning
6379000,6379000,47.39775075364068,8.545607657963481,488.04745,488.04745,488.05307,488.05307,2.0013595,0.512277,487.94922,0,1,3,3,3,0,1
6387000,6387000,47.39775075266894,8.545607661748564,488.0474,488.0474,488.05307,488.05307,2.001405,0.5122949,487.94913,0,1,3,3,3,0,1
6395000,6395000,47.39775075171557,8.54560766532285,488.04736,488.04736,488.05307,488.05307,2.0014515,0.5123134,487.94904,0,1,3,3,3,0,1
6403000,6403000,47.39775075074284,8.545607668790527,488.0473,488.0473,488.05307,488.05307,2.0014992,0.5069353,487.94772,0,1,3,3,3,0,1
6411000,6411000,47.39775074975039,8.545607672183992,488.04724,488.04724,488.05307,488.05307,2.0015478,0.5069547,487.94763,0,1,3,3,3,0,1
6419000,6419000,47.397750748773724,8.545607675500866,488.04718,488.04718,488.05307,488.05307,2.0015981,0.5069747,487.94754,0,1,3,3,3,0,1
6427000,6427000,47.397750747804174,8.545607678755642,488.04712,488.04712,488.05307,488.05307,2.0016496,0.5069953,487.94745,0,1,3,3,3,0,1
6435000,6435000,47.397750746819916,8.545607681906707,488.0471,488.0471,488.05307,488.05307,2.001702,0.50701654,487.9474,0,1,3,3,3,0,1
6443000,6443000,47.39775074582635,8.545607684943297,488.04703,488.04703,488.05307,488.05307,2.0017562,0.50703835,487.94733,0,1,3,3,3,0,1
6451000,6451000,47.39775074485956,8.545607687912659,488.047,488.047,488.05307,488.05307,2.001806,0.5070608,487.94724,0,1,3,3,3,0,1
6459000,6459000,47.39775074393422,8.545607690709918,488.04694,488.04694,488.05307,488.05307,2.0018623,0.5070839,487.94714,0,1,3,3,3,0,1
6467000,6467000,47.39775074297334,8.545607693269837,488.04694,488.04694,488.05307,488.05307,2.0019202,0.5018726,487.94815,0,1,3,3,3,0,1
6475000,6475000,47.39775074201737,8.545607695593493,488.0469,488.0469,488.05307,488.05307,2.0019796,0.5018967,487.9481,0,1,3,3,3,0,1
6483000,6483000,47.39775074105235,8.545607697786474,488.04688,488.04688,488.05307,488.05307,2.0020404,0.5019215,487.94803,0,1,3,3,3,0,1
6491000,6491000,47.39775074005454,8.545607700016827,488.04684,488.04684,488.05307,488.05307,2.0021026,0.5019469,487.94797,0,1,3,3,3,0,1
6499000,6499000,47.397750738970274,8.54560770225692,488.0468,488.0468,488.05307,488.05307,2.0021665,0.50197303,487.9479,0,1,3,3,3,0,1
6507000,6507000,47.397750737809154,8.545607704338527,488.04675,488.04675,488.05307,488.05307,2.0022316,0.5019998,487.94785,0,1,3,3,3,0,1
6515000,6515000,47.397750736658466,8.545607706287004,488.04672,488.04672,488.05307,488.05307,2.0022984,0.50202733,487.9478,0,1,3,3,3,0,1
6523000,6523000,47.39775073551936,8.545607708243427,488.04666,488.04666,488.05307,488.05307,2.0023656,0.5020555,487.94778,0,1,3,3,3,0,1
6531000,6531000,47.39775073445013,8.545607710259057,488.04663,488.04663,488.05307,488.05307,2.0024357,0.49700233,487.94775,0,1,3,3,3,0,1
6539000,6539000,47.3977507334192,8.545607712321354,488.04657,488.04657,488.05307,488.05307,2.0025074,0.4970317,487.9477,0,1,3,3,3,0,1
6547000,6547000,47.397750732450845,8.545607714396278,488.0465,488.0465,488.05307,488.05307,2.0025811,0.49706176,487.94766,0,1,3,3,3,0,1
6555000,6555000,47.39775073150189,8.545607716433505,488.04645,488.04645,488.05307,488.05307,2.0026565,0.49709257,487.94763,0,1,3,3,3,0,1
6563000,6563000,47.39775073056856,8.54560771840336,488.04636,488.04636,488.05307,488.05307,2.0027337,0.49712417,487.9476,0,1,3,3,3,0,1
6571000,6571000,47.397750729654895,8.5456077203077,488.0463,488.0463,488.05307,488.05307,2.0028126,0.4971565,487.94757,0,1,3,3,3,0,1
6579000,6579000,47.397750728819645,8.545607722267945,488.0462,488.0462,488.05307,488.05307,2.0028934,0.4971896,487.94754,0,1,3,3,3,0,1
6587000,6587000,47.39775072789038,8.545607724284777,488.0461,488.0461,488.05307,488.05307,2.0029764,0.49722353,487.9475,0,1,3,3,3,0,1
6595000,6595000,47.39775072688017,8.545607726476575,488.04602,488.04602,488.05307,488.05307,2.0030603,0.49232033,487.94778,0,1,3,3,3,0,1
6603000,6603000,47.39775072580082,8.54560772877949,488.04593,488.04593,488.05307,488.05307,2.0031474,0.49235547,487.94778,0,1,3,3,3,0,1
6611000,6611000,47.39775072464432,8.545607731063846,488.04587,488.04587,488.05307,488.05307,2.0032363,0.49239147,487.94775,0,1,3,3,3,0,1
6619000,6619000,47.39775072340926,8.545607733289163,488.0458,488.0458,488.05307,488.05307,2.0033274,0.49242824,487.94772,0,1,3,3,3,0,1
6627000,6627000,47.39775072213657,8.545607735473085,488.04572,488.04572,488.05307,488.05307,2.0034208,0.49246588,487.9477,0,1,3,3,3,0,1
6635000,6635000,47.3977507208574,8.545607737546103,488.04565,488.04565,488.05307,488.05307,2.0035164,0.4925044,487.94766,0,1,3,3,3,0,1
6643000,6643000,47.39775071951059,8.545607739493654,488.04556,488.04556,488.05307,488.05307,2.0036142,0.49254373,487.94763,0,1,3,3,3,0,1
6651000,6651000,47.39775071818043,8.545607741410995,488.04547,488.04547,488.05307,488.05307,2.0037146,0.49258396,487.94757,0,1,3,3,3,0,1
6659000,6659000,47.39775071683041,8.545607743428754,488.04538,488.04538,488.05307,488.05307,2.003817,0.48782295,487.94687,0,1,3,3,3,0,1
6667000,6667000,47.397750715423655,8.545607745446652,488.0453,488.0453,488.05307,488.05307,2.003921,0.48786452,487.9468,0,1,3,3,3,0,1
6675000,6675000,47.39775071400602,8.545607747469013,488.0452,488.0452,488.05307,488.05307,2.0040286,0.48790702,487.94675,0,1,3,3,3,0,1
6683000,6683000,47.39775071258828,8.545607749622722,488.0451,488.0451,488.05307,488.05307,2.0041387,0.4879504,487.9467,0,1,3,3,3,0,1
6691000,6691000,47.39775071117361,8.545607751831428,488.045,488.045,488.05307,488.05307,2.0042515,0.48799476,487.94662,0,1,3,3,3,0,1
6699000,6699000,47.397750711177224,8.545607749290856,488.04498,488.04498,488.05307,488.05307,1.1553655,0.43856642,487.94812,1,1,3,3,3,0,0
6707000,6707000,47.39775071112309,8.54560774675893,488.04492,488.04492,488.05307,488.05307,1.1554177,0.43860686,487.94806,1,1,3,3,3,0,0
6715000,6715000,47.397750710999844,8.545607744302677,488.0449,488.0449,488.05307,488.05307,1.1554728,0.43524808,487.949,1,1,3,3,3,0,0
6723000,6723000,47.39775071082596,8.545607742021309,488.04486,488.04486,488.05307,488.05307,1.1555308,0.43529022,487.9489,1,1,3,3,3,0,0
6731000,6731000,47.39775071057965,8.545607739843406,488.04483,488.04483,488.05307,488.05307,1.1555921,0.4353334,487.94882,1,1,3,3,3,0,0
6739000,6739000,47.397750710315506,8.545607737668918,488.0448,488.0448,488.05307,488.05307,1.1556562,0.4353776,487.94873,1,1,3,3,3,0,0
6747000,6747000,47.39775071012221,8.545607735457045,488.04477,488.04477,488.05307,488.05307,1.1557238,0.43542284,487.94864,1,1,3,3,3,0,0
6755000,6755000,47.397750709986475,8.545607733202338,488.0447,488.0447,488.05307,488.05307,1.1557946,0.43546915,487.94855,1,1,3,3,3,0,0
6763000,6763000,47.39775070985898,8.545607731057594,488.04468,488.04468,488.05307,488.05307,1.155869,0.4355165,487.94846,1,1,3,3,3,0,0
6771000,6771000,47.39775070973287,8.545607729050342,488.04462,488.04462,488.05307,488.05307,1.155947,0.43556497,487.94836,1,1,3,3,3,0,0
6779000,6779000,47.39775070959499,8.545607727070552,488.0446,488.0446,488.05307,488.05307,1.1560284,0.43228406,487.94867,1,1,3,3,3,0,0
6787000,6787000,47.397750709447024,8.545607725280894,488.04453,488.04453,488.05307,488.05307,1.1561137,0.43233433,487.94858,1,1,3,3,3,0,0
6795000,6795000,47.39775070927968,8.545607723573529,488.04446,488.04446,488.05307,488.05307,1.1562028,0.43238574,487.9485,1,1,3,3,3,0,0
6803000,6803000,47.397750709083105,8.545607721906467,488.0444,488.0444,488.05307,488.05307,1.1562959,0.43243828,487.9484,1,1,3,3,3,0,0
6811000,6811000,47.397750708798746,8.545607720432045,488.04434,488.04434,488.05307,488.05307,1.1563926,0.43249196,487.9483,1,1,3,3,3,0,0
6819000,6819000,47.397750708487756,8.545607719022787,488.04425,488.04425,488.05307,488.05307,1.1564938,0.43254682,487.94824,1,1,3,3,3,0,0
6827000,6827000,47.39775070806748,8.545607717592734,488.0442,488.0442,488.05307,488.05307,1.1565994,0.43260282,487.94818,1,1,3,3,3,0,0
6835000,6835000,47.39775070757527,8.54560771624427,488.0441,488.0441,488.05307,488.05307,1.1567093,0.43266004,487.94812,1,1,3,3,3,0,0
6843000,6843000,47.39775070708476,8.545607715146065,488.044,488.044,488.05307,488.05307,1.1568238,0.42945376,487.9477,1,1,3,3,3,0,0
6851000,6851000,47.39775070663692,8.545607714191584,488.0439,488.0439,488.05307,488.05307,1.1569427,0.42951295,487.9476,1,1,3,3,3,0,0
6859000,6859000,47.39775070619617,8.545607713374954,488.04382,488.04382,488.05307,488.05307,1.1570663,0.42957336,487.9475,1,1,3,3,3,0,0
6867000,6867000,47.39775070578985,8.545607712652213,488.0437,488.0437,488.05307,488.05307,1.157195,0.42963502,487.94742,1,1,3,3,3,0,0
6875000,6875000,47.397750705272536,8.545607712057802,488.0436,488.0436,488.05307,488.05307,1.1573285,0.4296979,487.94733,1,1,3,3,3,0,0
6883000,6883000,47.39775070470369,8.545607711630497,488.04352,488.04352,488.05307,488.05307,1.1574663,0.42976207,487.94724,1,1,3,3,3,0,0
6891000,6891000,47.3977507041611,8.545607711301907,488.04343,488.04343,488.05307,488.05307,1.1576099,0.42982754,487.94714,1,1,3,3,3,0,0
6899000,6899000,47.39775070368041,8.545607710925488,488.04333,488.04333,488.05307,488.05307,1.1577591,0.42989427,487.94705,1,1,3,3,3,0,0
6907000,6907000,47.39775070319948,8.54560771047868,488.0432,488.0432,488.05307,488.05307,1.1579136,0.42675942,487.9464,1,1,3,3,3,0,0
6915000,6915000,47.39775070259186,8.545607709935627,488.0431,488.0431,488.05307,488.05307,1.1580735,0.42682827,487.94632,1,1,3,3,3,0,0
6923000,6923000,47.39775070203268,8.545607709384061,488.04297,488.04297,488.05307,488.05307,1.1582394,0.42689845,487.94623,1,1,3,3,3,0,0
6931000,6931000,47.397750701432166,8.545607708784628,488.04285,488.04285,488.05307,488.05307,1.1584109,0.42696998,487.9461,1,1,3,3,3,0,0
6939000,6939000,47.397750700764014,8.54560770804865,488.04272,488.04272,488.05307,488.05307,1.1585885,0.42704287,487.94598,1,1,3,3,3,0,0
6947000,6947000,47.397750700088245,8.545607707268985,488.0426,488.0426,488.05307,488.05307,1.1587721,0.42711717,487.94586,1,1,3,3,3,0,0
6955000,6955000,47.397750699407865,8.545607706489792,488.0425,488.0425,488.05307,488.05307,1.1589607,0.42719284,487.94574,1,1,3,3,3,0,0
6963000,6963000,47.39775069864781,8.545607705668418,488.0424,488.0424,488.05307,488.05307,1.1591568,0.4272699,487.94562,1,1,3,3,3,0,0
6971000,6971000,47.39775069779659,8.545607704863766,488.04227,488.04227,488.05307,488.05307,1.1593595,0.42420343,487.94525,1,1,3,3,3,0,0
6979000,6979000,47.39775069691714,8.54560770405088,488.04214,488.04214,488.05307,488.05307,1.1595688,0.4242828,487.94513,1,1,3,3,3,0,0
6987000,6987000,47.397750696025184,8.5456077032447,488.04205,488.04205,488.05307,488.05307,1.1597848,0.42436358,487.945,1,1,3,3,3,0,0
6995000,6995000,47.39775069510276,8.545607702457326,488.04193,488.04193,488.05307,488.05307,1.1600078,0.42444584,487.9449,1,1,3,3,3,0,0
7003000,7003000,47.39775069413474,8.545607701682423,488.0418,488.0418,488.05307,488.05307,1.1602379,0.42452958,487.94476,1,1,3,3,3,0,0
7011000,7011000,47.397750693105,8.545607700925324,488.0417,488.0417,488.05307,488.05307,1.1604751,0.42461482,487.9446,1,1,3,3,3,0,0
7019000,7019000,47.39775069203537,8.545607700196872,488.04156,488.04156,488.05307,488.05307,1.1607199,0.42470154,487.94446,1,1,3,3,3,0,0
7027000,7027000,47.39775069090713,8.545607699613797,488.04144,488.04144,488.05307,488.05307,1.1609696,0.4247898,487.94434,1,1,3,3,3,0,0
7035000,7035000,47.397750689709106,8.545607699159818,488.04132,488.04132,488.05307,488.05307,1.1612293,0.42178866,487.94418,1,1,3,3,3,0,0
7043000,7043000,47.39775068851912,8.54560769880749,488.04123,488.04123,488.05307,488.05307,1.1614968,0.42187935,487.94406,1,1,3,3,3,0,0
7051000,7051000,47.397750687432875,8.545607698517886,488.04114,488.04114,488.05307,488.05307,1.1617723,0.4219716,487.94394,1,1,3,3,3,0,0
7059000,7059000,47.397750686384676,8.545607698300305,488.04105,488.04105,488.05307,488.05307,1.162056,0.4220654,487.94382,1,1,3,3,3,0,0
7067000,7067000,47.39775068524709,8.545607698118008,488.04095,488.04095,488.05307,488.05307,1.1623478,0.42216083,487.9437,1,1,3,3,3,0,0
7075000,7075000,47.39775068403386,8.545607697921456,488.04083,488.04083,488.05307,488.05307,1.1626482,0.42225784,487.94357,1,1,3,3,3,0,0
7083000,7083000,47.39775068277521,8.545607697747833,488.04074,488.04074,488.05307,488.05307,1.1629572,0.4223565,487.94345,1,1,3,3,3,0,0
7091000,7091000,47.397750681523,8.545607697658447,488.04065,488.04065,488.05307,488.05307,1.163275,0.42245677,487.9433,1,1,3,3,3,0,0
7099000,7099000,47.39775068172693,8.545607695206185,488.0406,488.0406,488.05307,488.05307,0.89701366,0.38672754,487.94525,1,1,3,3,3,0,0
7107000,7107000,47.39775068201001,8.545607692915903,488.04056,488.04056,488.05307,488.05307,0.8971691,0.38681862,487.94513,1,1,3,3,3,0,0
7115000,7115000,47.3977506823311,8.545607690822925,488.04053,488.04053,488.05307,488.05307,0.89733076,0.38691136,487.945,1,1,3,3,3,0,0
7123000,7123000,47.39775068266572,8.545607688905536,488.04047,488.04047,488.05307,488.05307,0.8974989,0.38700584,487.9449,1,1,3,3,3,0,0
7131000,7131000,47.39775068299428,8.545607687090785,488.04044,488.04044,488.05307,488.05307,0.8976736,0.38710204,487.94476,1,1,3,3,3,0,0
7139000,7139000,47.39775068331647,8.545607685345836,488.04037,488.04037,488.05307,488.05307,0.897855,0.38719997,487.94464,1,1,3,3,3,0,0
7147000,7147000,47.39775068363233,8.545607683746649,488.0403,488.0403,488.05307,488.05307,0.89804316,0.38729966,487.94452,1,1,3,3,3,0,0
7155000,7155000,47.39775068394997,8.545607682295657,488.04025,488.04025,488.05307,488.05307,0.8982383,0.38740116,487.9444,1,1,3,3,3,0,0
7163000,7163000,47.39775068420704,8.545607680907779,488.04016,488.04016,488.05307,488.05307,0.8984405,0.38515562,487.94376,1,1,3,3,3,0,0
7171000,7171000,47.39775068440527,8.545607679518126,488.04007,488.04007,488.05307,488.05307,0.8986486,0.38526008,487.94363,1,1,3,3,3,0,0
7179000,7179000,47.39775068455596,8.545607678241872,488.03998,488.03998,488.05307,488.05307,0.8988654,0.38536632,487.9435,1,1,3,3,3,0,0
7187000,7187000,47.39775068468953,8.545607677035369,488.0399,488.0399,488.05307,488.05307,0.89908963,0.38547444,487.94342,1,1,3,3,3,0,0
7195000,7195000,47.39775068487764,8.545607675805588,488.0398,488.0398,488.05307,488.05307,0.8993216,0.38558438,487.94333,1,1,3,3,3,0,0
7203000,7203000,47.397750685020256,8.545607674580925,488.03967,488.03967,488.05307,488.05307,0.89956135,0.3856962,487.94324,1,1,3,3,3,0,0
7211000,7211000,47.39775068511838,8.54560767340895,488.03958,488.03958,488.05307,488.05307,0.8998091,0.38580993,487.94315,1,1,3,3,3,0,0
7219000,7219000,47.39775068523443,8.545607672354459,488.03946,488.03946,488.05307,488.05307,0.90006495,0.38360536,487.94327,1,1,3,3,3,0,0
7227000,7227000,47.39775068535334,8.545607671407332,488.03934,488.03934,488.05307,488.05307,0.900329,0.3837222,487.94318,1,1,3,3,3,0,0
7235000,7235000,47.3977506854797,8.545607670522292,488.0392,488.0392,488.05307,488.05307,0.9005994,0.38384098,487.94308,1,1,3,3,3,0,0
7243000,7243000,47.397750685650635,8.545607669564163,488.03912,488.03912,488.05307,488.05307,0.90088034,0.3839617,487.943,1,1,3,3,3,0,0
7251000,7251000,47.39775068586214,8.545607668636864,488.039,488.039,488.05307,488.05307,0.90116996,0.3840844,487.9429,1,1,3,3,3,0,0
7259000,7259000,47.39775068613007,8.545607667673174,488.03888,488.03888,488.05307,488.05307,0.90146846,0.3842091,487.9428,1,1,3,3,3,0,0
7267000,7267000,47.39775068642491,8.545607666684727,488.0388,488.0388,488.05307,488.05307,0.90177596,0.3843358,487.94272,1,1,3,3,3,0,0
7275000,7275000,47.397750686700405,8.545607665840416,488.03864,488.03864,488.05307,488.05307,0.90209264,0.38446447,487.94263,1,1,3,3,3,0,0
7283000,7283000,47.39775068691725,8.545607665135414,488.0385,488.0385,488.05307,488.05307,0.9024186,0.38229898,487.94214,1,1,3,3,3,0,0
7291000,7291000,47.397750687116094,8.545607664486667,488.03836,488.03836,488.05307,488.05307,0.90275407,0.382431,487.94205,1,1,3,3,3,0,0
7299000,7299000,47.397750687347084,8.545607663863494,488.03824,488.03824,488.05307,488.05307,0.9030992,0.38256508,487.94193,1,1,3,3,3,0,0
7307000,7307000,47.39775068761246,8.545607663227829,488.0381,488.0381,488.05307,488.05307,0.9034507,0.38270125,487.9418,1,1,3,3,3,0,0
7315000,7315000,47.397750687767314,8.545607662597956,488.03793,488.03793,488.05307,488.05307,0.90381545,0.3828395,487.94168,1,1,3,3,3,0,0
7323000,7323000,47.397750687778924,8.545607662026905,488.03775,488.03775,488.05307,488.05307,0.90419024,0.38297987,487.94156,1,1,3,3,3,0,0
7331000,7331000,47.39775068776467,8.545607661637815,488.0376,488.0376,488.05307,488.05307,0.9045753,0.38312238,487.94144,1,1,3,3,3,0,0
7339000,7339000,47.39775068772048,8.545607661176351,488.03745,488.03745,488.05307,488.05307,0.9049708,0.38326707,487.9413,1,1,3,3,3,0,0
7347000,7347000,47.397750687682006,8.545607660648015,488.03732,488.03732,488.05307,488.05307,0.905377,0.38113883,487.94144,1,1,3,3,3,0,0
7355000,7355000,47.39775068764404,8.5456076601315,488.03717,488.03717,488.05307,488.05307,0.9057939,0.38128698,487.94128,1,1,3,3,3,0,0
7363000,7363000,47.39775068756509,8.545607659532088,488.03705,488.03705,488.05307,488.05307,0.90622175,0.38143733,487.94113,1,1,3,3,3,0,0
7371000,7371000,47.39775068746441,8.545607658842268,488.0369,488.0369,488.05307,488.05307,0.90666074,0.3815899,487.94098,1,1,3,3,3,0,0
7379000,7379000,47.39775068736638,8.545607658189766,488.03677,488.03677,488.05307,488.05307,0.9071058,0.3817447,487.94083,1,1,3,3,3,0,0
7387000,7387000,47.397750687222064,8.545607657539236,488.03662,488.03662,488.05307,488.05307,0.90756726,0.38190177,487.94067,1,1,3,3,3,0,0
7395000,7395000,47.397750687001135,8.545607656896555,488.03653,488.03653,488.05307,488.05307,0.9080404,0.3820611,487.94052,1,1,3,3,3,0,0
7403000,7403000,47.39775068675829,8.54560765624747,488.03644,488.03644,488.05307,488.05307,0.9085253,0.3822227,487.94037,1,1,3,3,3,0,0
7411000,7411000,47.397750686463674,8.545607655623572,488.03635,488.03635,488.05307,488.05307,0.9090222,0.38012984,487.94025,1,1,3,3,3,0,0
7419000,7419000,47.39775068617183,8.54560765500843,488.03625,488.03625,488.05307,488.05307,0.90953135,0.38029513,487.9401,1,1,3,3,3,0,0
7427000,7427000,47.397750685876076,8.545607654403414,488.03616,488.03616,488.05307,488.05307,0.9100528,0.3804627,487.93994,1,1,3,3,3,0,0
7435000,7435000,47.39775068556485,8.545607653960825,488.03607,488.03607,488.05307,488.05307,0.9105866,0.38063267,487.9398,1,1,3,3,3,0,0
7443000,7443000,47.39775068521708,8.545607653581467,488.03595,488.03595,488.05307,488.05307,0.9111331,0.380805,487.93964,1,1,3,3,3,0,0
7451000,7451000,47.39775068486716,8.545607653218863,488.0359,488.0359,488.05307,488.05307,0.91168505,0.38097972,487.93948,1,1,3,3,3,0,0
7459000,7459000,47.397750684592395,8.545607652784586,488.0358,488.0358,488.05307,488.05307,0.91225725,0.38115683,487.9393,1,1,3,3,3,0,0
7467000,7467000,47.397750684414966,8.54560765238237,488.03574,488.03574,488.05307,488.05307,0.91284263,0.38133636,487.93912,1,1,3,3,3,0,0
7475000,7475000,47.397750684289186,8.545607652195592,488.03568,488.03568,488.05307,488.05307,0.9134413,0.379277,487.93936,1,1,3,3,3,0,0
7483000,7483000,47.39775068427978,8.545607652164676,488.0356,488.0356,488.05307,488.05307,0.91405356,0.37946036,487.93918,1,1,3,3,3,0,0
7491000,7491000,47.39775068441061,8.545607652216292,488.03555,488.03555,488.05307,488.05307,0.9146796,0.37964618,487.939,1,1,3,3,3,0,0
7499000,7499000,47.397750685872914,8.54560764997192,488.03558,488.03558,488.05307,488.05307,0.763033,0.3546749,487.9415,1,1,3,3,3,0,0
7507000,7507000,47.39775068721646,8.54560764776721,488.03558,488.03558,488.05307,488.05307,0.7633334,0.35484365,487.94135,1,1,3,3,3,0,0
7515000,7515000,47.39775068850192,8.545607645598224,488.03558,488.03558,488.05307,488.05307,0.7636422,0.35501486,487.9412,1,1,3,3,3,0,0
7523000,7523000,47.39775068975702,8.545607643452936,488.03558,488.03558,488.05307,488.05307,0.7639573,0.35518858,487.94104,1,1,3,3,3,0,0
7531000,7531000,47.397750691024015,8.545607641384963,488.03558,488.03558,488.05307,488.05307,0.7642835,0.35536483,487.9409,1,1,3,3,3,0,0
7539000,7539000,47.39775069226123,8.545607639327775,488.03558,488.03558,488.05307,488.05307,0.7646186,0.35372764,487.9406,1,1,3,3,3,0,0
7547000,7547000,47.39775069347872,8.545607637087313,488.03558,488.03558,488.05307,488.05307,0.76496273,0.35390803,487.9405,1,1,3,3,3,0,0
7555000,7555000,47.39775069469081,8.54560763478797,488.03558,488.03558,488.05307,488.05307,0.765316,0.354091,487.94037,1,1,3,3,3,0,0
7563000,7563000,47.397750695906836,8.54560763260443,488.03558,488.03558,488.05307,488.05307,0.76567864,0.35427654,487.94025,1,1,3,3,3,0,0
7571000,7571000,47.397750697064026,8.545607630526545,488.03555,488.03555,488.05307,488.05307,0.76605076,0.3544647,487.94016,1,1,3,3,3,0,0
7579000,7579000,47.397750698171556,8.545607628613709,488.03555,488.03555,488.05307,488.05307,0.76643234,0.3546555,487.94006,1,1,3,3,3,0,0
7587000,7587000,47.397750699279946,8.545607626827431,488.03552,488.03552,488.05307,488.05307,0.76682365,0.35484892,487.93994,1,1,3,3,3,0,0
7595000,7595000,47.39775070041161,8.54560762504064,488.0355,488.0355,488.05307,488.05307,0.7672212,0.35504502,487.93985,1,1,3,3,3,0,0
7603000,7603000,47.39775070156074,8.545607623110968,488.03552,488.03552,488.05307,488.05307,0.7676322,0.35343254,487.94064,1,1,3,3,3,0,0
7611000,7611000,47.39775070257065,8.545607621148282,488.03552,488.03552,488.05307,488.05307,0.7680533,0.353633,487.94055,1,1,3,3,3,0,0
7619000,7619000,47.39775070346542,8.545607619338814,488.03552,488.03552,488.05307,488.05307,0.76848465,0.35383612,487.94046,1,1,3,3,3,0,0
7627000,7627000,47.397750704399485,8.545607617644984,488.03552,488.03552,488.05307,488.05307,0.76892644,0.354042,487.94037,1,1,3,3,3,0,0
7635000,7635000,47.39775070541418,8.545607616059117,488.03552,488.03552,488.05307,488.05307,0.76937866,0.3542506,487.94028,1,1,3,3,3,0,0
7643000,7643000,47.397750706517854,8.545607614546466,488.0355,488.0355,488.05307,488.05307,0.7698416,0.354462,487.9402,1,1,3,3,3,0,0
7651000,7651000,47.39775070755204,8.54560761303055,488.0355,488.0355,488.05307,488.05307,0.77031535,0.35467613,487.9401,1,1,3,3,3,0,0
7659000,7659000,47.39775070851363,8.545607611546185,488.03546,488.03546,488.05307,488.05307,0.7708,0.3548931,487.94,1,1,3,3,3,0,0
7667000,7667000,47.39775070942315,8.545607610148721,488.03543,488.03543,488.05307,488.05307,0.7712907,0.35330376,487.93988,1,1,3,3,3,0,0
7675000,7675000,47.39775071041697,8.545607608754848,488.03543,488.03543,488.05307,488.05307,0.7717975,0.3535252,487.9398,1,1,3,3,3,0,0
7683000,7683000,47.39775071150248,8.545607607525834,488.0354,488.0354,488.05307,488.05307,0.77231556,0.3537495,487.9397,1,1,3,3,3,0,0
7691000,7691000,47.39775071263147,8.54560760648059,488.03537,488.03537,488.05307,488.05307,0.7728452,0.35397667,487.9396,1,1,3,3,3,0,0
7699000,7699000,47.39775071385254,8.545607605378798,488.03534,488.03534,488.05307,488.05307,0.7733865,0.3542067,487.9395,1,1,3,3,3,0,0
7707000,7707000,47.39775071511588,8.545607604327222,488.03534,488.03534,488.05307,488.05307,0.77393955,0.35443968,487.93942,1,1,3,3,3,0,0
7715000,7715000,47.39775071643014,8.545607603348337,488.0353,488.0353,488.05307,488.05307,0.77450454,0.35467553,487.93933,1,1,3,3,3,0,0
7723000,7723000,47.397750717763245,8.545607602339494,488.03528,488.03528,488.05307,488.05307,0.77508163,0.3531084,487.9398,1,1,3,3,3,0,0
7731000,7731000,47.3977507190885,8.545607601382997,488.03528,488.03528,488.05307,488.05307,0.7756708,0.3533489,487.9397,1,1,3,3,3,0,0
7739000,7739000,47.39775072042531,8.545607600487,488.03525,488.03525,488.05307,488.05307,0.7762656,0.35359243,487.9396,1,1,3,3,3,0,0
7747000,7747000,47.397750721729516,8.545607599638585,488.03522,488.03522,488.05307,488.05307,0.7768796,0.3538389,487.9395,1,1,3,3,3,0,0
7755000,7755000,47.39775072300334,8.545607598769957,488.03516,488.03516,488.05307,488.05307,0.77750623,0.35408837,487.93942,1,1,3,3,3,0,0
7763000,7763000,47.39775072426307,8.545607597931793,488.03513,488.03513,488.05307,488.05307,0.7781457,0.35434085,487.93933,1,1,3,3,3,0,0
7771000,7771000,47.39775072553387,8.545607597197979,488.03506,488.03506,488.05307,488.05307,0.77879804,0.35459635,487.93924,1,1,3,3,3,0,0
7779000,7779000,47.39775072683239,8.545607596467311,488.035,488.035,488.05307,488.05307,0.77946347,0.35485494,487.93915,1,1,3,3,3,0,0
7787000,7787000,47.3977507281099,8.545607595802826,488.03494,488.03494,488.05307,488.05307,0.7801421,0.3533077,487.93924,1,1,3,3,3,0,0
7795000,7795000,47.39775072943173,8.545607595246974,488.0349,488.0349,488.05307,488.05307,0.78083414,0.35357106,487.93915,1,1,3,3,3,0,0
7803000,7803000,47.3977507307755,8.54560759481935,488.03485,488.03485,488.05307,488.05307,0.78153974,0.35383755,487.93906,1,1,3,3,3,0,0
7811000,7811000,47.39775073215169,8.54560759451144,488.0348,488.0348,488.05307,488.05307,0.7822497,0.35410717,487.93896,1,1,3,3,3,0,0
7819000,7819000,47.397750733578,8.545607594184265,488.03473,488.03473,488.05307,488.05307,0.7829825,0.35437992,487.93884,1,1,3,3,3,0,0
7827000,7827000,47.397750734978686,8.545607593966398,488.03464,488.03464,488.05307,488.05307,0.7837294,0.3546558,487.93872,1,1,3,3,3,0,0
7835000,7835000,47.3977507363591,8.545607593855328,488.03455,488.03455,488.05307,488.05307,0.7844903,0.35493487,487.93863,1,1,3,3,3,0,0
7843000,7843000,47.39775073769253,8.545607593715777,488.03445,488.03445,488.05307,488.05307,0.78526556,0.35521713,487.93854,1,1,3,3,3,0,0
7851000,7851000,47.3977507390244,8.545607593639472,488.03436,488.03436,488.05307,488.05307,0.78605527,0.35368794,487.93802,1,1,3,3,3,0,0
7859000,7859000,47.397750740344094,8.54560759364005,488.03424,488.03424,488.05307,488.05307,0.78685963,0.35397512,487.93793,1,1,3,3,3,0,0
7867000,7867000,47.39775074160864,8.545607593773852,488.03412,488.03412,488.05307,488.05307,0.78767866,0.35426554,487.93784,1,1,3,3,3,0,0
7875000,7875000,47.39775074279949,8.545607594015712,488.034,488.034,488.05307,488.05307,0.7885126,0.3545592,487.93774,1,1,3,3,3,0,0
7883000,7883000,47.39775074403431,8.545607594238636,488.0339,488.0339,488.05307,488.05307,0.78934914,0.35485616,487.93765,1,1,3,3,3,0,0
7891000,7891000,47.39775074536223,8.545607594638172,488.03378,488.03378,488.05307,488.05307,0.790213,0.35515636,487.93753,1,1,3,3,3,0,0
7899000,7899000,47.39775074665367,8.545607593377254,488.03375,488.03375,488.05307,488.05307,0.6804267,0.33393195,487.94064,1,1,3,3,3,0,0
7907000,7907000,47.39775074802529,8.545607592076944,488.03375,488.03375,488.05307,488.05307,0.6808625,0.33420175,487.94055,1,1,3,3,3,0,0
7915000,7915000,47.397750749493134,8.545607590779436,488.03372,488.03372,488.05307,488.05307,0.6813076,0.33296227,487.941,1,1,3,3,3,0,0
7923000,7923000,47.39775075101716,8.545607589519808,488.03372,488.03372,488.05307,488.05307,0.6817621,0.3332373,487.9409,1,1,3,3,3,0,0
7931000,7931000,47.397750752538464,8.545607588374333,488.03372,488.03372,488.05307,488.05307,0.6822262,0.33351555,487.94077,1,1,3,3,3,0,0
7939000,7939000,47.397750754052154,8.545607587483575,488.0337,488.0337,488.05307,488.05307,0.6827,0.3337971,487.94064,1,1,3,3,3,0,0
7947000,7947000,47.39775075556867,8.545607586711261,488.0337,488.0337,488.05307,488.05307,0.6831835,0.33408192,487.94052,1,1,3,3,3,0,0
7955000,7955000,47.39775075714094,8.545607585991046,488.03366,488.03366,488.05307,488.05307,0.6836726,0.33437005,487.9404,1,1,3,3,3,0,0
7963000,7963000,47.39775075873915,8.545607585374686,488.03366,488.03366,488.05307,488.05307,0.68417585,0.33466148,487.94028,1,1,3,3,3,0,0
7971000,7971000,47.39775076029718,8.545607584745614,488.03363,488.03363,488.05307,488.05307,0.6846893,0.33495626,487.94016,1,1,3,3,3,0,0
7979000,7979000,47.397750761837834,8.545607584050705,488.0336,488.0336,488.05307,488.05307,0.6852129,0.3337314,487.94067,1,1,3,3,3,0,0
7987000,7987000,47.39775076339452,8.545607583319653,488.03357,488.03357,488.05307,488.05307,0.6857468,0.33403155,487.94055,1,1,3,3,3,0,0
7995000,7995000,47.39775076495126,8.545607582649362,488.03354,488.03354,488.05307,488.05307,0.68629116,0.33433503,487.94043,1,1,3,3,3,0,0
8003000,8003000,47.397750766520424,8.545607582114473,488.0335,488.0335,488.05307,488.05307,0.686846,0.33464193,487.94028,1,1,3,3,3,0,0
8011000,8011000,47.397750768122464,8.545607581696204,488.03348,488.03348,488.05307,488.05307,0.6874116,0.33495224,487.94012,1,1,3,3,3,0,0
8019000,8019000,47.397750769778476,8.545607581254409,488.03345,488.03345,488.05307,488.05307,0.68798786,0.33526596,487.93997,1,1,3,3,3,0,0
8027000,8027000,47.397750771438716,8.545607580784228,488.03345,488.03345,488.05307,488.05307,0.6885695,0.33558315,487.93982,1,1,3,3,3,0,0
8035000,8035000,47.397750773154804,8.545607580386308,488.03342,488.03342,488.05307,488.05307,0.6891676,0.33590376,487.93967,1,1,3,3,3,0,0
8043000,8043000,47.39775077495142,8.545607580157393,488.0334,488.0334,488.05307,488.05307,0.68977684,0.3346918,487.93933,1,1,3,3,3,0,0
8051000,8051000,47.39775077667555,8.545607580025747,488.03333,488.03333,488.05307,488.05307,0.6903973,0.3350179,487.93918,1,1,3,3,3,0,0
8059000,8059000,47.39775077835878,8.545607580038915,488.03326,488.03326,488.05307,488.05307,0.69102913,0.33534747,487.93903,1,1,3,3,3,0,0
8067000,8067000,47.39775078005111,8.545607580089703,488.0332,488.0332,488.05307,488.05307,0.69167244,0.33568057,487.93887,1,1,3,3,3,0,0
8075000,8075000,47.39775078174132,8.545607580109566,488.03314,488.03314,488.05307,488.05307,0.6923274,0.33601722,487.93872,1,1,3,3,3,0,0
8083000,8083000,47.397750783512436,8.545607580121798,488.03308,488.03308,488.05307,488.05307,0.692994,0.33635738,487.93857,1,1,3,3,3,0,0
8091000,8091000,47.39775078538107,8.545607580117428,488.03302,488.03302,488.05307,488.05307,0.6936725,0.33670112,487.93842,1,1,3,3,3,0,0
8099000,8099000,47.397750787242096,8.54560758007452,488.03296,488.03296,488.05307,488.05307,0.69435567,0.33704844,487.93826,1,1,3,3,3,0,0
8107000,8107000,47.39775078912211,8.545607579913126,488.03287,488.03287,488.05307,488.05307,0.695058,0.33584738,487.93918,1,1,3,3,3,0,0
8115000,8115000,47.39775079104951,8.545607579787747,488.0328,488.0328,488.05307,488.05307,0.6957725,0.33620027,487.93903,1,1,3,3,3,0,0
8123000,8123000,47.397750793021885,8.545607579948461,488.0327,488.0327,488.05307,488.05307,0.6964993,0.33655676,487.93887,1,1,3,3,3,0,0
8131000,8131000,47.39775079506156,8.54560758031003,488.03262,488.03262,488.05307,488.05307,0.69723845,0.33691686,487.93872,1,1,3,3,3,0,0
8139000,8139000,47.39775079711941,8.545607580771179,488.0325,488.0325,488.05307,488.05307,0.6979901,0.33728063,487.93857,1,1,3,3,3,0,0
8147000,8147000,47.39775079918346,8.545607581324235,488.03238,488.03238,488.05307,488.05307,0.6987545,0.33764806,487.93842,1,1,3,3,3,0,0
8155000,8155000,47.39775080123078,8.545607581986465,488.03226,488.03226,488.05307,488.05307,0.6995316,0.33801916,487.93826,1,1,3,3,3,0,0
8163000,8163000,47.39775080317737,8.545607582822035,488.03214,488.03214,488.05307,488.05307,0.7003125,0.33839396,487.9381,1,1,3,3,3,0,0
8171000,8171000,47.39775080505755,8.545607583872622,488.032,488.032,488.05307,488.05307,0.7011153,0.33720165,487.93817,1,1,3,3,3,0,0
8179000,8179000,47.397750806896376,8.545607585031155,488.0319,488.0319,488.05307,488.05307,0.7019313,0.3375821,487.93802,1,1,3,3,3,0,0
8187000,8187000,47.39775080872255,8.545607586252032,488.03174,488.03174,488.05307,488.05307,0.7027605,0.33796626,487.93787,1,1,3,3,3,0,0
8195000,8195000,47.39775081055326,8.545607587553418,488.0316,488.0316,488.05307,488.05307,0.7036031,0.33835417,487.9377,1,1,3,3,3,0,0
8203000,8203000,47.39775081235085,8.545607588799657,488.03146,488.03146,488.05307,488.05307,0.7044592,0.33874583,487.93756,1,1,3,3,3,0,0
8211000,8211000,47.3977508141776,8.545607590089144,488.0313,488.0313,488.05307,488.05307,0.70532876,0.33914125,487.9374,1,1,3,3,3,0,0
8219000,8219000,47.39775081603769,8.5456075914839,488.03113,488.03113,488.05307,488.05307,0.70621204,0.33954045,487.93726,1,1,3,3,3,0,0
8227000,8227000,47.39775081801606,8.5456075931005,488.03098,488.03098,488.05307,488.05307,0.70710915,0.33835647,487.9375,1,1,3,3,3,0,0
8235000,8235000,47.39775082015509,8.545607595011269,488.03082,488.03082,488.05307,488.05307,0.70800847,0.3387614,487.93735,1,1,3,3,3,0,0
8243000,8243000,47.39775082233891,8.545607597159877,488.03064,488.03064,488.05307,488.05307,0.70893335,0.3391701,487.9372,1,1,3,3,3,0,0
8251000,8251000,47.39775082448933,8.545607599367571,488.03046,488.03046,488.05307,488.05307,0.7098724,0.33958265,487.937,1,1,3,3,3,0,0
8259000,8259000,47.397750826593786,8.545607601660839,488.0303,488.0303,488.05307,488.05307,0.7108258,0.33999905,487.93683,1,1,3,3,3,0,0
8267000,8267000,47.39775082864121,8.545607604053156,488.03015,488.03015,488.05307,488.05307,0.7117935,0.3404193,487.9366,1,1,3,3,3,0,0
8275000,8275000,47.39775083071431,8.545607606589485,488.02997,488.02997,488.05307,488.05307,0.71277565,0.34084344,487.9364,1,1,3,3,3,0,0
8283000,8283000,47.39775083281733,8.545607609422389,488.0298,488.0298,488.05307,488.05307,0.7137725,0.34127143,487.9362,1,1,3,3,3,0,0
8291000,8291000,47.3977508349617,8.545607612509711,488.02963,488.02963,488.05307,488.05307,0.714784,0.34009185,487.9362,1,1,3,3,3,0,0
8299000,8299000,47.39775083497133,8.545607612723206,488.02957,488.02957,488.05307,488.05307,0.624886,0.32039666,487.9399,1,1,3,3,3,0,0
8307000,8307000,47.397750835129784,8.545607612951128,488.02954,488.02954,488.05307,488.05307,0.6254281,0.32077935,487.9397,1,1,3,3,3,0,0
8315000,8315000,47.397750835442594,8.545607613447874,488.02948,488.02948,488.05307,488.05307,0.62598366,0.32116583,487.93948,1,1,3,3,3,0,0
8323000,8323000,47.397750835856115,8.545607614211583,488.02942,488.02942,488.05307,488.05307,0.6265487,0.32155606,487.93927,1,1,3,3,3,0,0
8331000,8331000,47.397750836410836,8.545607615171575,488.0294,488.0294,488.05307,488.05307,0.62712336,0.32195008,487.93906,1,1,3,3,3,0,0
8339000,8339000,47.39775083705657,8.545607616254484,488.0293,488.0293,488.05307,488.05307,0.6277077,0.32234788,487.93884,1,1,3,3,3,0,0
8347000,8347000,47.397750837679055,8.545607617310012,488.02924,488.02924,488.05307,488.05307,0.6283018,0.32274953,487.93863,1,1,3,3,3,0,0
8355000,8355000,47.397750838290946,8.54560761842465,488.02917,488.02917,488.05307,488.05307,0.6289058,0.32179102,487.93903,1,1,3,3,3,0,0
8363000,8363000,47.397750838966,8.545607619549681,488.0291,488.0291,488.05307,488.05307,0.6295197,0.32219857,487.9388,1,1,3,3,3,0,0
8371000,8371000,47.39775083969916,8.545607620784214,488.02902,488.02902,488.05307,488.05307,0.6301387,0.32261,487.9386,1,1,3,3,3,0,0
8379000,8379000,47.397750840462336,8.545607622225544,488.02893,488.02893,488.05307,488.05307,0.6307727,0.32302526,487.93835,1,1,3,3,3,0,0
8387000,8387000,47.39775084125606,8.545607623721203,488.0288,488.0288,488.05307,488.05307,0.63141704,0.3234444,487.9381,1,1,3,3,3,0,0
8395000,8395000,47.39775084222408,8.545607625327477,488.02872,488.02872,488.05307,488.05307,0.6320716,0.32386744,487.93787,1,1,3,3,3,0,0
8403000,8403000,47.397750843325525,8.545607627127836,488.0286,488.0286,488.05307,488.05307,0.6327367,0.32429436,487.93762,1,1,3,3,3,0,0
8411000,8411000,47.39775084447204,8.545607629057445,488.0285,488.0285,488.05307,488.05307,0.63341224,0.32472518,487.93738,1,1,3,3,3,0,0
8419000,8419000,47.39775084572008,8.545607631115738,488.02835,488.02835,488.05307,488.05307,0.6340985,0.3237706,487.9368,1,1,3,3,3,0,0
8427000,8427000,47.39775084705577,8.545607633345892,488.02823,488.02823,488.05307,488.05307,0.6347955,0.32420737,487.93655,1,1,3,3,3,0,0
8435000,8435000,47.39775084846529,8.545607635683355,488.0281,488.0281,488.05307,488.05307,0.6355033,0.32464808,487.9363,1,1,3,3,3,0,0
8443000,8443000,47.39775084990911,8.545607638163865,488.02798,488.02798,488.05307,488.05307,0.6362158,0.32509276,487.93607,1,1,3,3,3,0,0
8451000,8451000,47.397750851512995,8.54560764083183,488.02783,488.02783,488.05307,488.05307,0.6369454,0.32554138,487.93582,1,1,3,3,3,0,0
8459000,8459000,47.39775085325619,8.545607643603564,488.0277,488.0277,488.05307,488.05307,0.6376862,0.32599396,487.93558,1,1,3,3,3,0,0
8467000,8467000,47.397750855067095,8.545607646517418,488.0276,488.0276,488.05307,488.05307,0.6384382,0.3264505,487.93536,1,1,3,3,3,0,0
8475000,8475000,47.397750856890895,8.545607649695155,488.02744,488.02744,488.05307,488.05307,0.6392016,0.32691103,487.93515,1,1,3,3,3,0,0
8483000,8483000,47.39775085865942,8.545607653151757,488.02734,488.02734,488.05307,488.05307,0.6399764,0.32595792,487.93527,1,1,3,3,3,0,0
8491000,8491000,47.39775086036926,8.545607656755813,488.02722,488.02722,488.05307,488.05307,0.64076275,0.32642445,487.93503,1,1,3,3,3,0,0
8499000,8499000,47.39775086208746,8.54560766035507,488.0271,488.0271,488.05307,488.05307,0.6415607,0.32689497,487.93478,1,1,3,3,3,0,0
8507000,8507000,47.39775086390346,8.54560766382316,488.027,488.027,488.05307,488.05307,0.64237034,0.32736954,487.93454,1,1,3,3,3,0,0
8515000,8515000,47.39775086580383,8.545607667226548,488.0269,488.0269,488.05307,488.05307,0.64318377,0.32784814,487.9343,1,1,3,3,3,0,0
8523000,8523000,47.397750867870116,8.54560767067187,488.0268,488.0268,488.05307,488.05307,0.644017,0.32833076,487.93405,1,1,3,3,3,0,0
8531000,8531000,47.39775087009154,8.545607674288865,488.02667,488.02667,488.05307,488.05307,0.6448621,0.32881746,487.93378,1,1,3,3,3,0,0
8539000,8539000,47.39775087240894,8.5456076779926,488.02655,488.02655,488.05307,488.05307,0.64571935,0.32930818,487.9335,1,1,3,3,3,0,0
8547000,8547000,47.397750874802774,8.545607681706862,488.0264,488.0264,488.05307,488.05307,0.64658886,0.32835382,487.9327,1,1,3,3,3,0,0
8555000,8555000,47.397750877208075,8.54560768560547,488.0262,488.0262,488.05307,488.05307,0.6474707,0.32885054,487.93243,1,1,3,3,3,0,0
8563000,8563000,47.39775087958375,8.54560768959736,488.02606,488.02606,488.05307,488.05307,0.648365,0.32935134,487.93216,1,1,3,3,3,0,0
8571000,8571000,47.39775088193227,8.545607693549275,488.02588,488.02588,488.05307,488.05307,0.6492718,0.32985622,487.9319,1,1,3,3,3,0,0
8579000,8579000,47.397750884265335,8.545607697519612,488.02573,488.02573,488.05307,488.05307,0.65019125,0.3303652,487.9316,1,1,3,3,3,0,0
8587000,8587000,47.397750886590394,8.54560770150118,488.02554,488.02554,488.05307,488.05307,0.65111274,0.33087832,487.93134,1,1,3,3,3,0,0
8595000,8595000,47.39775088888352,8.545607705604176,488.02536,488.02536,488.05307,488.05307,0.65205747,0.33139554,487.9311,1,1,3,3,3,0,0
8603000,8603000,47.39775089112353,8.545607709868355,488.0252,488.0252,488.05307,488.05307,0.65301526,0.33191687,487.93085,1,1,3,3,3,0,0
8611000,8611000,47.39775089331361,8.54560771433442,488.02502,488.02502,488.05307,488.05307,0.65398604,0.33095837,487.93103,1,1,3,3,3,0,0
8619000,8619000,47.397750895514804,8.545607718839987,488.02487,488.02487,488.05307,488.05307,0.65497,0.33148563,487.9308,1,1,3,3,3,0,0
8627000,8627000,47.397750897815556,8.545607723435733,488.02472,488.02472,488.05307,488.05307,0.6559671,0.33201703,487.93054,1,1,3,3,3,0,0
8635000,8635000,47.39775090019903,8.54560772808568,488.02457,488.02457,488.05307,488.05307,0.6569776,0.3325526,487.9303,1,1,3,3,3,0,0
8643000,8643000,47.39775090260245,8.545607732851323,488.02438,488.02438,488.05307,488.05307,0.65800154,0.33309233,487.93005,1,1,3,3,3,0,0
8651000,8651000,47.39775090500046,8.545607737739257,488.02423,488.02423,488.05307,488.05307,0.659039,0.33363625,487.9298,1,1,3,3,3,0,0
8659000,8659000,47.39775090747786,8.545607742802249,488.02408,488.02408,488.05307,488.05307,0.6600757,0.33418432,487.9296,1,1,3,3,3,0,0
8667000,8667000,47.39775091003119,8.545607748012436,488.0239,488.0239,488.05307,488.05307,0.66114026,0.3347366,487.92938,1,1,3,3,3,0,0
8675000,8675000,47.39775091258204,8.54560775344268,488.0237,488.0237,488.05307,488.05307,0.66221863,0.33377087,487.92957,1,1,3,3,3,0,0
8683000,8683000,47.397750915200284,8.54560775889766,488.02356,488.02356,488.05307,488.05307,0.66331095,0.33432898,487.92932,1,1,3,3,3,0,0
8691000,8691000,47.397750917910614,8.54560776425234,488.02338,488.02338,488.05307,488.05307,0.6644173,0.3348913,487.92908,1,1,3,3,3,0,0
8699000,8699000,47.39775091613924,8.545607761929576,488.0233,488.0233,488.05307,488.05307,0.58560944,0.31477758,487.9322,1,1,3,3,3,0,0
8707000,8707000,47.3977509145376,8.545607759701406,488.0232,488.0232,488.05307,488.05307,0.58624125,0.31527427,487.93195,1,1,3,3,3,0,0
8715000,8715000,47.397750913050814,8.54560775752404,488.0231,488.0231,488.05307,488.05307,0.5868822,0.315775,487.9317,1,1,3,3,3,0,0
8723000,8723000,47.397750911675914,8.545607755460692,488.02298,488.02298,488.05307,488.05307,0.5875324,0.31627977,487.93146,1,1,3,3,3,0,0
8731000,8731000,47.397750910379386,8.545607753589692,488.02286,488.02286,488.05307,488.05307,0.5881879,0.3155039,487.93152,1,1,3,3,3,0,0
8739000,8739000,47.397750909196475,8.545607751846665,488.02274,488.02274,488.05307,488.05307,0.58885694,0.31601468,487.93127,1,1,3,3,3,0,0
8747000,8747000,47.3977509081194,8.545607750318933,488.0226,488.0226,488.05307,488.05307,0.5895355,0.31652954,487.93103,1,1,3,3,3,0,0
8755000,8755000,47.39775090710656,8.545607748916858,488.0225,488.0225,488.05307,488.05307,0.59022367,0.31704846,487.9308,1,1,3,3,3,0,0
8763000,8763000,47.397750906133844,8.545607747643464,488.02234,488.02234,488.05307,488.05307,0.5909216,0.31757146,487.93057,1,1,3,3,3,0,0
8771000,8771000,47.39775090522551,8.54560774643865,488.0222,488.0222,488.05307,488.05307,0.5916293,0.31809852,487.93033,1,1,3,3,3,0,0
8779000,8779000,47.397750904324965,8.545607745281039,488.02206,488.02206,488.05307,488.05307,0.5923469,0.31862968,487.9301,1,1,3,3,3,0,0
8787000,8787000,47.39775090350496,8.545607744246924,488.0219,488.0219,488.05307,488.05307,0.59307444,0.31916493,487.9299,1,1,3,3,3,0,0
8795000,8795000,47.3977509027231,8.545607743349402,488.02176,488.02176,488.05307,488.05307,0.59381217,0.31838405,487.93024,1,1,3,3,3,0,0
8803000,8803000,47.39775090193626,8.545607742566615,488.0216,488.0216,488.05307,488.05307,0.594555,0.31892526,487.93002,1,1,3,3,3,0,0
8811000,8811000,47.3977509012925,8.54560774196621,488.02148,488.02148,488.05307,488.05307,0.59531295,0.3194706,487.9298,1,1,3,3,3,0,0
8819000,8819000,47.397750900784224,8.545607741546533,488.02133,488.02133,488.05307,488.05307,0.5960812,0.32002005,487.92957,1,1,3,3,3,0,0
8827000,8827000,47.39775090034152,8.54560774126379,488.02118,488.02118,488.05307,488.05307,0.5968599,0.32057363,487.92932,1,1,3,3,3,0,0
8835000,8835000,47.39775089996905,8.545607741042122,488.02106,488.02106,488.05307,488.05307,0.59764904,0.32113132,487.92908,1,1,3,3,3,0,0
8843000,8843000,47.39775089962798,8.545607741009622,488.02094,488.02094,488.05307,488.05307,0.59844875,0.32169312,487.92883,1,1,3,3,3,0,0
8851000,8851000,47.39775089932326,8.54560774115186,488.0208,488.0208,488.05307,488.05307,0.59925914,0.32225907,487.9286,1,1,3,3,3,0,0
8859000,8859000,47.397750899087235,8.545607741499074,488.02072,488.02072,488.05307,488.05307,0.6000804,0.3214701,487.92908,1,1,3,3,3,0,0
8867000,8867000,47.39775089891715,8.545607742051777,488.02063,488.02063,488.05307,488.05307,0.6009124,0.32204196,487.9288,1,1,3,3,3,0,0
8875000,8875000,47.39775089883223,8.545607742707961,488.02054,488.02054,488.05307,488.05307,0.6017488,0.32261795,487.92853,1,1,3,3,3,0,0
8883000,8883000,47.39775089886793,8.545607743512925,488.02045,488.02045,488.05307,488.05307,0.6026026,0.32319808,487.92825,1,1,3,3,3,0,0
8891000,8891000,47.39775089898328,8.545607744587517,488.02036,488.02036,488.05307,488.05307,0.6034675,0.32378238,487.92798,1,1,3,3,3,0,0
8899000,8899000,47.39775089919757,8.545607745787251,488.02026,488.02026,488.05307,488.05307,0.6043437,0.32437083,487.9277,1,1,3,3,3,0,0
8907000,8907000,47.39775089950917,8.54560774692911,488.02017,488.02017,488.05307,488.05307,0.6052312,0.32496345,487.92743,1,1,3,3,3,0,0
8915000,8915000,47.397750899879036,8.545607748053719,488.02005,488.02005,488.05307,488.05307,0.60613,0.32556024,487.92715,1,1,3,3,3,0,0
8923000,8923000,47.397750900325235,8.545607749264919,488.01993,488.01993,488.05307,488.05307,0.6070404,0.3247599,487.92657,1,1,3,3,3,0,0
8931000,8931000,47.39775090077938,8.545607750623043,488.0198,488.0198,488.05307,488.05307,0.60796237,0.32536244,487.9263,1,1,3,3,3,0,0
8939000,8939000,47.39775090130653,8.54560775212386,488.01968,488.01968,488.05307,488.05307,0.60889596,0.3259692,487.92603,1,1,3,3,3,0,0
8947000,8947000,47.3977509018286,8.545607753718922,488.01953,488.01953,488.05307,488.05307,0.60983205,0.3265801,487.92575,1,1,3,3,3,0,0
8955000,8955000,47.3977509023223,8.545607755502585,488.01938,488.01938,488.05307,488.05307,0.61078894,0.32719523,487.92548,1,1,3,3,3,0,0
8963000,8963000,47.39775090284817,8.545607757553233,488.01923,488.01923,488.05307,488.05307,0.6117578,0.32781452,487.9252,1,1,3,3,3,0,0
8971000,8971000,47.39775090346683,8.545607759835336,488.01907,488.01907,488.05307,488.05307,0.6127387,0.328438,487.92493,1,1,3,3,3,0,0
8979000,8979000,47.397750904174124,8.545607762240882,488.01892,488.01892,488.05307,488.05307,0.61373186,0.32906568,487.92465,1,1,3,3,3,0,0
8987000,8987000,47.3977509049941,8.545607764763968,488.01877,488.01877,488.05307,488.05307,0.6147372,0.3282505,487.92438,1,1,3,3,3,0,0
8995000,8995000,47.397750905871575,8.54560776749172,488.01862,488.01862,488.05307,488.05307,0.61575496,0.32888383,487.92413,1,1,3,3,3,0,0
9003000,9003000,47.397750906797064,8.545607770329486,488.01846,488.01846,488.05307,488.05307,0.61678517,0.32952133,487.9239,1,1,3,3,3,0,0
9011000,9011000,47.39775090775666,8.545607773276945,488.01828,488.01828,488.05307,488.05307,0.61782795,0.33016306,487.92365,1,1,3,3,3,0,0
9019000,9019000,47.39775090864487,8.545607776381667,488.01813,488.01813,488.05307,488.05307,0.6188696,0.330809,487.9234,1,1,3,3,3,0,0
9027000,9027000,47.397750909571876,8.54560777970947,488.01797,488.01797,488.05307,488.05307,0.6199372,0.33145913,487.9232,1,1,3,3,3,0,0
9035000,9035000,47.3977509105419,8.545607783245861,488.01782,488.01782,488.05307,488.05307,0.62101763,0.3321135,487.92297,1,1,3,3,3,0,0
9043000,9043000,47.3977509116296,8.545607786859135,488.01764,488.01764,488.05307,488.05307,0.62211096,0.33277208,487.92276,1,1,3,3,3,0,0
9051000,9051000,47.39775091277209,8.545607790586892,488.0175,488.0175,488.05307,488.05307,0.62321734,0.33193836,487.9228,1,1,3,3,3,0,0
9059000,9059000,47.39775091389935,8.545607794408332,488.01733,488.01733,488.05307,488.05307,0.6243367,0.33260238,487.92258,1,1,3,3,3,0,0
9067000,9067000,47.39775091502488,8.545607798414293,488.01718,488.01718,488.05307,488.05307,0.6254694,0.33327064,487.92236,1,1,3,3,3,0,0
9075000,9075000,47.397750916163645,8.545607802627691,488.01703,488.01703,488.05307,488.05307,0.6266153,0.33394313,487.92215,1,1,3,3,3,0,0
9083000,9083000,47.39775091737173,8.545607806936161,488.01685,488.01685,488.05307,488.05307,0.62775517,0.33461982,487.92194,1,1,3,3,3,0,0
9091000,9091000,47.397750918651155,8.545607811404277,488.01663,488.01663,488.05307,488.05307,0.62892705,0.33530074,487.9217,1,1,3,3,3,0,0
9099000,9099000,47.39775091580103,8.545607807799735,488.01666,488.01666,488.05307,488.05307,0.5569809,0.31374243,487.9282,1,1,3,3,3,0,0
9107000,9107000,47.397750913078454,8.54560780442238,488.0167,488.0167,488.05307,488.05307,0.5576768,0.31434083,487.92798,1,1,3,3,3,0,0
9115000,9115000,47.397750910497486,8.545607801253366,488.0167,488.0167,488.05307,488.05307,0.5583815,0.3136814,487.92764,1,1,3,3,3,0,0
9123000,9123000,47.39775090808698,8.545607798328268,488.0167,488.0167,488.05307,488.05307,0.5590954,0.31428546,487.92743,1,1,3,3,3,0,0
9131000,9131000,47.3977509057938,8.54560779566135,488.01666,488.01666,488.05307,488.05307,0.5598182,0.3148936,487.92722,1,1,3,3,3,0,0
9139000,9139000,47.39775090369365,8.545607793225145,488.01666,488.01666,488.05307,488.05307,0.56055033,0.31550577,487.927,1,1,3,3,3,0,0
9147000,9147000,47.39775090177697,8.545607790921538,488.01666,488.01666,488.05307,488.05307,0.5612917,0.316122,487.9268,1,1,3,3,3,0,0
9155000,9155000,47.39775089989697,8.54560778874948,488.01663,488.01663,488.05307,488.05307,0.5620391,0.3167423,487.92657,1,1,3,3,3,0,0
9163000,9163000,47.39775089809457,8.545607786688812,488.01663,488.01663,488.05307,488.05307,0.5627992,0.31736666,487.92636,1,1,3,3,3,0,0
9171000,9171000,47.39775089638844,8.545607784834354,488.0166,488.0166,488.05307,488.05307,0.56356895,0.31799504,487.92615,1,1,3,3,3,0,0
9179000,9179000,47.397750894784366,8.54560778312857,488.0166,488.0166,488.05307,488.05307,0.5643483,0.31732106,487.92642,1,1,3,3,3,0,0
9187000,9187000,47.397750893276026,8.545607781569931,488.01654,488.01654,488.05307,488.05307,0.56513727,0.317955,487.9262,1,1,3,3,3,0,0
9195000,9195000,47.397750891842314,8.54560778000827,488.0165,488.0165,488.05307,488.05307,0.565936,0.31859297,487.926,1,1,3,3,3,0,0
9203000,9203000,47.39775089049864,8.545607778410824,488.01645,488.01645,488.05307,488.05307,0.5667447,0.319235,487.92578,1,1,3,3,3,0,0
9211000,9211000,47.39775088925418,8.54560777690737,488.0164,488.0164,488.05307,488.05307,0.56756335,0.3198811,487.92557,1,1,3,3,3,0,0
9219000,9219000,47.39775088813031,8.545607775660965,488.01633,488.01633,488.05307,488.05307,0.56839204,0.32053128,487.92535,1,1,3,3,3,0,0
9227000,9227000,47.397750887124054,8.545607774576478,488.0163,488.0163,488.05307,488.05307,0.5692267,0.32118553,487.92514,1,1,3,3,3,0,0
9235000,9235000,47.39775088625697,8.545607773590463,488.0162,488.0162,488.05307,488.05307,0.5700755,0.3204977,487.9246,1,1,3,3,3,0,0
9243000,9243000,47.397750885523784,8.545607772815343,488.01614,488.01614,488.05307,488.05307,0.57093465,0.3211573,487.92435,1,1,3,3,3,0,0
9251000,9251000,47.39775088488798,8.545607772119203,488.01605,488.01605,488.05307,488.05307,0.57180417,0.32182097,487.9241,1,1,3,3,3,0,0
9259000,9259000,47.39775088436695,8.545607771527024,488.01596,488.01596,488.05307,488.05307,0.57268417,0.32248873,487.92386,1,1,3,3,3,0,0
9267000,9267000,47.39775088389144,8.545607771122443,488.01587,488.01587,488.05307,488.05307,0.5735747,0.32316056,487.9236,1,1,3,3,3,0,0
9275000,9275000,47.39775088352035,8.545607770849253,488.0158,488.0158,488.05307,488.05307,0.57447594,0.32383645,487.92337,1,1,3,3,3,0,0
9283000,9283000,47.39775088321868,8.545607770794431,488.01572,488.01572,488.05307,488.05307,0.575388,0.32451642,487.92313,1,1,3,3,3,0,0
9291000,9291000,47.397750882938546,8.545607771013227,488.01566,488.01566,488.05307,488.05307,0.5763109,0.32520044,487.9229,1,1,3,3,3,0,0
9299000,9299000,47.397750882713694,8.545607771355888,488.0156,488.0156,488.05307,488.05307,0.5772381,0.3244913,487.92276,1,1,3,3,3,0,0
9307000,9307000,47.39775088255504,8.54560777168016,488.01553,488.01553,488.05307,488.05307,0.57818264,0.3251805,487.92255,1,1,3,3,3,0,0
9315000,9315000,47.39775088252136,8.545607771994758,488.01544,488.01544,488.05307,488.05307,0.5791383,0.32587376,487.92233,1,1,3,3,3,0,0
9323000,9323000,47.39775088264714,8.54560777234566,488.01535,488.01535,488.05307,488.05307,0.5801052,0.32657114,487.92212,1,1,3,3,3,0,0
9331000,9331000,47.39775088287424,8.545607772832497,488.01526,488.01526,488.05307,488.05307,0.58108336,0.32727253,487.9219,1,1,3,3,3,0,0
9339000,9339000,47.39775088320858,8.54560777339293,488.01514,488.01514,488.05307,488.05307,0.58207285,0.32797801,487.92166,1,1,3,3,3,0,0
9347000,9347000,47.39775088361195,8.545607773984083,488.015,488.015,488.05307,488.05307,0.58307385,0.32868758,487.92142,1,1,3,3,3,0,0
9355000,9355000,47.39775088404427,8.545607774690906,488.0149,488.0149,488.05307,488.05307,0.58408636,0.32940117,487.92117,1,1,3,3,3,0,0
9363000,9363000,47.397750884603866,8.545607775659182,488.01474,488.01474,488.05307,488.05307,0.58511066,0.32866684,487.92044,1,1,3,3,3,0,0
9371000,9371000,47.39775088520997,8.54560777685158,488.01462,488.01462,488.05307,488.05307,0.5861353,0.3293854,487.9202,1,1,3,3,3,0,0
9379000,9379000,47.39775088592226,8.545607778098056,488.01447,488.01447,488.05307,488.05307,0.58718264,0.33010805,487.91995,1,1,3,3,3,0,0
9387000,9387000,47.39775088669767,8.545607779455786,488.0143,488.0143,488.05307,488.05307,0.5882419,0.33083475,487.9197,1,1,3,3,3,0,0
9395000,9395000,47.39775088754348,8.545607780958594,488.0142,488.0142,488.05307,488.05307,0.5893131,0.3315655,487.91946,1,1,3,3,3,0,0
9403000,9403000,47.39775088849157,8.5456077826207,488.01404,488.01404,488.05307,488.05307,0.5903965,0.33230034,487.91922,1,1,3,3,3,0,0
9411000,9411000,47.397750889515756,8.545607784420731,488.0139,488.0139,488.05307,488.05307,0.5914922,0.33303922,487.91898,1,1,3,3,3,0,0
9419000,9419000,47.397750890612144,8.545607786370411,488.01373,488.01373,488.05307,488.05307,0.5926001,0.33378217,487.91873,1,1,3,3,3,0,0
9427000,9427000,47.397750891758996,8.545607788399387,488.0136,488.0136,488.05307,488.05307,0.59372056,0.3330185,487.91937,1,1,3,3,3,0,0
9435000,9435000,47.397750892969015,8.5456077904946,488.01346,488.01346,488.05307,488.05307,0.59485346,0.33376616,487.91916,1,1,3,3,3,0,0
9443000,9443000,47.39775089423864,8.545607792556758,488.01334,488.01334,488.05307,488.05307,0.5959801,0.33451787,487.91895,1,1,3,3,3,0,0
9451000,9451000,47.39775089558277,8.545607794685933,488.0132,488.0132,488.05307,488.05307,0.59713745,0.33527362,487.91873,1,1,3,3,3,0,0
9459000,9459000,47.39775089694374,8.545607796929884,488.01306,488.01306,488.05307,488.05307,0.5983076,0.33603343,487.91852,1,1,3,3,3,0,0
9467000,9467000,47.397750898280194,8.54560779926667,488.01294,488.01294,488.05307,488.05307,0.59949064,0.3367973,487.9183,1,1,3,3,3,0,0
9475000,9475000,47.397750899577765,8.545607801690831,488.01282,488.01282,488.05307,488.05307,0.6006866,0.3375652,487.9181,1,1,3,3,3,0,0
9483000,9483000,47.39775090094568,8.545607804318307,488.0127,488.0127,488.05307,488.05307,0.60189563,0.33833715,487.91788,1,1,3,3,3,0,0
9491000,9491000,47.39775090245553,8.54560780711782,488.01257,488.01257,488.05307,488.05307,0.60311776,0.33753994,487.9178,1,1,3,3,3,0,0
9499000,9499000,47.39775089948199,8.545607801282378,488.01273,488.01273,488.05307,488.05307,0.5357089,0.31436118,487.92633,1,1,3,3,3,0,0
9507000,9507000,47.39775089672262,8.545607795613984,488.01288,488.01288,488.05307,488.05307,0.53645086,0.3150388,487.92612,1,1,3,3,3,0,0
9515000,9515000,47.39775089400421,8.545607790184386,488.01303,488.01303,488.05307,488.05307,0.5371988,0.31572032,487.9259,1,1,3,3,3,0,0
9523000,9523000,47.397750891325536,8.54560778499777,488.01315,488.01315,488.05307,488.05307,0.53795844,0.31640568,487.9257,1,1,3,3,3,0,0
9531000,9531000,47.39775088869063,8.545607780083456,488.0133,488.0133,488.05307,488.05307,0.538727,0.31709492,487.9255,1,1,3,3,3,0,0
9539000,9539000,47.397750886204314,8.545607775331751,488.01346,488.01346,488.05307,488.05307,0.5395045,0.31778803,487.92532,1,1,3,3,3,0,0
9547000,9547000,47.39775088383033,8.54560777069205,488.01358,488.01358,488.05307,488.05307,0.5402912,0.318485,487.92514,1,1,3,3,3,0,0
9555000,9555000,47.397750881510724,8.54560776621742,488.01367,488.01367,488.05307,488.05307,0.54108703,0.31787306,487.92465,1,1,3,3,3,0,0
9563000,9563000,47.397750879290385,8.54560776182759,488.0138,488.0138,488.05307,488.05307,0.5418921,0.31857485,487.92447,1,1,3,3,3,0,0
9571000,9571000,47.397750877103036,8.545607757543626,488.0139,488.0139,488.05307,488.05307,0.54270655,0.31928053,487.92426,1,1,3,3,3,0,0
9579000,9579000,47.39775087499646,8.545607753487328,488.01398,488.01398,488.05307,488.05307,0.5435304,0.31999004,487.92404,1,1,3,3,3,0,0
9587000,9587000,47.39775087299162,8.545607749769088,488.01404,488.01404,488.05307,488.05307,0.5443614,0.32070342,487.92383,1,1,3,3,3,0,0
9595000,9595000,47.39775087107947,8.545607746269406,488.01413,488.01413,488.05307,488.05307,0.5452044,0.32142067,487.92365,1,1,3,3,3,0,0
9603000,9603000,47.397750869165556,8.545607742996252,488.0142,488.0142,488.05307,488.05307,0.54605705,0.32214177,487.92346,1,1,3,3,3,0,0
9611000,9611000,47.39775086728984,8.54560774006145,488.01425,488.01425,488.05307,488.05307,0.5469195,0.3228667,487.92328,1,1,3,3,3,0,0
9619000,9619000,47.397750865483204,8.545607737290974,488.0143,488.0143,488.05307,488.05307,0.5477919,0.3222279,487.92346,1,1,3,3,3,0,0
9627000,9627000,47.3977508637638,8.545607734637787,488.01437,488.01437,488.05307,488.05307,0.5486742,0.32295743,487.92328,1,1,3,3,3,0,0
9635000,9635000,47.39775086204838,8.545607732137498,488.0144,488.0144,488.05307,488.05307,0.5495666,0.3236908,487.9231,1,1,3,3,3,0,0
9643000,9643000,47.397750860265816,8.545607729877307,488.01447,488.01447,488.05307,488.05307,0.55046916,0.32442805,487.9229,1,1,3,3,3,0,0
9651000,9651000,47.397750858497396,8.545607727786086,488.0145,488.0145,488.05307,488.05307,0.55138195,0.32516915,487.92273,1,1,3,3,3,0,0
9659000,9659000,47.397750856790395,8.545607725814833,488.0145,488.0145,488.05307,488.05307,0.5523011,0.32591406,487.92255,1,1,3,3,3,0,0
9667000,9667000,47.397750855201934,8.545607724096067,488.01453,488.01453,488.05307,488.05307,0.55323446,0.3266628,487.92236,1,1,3,3,3,0,0
9675000,9675000,47.39775085371784,8.545607722595525,488.01456,488.01456,488.05307,488.05307,0.55417824,0.32741538,487.9222,1,1,3,3,3,0,0
9683000,9683000,47.397750852416294,8.545607721251798,488.01456,488.01456,488.05307,488.05307,0.5551327,0.3267457,487.9218,1,1,3,3,3,0,0
9691000,9691000,47.397750851214234,8.545607720005803,488.01453,488.01453,488.05307,488.05307,0.55609787,0.3275026,487.92166,1,1,3,3,3,0,0
9699000,9699000,47.39775085008639,8.545607718866881,488.01453,488.01453,488.05307,488.05307,0.55707383,0.32826337,487.9215,1,1,3,3,3,0,0
9707000,9707000,47.397750849006286,8.545607717879943,488.0145,488.0145,488.05307,488.05307,0.55806065,0.32902798,487.92136,1,1,3,3,3,0,0
9715000,9715000,47.397750847920726,8.545607717076889,488.0145,488.0145,488.05307,488.05307,0.55905855,0.32979637,487.9212,1,1,3,3,3,0,0
9723000,9723000,47.39775084696281,8.545607716344373,488.01447,488.01447,488.05307,488.05307,0.5600675,0.33056858,487.92105,1,1,3,3,3,0,0
9731000,9731000,47.397750846088705,8.54560771580748,488.01443,488.01443,488.05307,488.05307,0.561079,0.3313446,487.9209,1,1,3,3,3,0,0
9739000,9739000,47.39775084530072,8.545607715448199,488.01437,488.01437,488.05307,488.05307,0.56210977,0.33064649,487.9209,1,1,3,3,3,0,0
9747000,9747000,47.39775084459646,8.545607715217557,488.01434,488.01434,488.05307,488.05307,0.56315184,0.33142665,487.92072,1,1,3,3,3,0,0
9755000,9755000,47.397750843994054,8.545607715180694,488.01428,488.01428,488.05307,488.05307,0.56420535,0.33221063,487.92053,1,1,3,3,3,0,0
9763000,9763000,47.3977508434882,8.545607715356342,488.01425,488.01425,488.05307,488.05307,0.56527036,0.3329984,487.92038,1,1,3,3,3,0,0
9771000,9771000,47.39775084311158,8.545607715730505,488.0142,488.0142,488.05307,488.05307,0.5663471,0.33378997,487.92023,1,1,3,3,3,0,0
9779000,9779000,47.39775084287696,8.545607716210363,488.01413,488.01413,488.05307,488.05307,0.5674356,0.33458534,487.92004,1,1,3,3,3,0,0
9787000,9787000,47.397750842663015,8.545607716782097,488.01404,488.01404,488.05307,488.05307,0.5685359,0.3353845,487.91986,1,1,3,3,3,0,0
9795000,9795000,47.39775084253717,8.545607717483415,488.01398,488.01398,488.05307,488.05307,0.56964815,0.33618742,487.91968,1,1,3,3,3,0,0
9803000,9803000,47.39775084254933,8.545607718251835,488.01392,488.01392,488.05307,488.05307,0.57075554,0.33545062,487.92072,1,1,3,3,3,0,0
9811000,9811000,47.39775084263311,8.545607719071558,488.01385,488.01385,488.05307,488.05307,0.5718908,0.3362574,487.92053,1,1,3,3,3,0,0
9819000,9819000,47.39775084276831,8.545607719895104,488.0138,488.0138,488.05307,488.05307,0.5730382,0.33706796,487.92035,1,1,3,3,3,0,0
9827000,9827000,47.397750842962324,8.545607720676339,488.01373,488.01373,488.05307,488.05307,0.57419795,0.3378823,487.92017,1,1,3,3,3,0,0
9835000,9835000,47.39775084328456,8.545607721386244,488.01367,488.01367,488.05307,488.05307,0.57537013,0.33870044,487.91998,1,1,3,3,3,0,0
9843000,9843000,47.3977508436877,8.545607722095898,488.0136,488.0136,488.05307,488.05307,0.5765549,0.33952233,487.9198,1,1,3,3,3,0,0
9851000,9851000,47.39775084420378,8.545607722978868,488.01355,488.01355,488.05307,488.05307,0.5777522,0.34034795,487.91962,1,1,3,3,3,0,0
9859000,9859000,47.39775084483191,8.54560772397125,488.0135,488.0135,488.05307,488.05307,0.5789622,0.34117734,487.91943,1,1,3,3,3,0,0
9867000,9867000,47.397750845543165,8.545607725120501,488.0134,488.0134,488.05307,488.05307,0.58018506,0.34039745,487.91843,1,1,3,3,3,0,0
9875000,9875000,47.39775084627494,8.54560772639034,488.01328,488.01328,488.05307,488.05307,0.58139104,0.3412304,487.91824,1,1,3,3,3,0,0
9883000,9883000,47.39775084706511,8.545607727729365,488.01315,488.01315,488.05307,488.05307,0.5826381,0.34206706,487.91803,1,1,3,3,3,0,0
