timestamp,timestamp_sample,time_last_fuse,device_id,observation,observation_variance,innovation,innovation_filtered,innovation_variance,test_ratio,test_ratio_filtered,estimator_instance,innovation_rejected,fused
4443000,4285000,0,0,-0.0013122559,12.25,1.0921736e-05,1.0921736e-05,112.53226,4.2400047e-14,4.2400047e-14,0,0,0
4515000,4359000,0,0,-0.032043457,12.25,0.029561339,0.0038205571,112.82604,3.0981244e-07,3.9941014e-08,0,0,0
4579000,4421666,0,0,0.13897705,12.25,-0.14238682,-0.012463048,113.174255,7.16559e-06,-7.625631e-07,0,0,0
4643000,4484333,0,0,-0.07260132,12.25,0.07043913,-0.003229824,62.601215,3.170335e-06,-3.2453687e-07,0,0,0
4699000,4547000,0,0,-0.011291504,12.25,0.0084662605,-0.0019271733,62.84166,4.5624237e-08,-2.8331021e-07,0,0,0
4763000,4611000,0,0,0.039245605,12.25,-0.043084886,-0.006597552,63.192837,1.1750112e-06,-3.8449616e-07,0,0,0
4827000,4673666,0,0,0.00030517578,12.25,-0.0049850955,-0.0064179674,63.625515,1.5623403e-08,-3.4341357e-07,0,0,0
4891000,4736333,0,0,0.054748535,12.25,-0.05517263,-0.011848014,45.58356,2.6711552e-06,-6.0266564e-07,0,0,0
4955000,4799000,0,0,0.01965332,12.25,-0.020079805,-0.012764829,45.58356,3.5381052e-07,-5.749494e-07,0,0,0
5019000,4863000,0,0,-0.045684814,12.25,0.04527822,-0.0061783832,45.583515,1.7989989e-06,-3.055652e-07,0,0,0
5083000,4925666,0,0,0.060424805,12.25,-0.060651258,-0.01224521,37.25007,3.9501406e-06,-7.114738e-07,0,0,0
5147000,4988333,0,0,-0.04650879,12.25,0.046850387,-0.005663442,37.25002,2.3570014e-06,-3.6972256e-07,0,0,0
5203000,5051000,0,0,0.008850098,12.25,-0.008542755,-0.005984125,37.25002,7.83663e-08,-3.3727278e-07,0,0,0
5267000,5115000,0,0,-0.004760742,12.25,0.0050190855,-0.004735534,32.25001,3.1244912e-08,-2.9545515e-07,0,0,0
5331000,5177666,0,0,0.042144775,12.25,-0.04200403,-0.008886252,32.25001,2.188326e-06,-5.0627057e-07,0,0,0
5395000,5240333,0,0,0.024963379,12.25,-0.025119562,-0.010694236,32.25001,7.8262593e-07,-5.3704963e-07,0,0,0
5459000,5303000,0,0,-0.058380127,12.25,0.057688467,-0.003078117,32.25001,4.1277e-06,-1.7513457e-08,0,0,0
5523000,5367000,0,0,-488.0047,12.25,-0.04949951,-0.008345793,13.25,7.3968354e-06,-8.548833e-07,0,0,0
5587000,5429666,0,0,-488.10303,12.25,0.04840088,-0.0020257258,13.250003,7.072135e-06,2.7975318e-08,0,0,0
5651000,5492333,0,0,-488.06885,12.25,0.013977051,-0.00024341769,13.25001,5.897594e-07,9.054398e-08,0,0,0
5707000,5555000,5555000,0,-488.04068,12.25,-0.014404297,-0.0018205845,13.25002,6.263652e-07,1.0698265e-08,0,0,0
5771000,5619000,5619000,0,-487.92963,12.251081,-0.12564087,-0.015871113,13.251121,4.7650694e-05,-5.397687e-06,0,0,1
5835000,5681666,5683000,0,-488.0517,12.252163,0.006134033,-0.013420327,13.176758,1.142204e-07,-4.7838075e-06,0,0,1
5899000,5744333,5747000,0,-488.12683,12.253244,0.081085205,-0.0028947797,13.112998,2.0055857e-05,-2.0172915e-06,0,0,1
5963000,5807000,5811000,0,-488.0517,12.254325,-0.00039672852,-0.0026165594,12.699841,4.9573384e-10,-1.792671e-06,0,0,1
6027000,5871000,5875000,0,-488.03763,12.255405,-0.014099121,-0.003919545,12.685335,6.268189e-07,-1.6603757e-06,0,0,1
6091000,5933666,5939000,0,-488.08926,12.256485,0.038513184,0.00080633024,12.671904,4.68206e-06,-9.539974e-07,0,0,1
6155000,5996333,6003000,0,-488.05637,12.257563,0.0047302246,0.0012433537,12.659441,7.0698306e-08,-8.39872e-07,0,0,1
6211000,6059000,6059000,0,-488.0188,12.258505,-0.03286743,-0.0025557326,12.647712,3.4164855e-06,-1.1268421e-06,0,0,1
6275000,6123000,6123000,0,-488.01413,12.259581,-0.036102295,-0.006362435,12.636932,4.125608e-06,-1.4671276e-06,0,0,1
6339000,6185666,6187000,0,-488.05643,12.260655,0.0068969727,-0.0048856903,12.528736,1.518692e-07,-1.2868145e-06,0,0,1
6403000,6248333,6251000,0,-487.9907,12.261727,-0.058258057,-0.010830034,12.524212,1.0839808e-05,-2.3507787e-06,0,0,1
6467000,6311000,6315000,0,-488.09872,12.262798,0.051635742,-0.0038729124,12.519957,8.5184e-06,-1.1402248e-06,0,0,1
6531000,6375000,6379000,0,-488.04703,12.263866,-0.0007324219,-0.0035165446,12.515955,1.7144255e-09,-1.011032e-06,0,0,1
6595000,6437666,6443000,0,-488.06113,12.264933,0.01361084,-0.0016090105,12.512198,5.9223794e-07,-8.324705e-07,0,0,1
6659000,6500333,6507000,0,-488.01413,12.265997,-0.03338623,-0.005148196,12.508677,3.564375e-06,-1.1367362e-06,0,0,1
6715000,6563000,6563000,0,-488.11276,12.266923,0.0647583,0.002637635,12.459335,1.3463438e-05,4.8935726e-07,0,0,1
6779000,6625666,6627000,0,-488.07513,12.267982,0.026855469,0.005334856,12.457742,2.3157206e-06,6.9276547e-07,0,0,1
6843000,6689666,6691000,0,-488.02344,12.269037,-0.024627686,0.001934851,12.456283,1.947685e-06,3.9313989e-07,0,0,1
6907000,6752333,6755000,0,-488.0094,12.270089,-0.03756714,-0.0024646805,12.454957,4.53246e-06,-1.5544845e-07,0,0,1
6971000,6815000,6819000,0,-488.02826,12.271138,-0.017242432,-0.0041105514,12.453765,9.548967e-07,-2.4448693e-07,0,0,1
7035000,6879000,6883000,0,-488.04236,12.272184,-0.0018615723,-0.003855348,12.452707,1.113156e-08,-2.1800689e-07,0,0,1
7099000,6941666,6947000,0,-488.0189,12.273227,-0.02520752,-0.006233411,12.451643,2.0412376e-06,-4.210662e-07,0,0,1
7163000,7004333,7011000,0,-488.00015,12.274264,-0.044128418,-0.0104539655,12.424424,6.2693202e-06,-1.0724151e-06,0,0,1
7219000,7067000,7067000,0,-488.06128,12.275164,0.018218994,-0.0072605168,12.424102,1.0686704e-06,-8.3395184e-07,0,0,1
7283000,7131000,7131000,0,-488.00958,12.276195,-0.032958984,-0.010176655,12.4241085,3.4973764e-06,-1.1361844e-06,0,0,1
7347000,7193666,7195000,0,-488.0613,12.277221,0.020111084,-0.0068034083,12.424227,1.3021516e-06,-8.6461876e-07,0,0,1
7411000,7256333,7259000,0,-488.04248,12.278243,0.0022583008,-0.005794161,12.424462,1.6418971e-08,-7.6649326e-07,0,0,1
7475000,7319000,7323000,0,-488.07532,12.27926,0.036376953,-0.0010973564,12.424816,4.260128e-06,-2.0665362e-07,0,0,1
7539000,7383000,7387000,0,-488.02832,12.2802725,-0.012420654,-0.0023822696,12.406684,4.9738566e-07,-2.396445e-07,0,0,1
7603000,7445666,7451000,0,-488.12695,12.2812805,0.08718872,0.007593552,12.407478,2.4507392e-05,2.5165157e-06,0,0,1
7667000,7508333,7515000,0,-488.0375,12.282283,-0.0024108887,0.006479308,12.408388,1.8736952e-08,2.2341521e-06,0,0,1
7723000,7571000,7571000,0,-488.09387,12.283146,0.054626465,0.011841694,12.40911,9.618903e-06,3.0566284e-06,0,0,1
7787000,7635000,7635000,0,-488.05615,12.284139,0.017089844,0.012437229,12.410247,9.4136004e-07,2.816598e-06,0,0,1
7851000,7697666,7699000,0,-487.99506,12.285127,-0.043395996,0.006218896,12.411509,6.069246e-06,1.8269518e-06,0,0,1
7915000,7759000,7763000,0,-488.10315,12.286108,0.06271362,0.012391776,12.397982,1.2689157e-05,3.0138076e-06,0,0,1
7979000,7823000,7827000,0,-488.11237,12.287085,0.07232666,0.019192897,12.39948,1.6875372e-05,4.586751e-06,0,0,1
8043000,7887000,7891000,0,-488.01825,12.288055,-0.021270752,0.014601277,12.401105,1.4593696e-06,3.9006663e-06,0,0,1
8107000,7949666,7955000,0,-488.15448,12.289021,0.116363525,0.025934879,12.402859,4.3668868e-05,8.329784e-06,0,0,1
8171000,8012333,8019000,0,-488.0602,12.289979,0.022247314,0.025524177,12.404746,1.5959795e-06,7.5798066e-06,0,0,1
8227000,8075000,8075000,0,-488.07892,12.290796,0.041809082,0.027337907,12.406358,5.635818e-06,7.363295e-06,0,0,1
8291000,8137666,8139000,0,-488.06003,12.291744,0.024047852,0.026971482,12.408505,1.8642024e-06,6.7508427e-06,0,0,1
8355000,8201666,8203000,0,-488.11157,12.2926855,0.073150635,0.03221167,12.397115,1.7265358e-05,7.94398e-06,0,0,1
8419000,8264333,8267000,0,-487.99866,12.29362,-0.038482666,0.024338093,12.399349,4.777398e-06,6.527137e-06,0,0,1
8483000,8327000,8331000,0,-488.07858,12.294548,0.043670654,0.026491255,12.401723,6.151165e-06,6.485263e-06,0,0,1
8547000,8391000,8395000,0,-487.97516,12.295469,-0.05807495,0.01689509,12.40424,1.0875959e-05,4.5151955e-06,0,0,1
8611000,8453666,8459000,0,-488.07864,12.296385,0.048034668,0.020363208,12.406902,7.438857e-06,4.8408137e-06,0,0,1
8675000,8516333,8523000,0,-488.07376,12.297293,0.04458618,0.02306104,12.409714,6.40765e-06,5.01532e-06,0,0,1
8731000,8579000,8579000,0,-488.06888,12.2980585,0.03765869,0.024686852,12.398414,4.57535e-06,4.966318e-06,0,0,1
8795000,8643000,8643000,0,-488.09695,12.298954,0.06726074,0.029517932,12.401165,1.4592202e-05,6.058617e-06,0,0,1
8859000,8705666,8707000,0,-488.11545,12.299843,0.08709717,0.035930723,12.404061,2.4462686e-05,8.10834e-06,0,0,1
8923000,8768333,8771000,0,-487.99304,12.300724,-0.033843994,0.028159568,12.407105,3.692774e-06,6.793992e-06,0,0,1
8987000,8831000,8835000,0,-488.02603,12.301598,0.0016479492,0.025206838,12.410298,8.7531715e-09,6.0382863e-06,0,0,1
9051000,8895000,8899000,0,-488.0495,12.302465,0.026947021,0.025404306,12.413644,2.3398188e-06,5.6186022e-06,0,0,1
9115000,8957666,8963000,0,-488.0118,12.303325,-0.015960693,0.020797348,12.4025135,8.2158743e-07,4.901337e-06,0,0,1
9179000,9020333,9027000,0,-488.087,12.304177,0.061065674,0.02528223,12.405701,1.2023558e-05,5.6945737e-06,0,0,1
9235000,9083000,9083000,0,-487.98346,12.304887,-0.04147339,0.017847328,12.40847,5.544735e-06,4.4427966e-06,0,0,1
9299000,9147000,9147000,0,-488.0306,12.305726,0.007904053,0.016719013,12.411929,2.0133551e-07,3.961496e-06,0,0,1
9363000,9209666,9211000,0,-487.9648,12.306558,-0.056121826,0.008606485,12.415536,1.0147478e-05,2.3901325e-06,0,0,1
9427000,9272333,9275000,0,-488.11533,12.307382,0.096832275,0.018432627,12.4192915,3.0199755e-05,5.487427e-06,0,0,1
9491000,9335000,9339000,0,-488.03506,12.308198,0.017425537,0.018320462,12.423196,9.776851e-07,4.985155e-06,0,0,1
9555000,9399000,9403000,0,-487.988,12.309007,-0.036956787,0.012047866,12.410887,4.4019553e-06,3.9199513e-06,0,0,1
9619000,9461666,9467000,0,-488.068,12.309808,0.044891357,0.015705757,12.414522,6.49315e-06,4.206537e-06,0,0,1
9683000,9524333,9531000,0,-487.99268,12.310601,-0.029388428,0.010683395,12.418298,2.7819583e-06,3.4281938e-06,0,0,1
9739000,9587000,9587000,0,-488.03976,12.311252,0.019042969,0.011614442,12.421558,1.1677589e-06,3.176438e-06,0,0,1
9803000,9651000,9651000,0,-488.15237,12.312032,0.13287354,0.02537434,12.425597,5.6835503e-05,9.26541e-06,0,0,1
9867000,9713666,9715000,0,-487.93103,12.312803,-0.08822632,0.012722254,12.429774,2.5049154e-05,5.443682e-06,0,0,1
9931000,9776333,9715000,0,-488.0241,12.313567,0.0,0.011305314,12.416444,0.0,4.837392e-06,0,0,0
9995000,9839000,9715000,0,-487.89587,12.313242,-0.12677002,-0.004072817,12.420077,5.1756968e-05,-1.4658003e-06,0,0,0
10059000,9901666,9715000,0,-487.90274,12.313242,-0.11831665,-0.016796537,12.424262,4.5069333e-05,-6.322072e-06,0,0,0
10123000,9964333,9715000,0,-487.9172,12.313242,-0.102264404,-0.026315514,12.428679,3.3657667e-05,-9.366571e-06,0,0,0
10187000,10028333,9715000,0,-487.83322,12.313242,-0.18499756,-0.044321988,12.433338,0.00011010429,-2.0797801e-05,0,0,0
10243000,10091000,9715000,0,-487.9353,12.313242,-0.08200073,-0.048518457,12.437616,2.162511e-05,-2.0889942e-05,0,0,0
10307000,10155000,9715000,0,-487.90042,12.313242,-0.120269775,-0.05666045,12.422092,4.6577723e-05,-2.3804867e-05,0,0,0
10371000,10217666,9715000,0,-488.03427,12.313242,0.014282227,-0.048759326,12.42639,6.566091e-07,-2.108051e-05,0,0,0
10435000,10280333,9715000,0,-488.01993,12.313242,0.00018310547,-0.043308366,12.43091,1.0788465e-10,-1.8732659e-05,0,0,0
10499000,10343000,9715000,0,-487.93094,12.313242,-0.08859253,-0.048351888,12.435662,2.5245574e-05,-1.9458033e-05,0,0,0
10563000,10407000,9715000,0,-487.9271,12.313242,-0.09240723,-0.053351074,12.440652,2.745546e-05,-2.0365544e-05,0,0,0
10627000,10469666,9715000,0,-488.05872,12.313242,0.039367676,-0.043024678,12.445887,4.980968e-06,-1.7542618e-05,0,0,0
10691000,10532333,9715000,0,-487.88144,12.313242,-0.13781738,-0.05358221,12.451372,6.101699e-05,-2.2384573e-05,0,0,0
10747000,10595000,9715000,0,-487.9799,12.313242,-0.043762207,-0.05248851,12.431879,6.1619994e-06,-2.0577785e-05,0,0,0
10811000,10659000,9715000,0,-487.97995,12.313242,-0.0435791,-0.051477514,12.436616,6.1082146e-06,-1.8935847e-05,0,0,0
10875000,10721666,9715000,0,-487.92932,12.313242,-0.09414673,-0.056229725,12.441576,2.8496732e-05,-2.0000674e-05,0,0,0
10939000,10784333,9715000,0,-488.01526,12.313242,-0.008666992,-0.05093243,12.446768,2.4140164e-07,-1.7799986e-05,0,0,0
11003000,10847000,9715000,0,-487.98697,12.313242,-0.037384033,-0.04942348,12.452195,4.4893804e-06,-1.631752e-05,0,0,0
11067000,10911000,9715000,0,-488.0289,12.313242,0.0043945312,-0.04331647,12.457867,6.20071e-08,-1.4458849e-05,0,0,0
11131000,10973666,9715000,0,-488.0229,12.313242,-0.0045166016,-0.0389952,12.436921,6.5610095e-08,-1.2855826e-05,0,0,0
11195000,11036333,11043000,0,-488.05106,12.313242,0.02319336,-0.032068953,12.441793,1.7294353e-06,-1.1231394e-05,0,0,0
11251000,11099000,11099000,0,-488.0069,12.314188,-0.021118164,-0.03084931,12.44718,1.433182e-06,-1.0140118e-05,0,0,1
11315000,11163000,11163000,0,-487.98355,12.314939,-0.04449463,-0.032397714,12.451735,6.3598272e-06,-9.711149e-06,0,0,1
11379000,11225666,11227000,0,-487.97437,12.315681,-0.053375244,-0.03473405,12.456365,9.148469e-06,-9.648481e-06,0,0,1
11443000,11288333,11291000,0,-488.06384,12.316417,0.03640747,-0.026810668,12.461066,4.2548654e-06,-8.099997e-06,0,0,1
11507000,11351000,11355000,0,-488.0355,12.317144,0.00592041,-0.023165246,12.439586,1.12708754e-07,-7.1853074e-06,0,0,1
11571000,11415000,11419000,0,-488.04486,12.317863,0.01449585,-0.018891647,12.443778,6.754529e-07,-6.2933063e-06,0,0,1
11635000,11477666,11483000,0,-487.99783,12.318576,-0.033325195,-0.02049916,12.448045,3.5686526e-06,-5.9898525e-06,0,0,1
11699000,11540333,11547000,0,-488.08252,12.31928,0.050933838,-0.012543315,12.452379,8.333366e-06,-4.3946047e-06,0,0,1
11755000,11603000,11603000,0,-487.97894,12.31984,-0.053833008,-0.017141951,12.455993,9.306341e-06,-4.941649e-06,0,0,1
11819000,11667000,11667000,0,-488.09195,12.32053,0.058807373,-0.008523588,12.460446,1.1101712e-05,-3.1211257e-06,0,0,1
11883000,11729666,11731000,0,-488.01648,12.321213,-0.01852417,-0.009637387,12.464961,1.1011502e-06,-2.8961542e-06,0,0,1
11947000,11792333,11795000,0,-488.08704,12.321887,0.050598145,-0.0029286584,12.444307,8.229215e-06,-1.657067e-06,0,0,1
12011000,11855000,11859000,0,-488.0069,12.322554,-0.03125,-0.0060829455,12.448359,3.137964e-06,-1.8220018e-06,0,0,1
12075000,11919000,11923000,0,-488.00708,12.323213,-0.031982422,-0.009021893,12.452472,3.285694e-06,-1.9880945e-06,0,0,1
12139000,11981666,11987000,0,-488.00256,12.323863,-0.037353516,-0.012177281,12.456642,4.4804538e-06,-2.2656768e-06,0,0,1
12203000,12044333,12051000,0,-488.0826,12.324507,0.041900635,-0.006154357,12.460871,5.6357644e-06,-1.3856544e-06,0,0,1
12259000,12107000,12107000,0,-488.0401,12.325008,-0.0021362305,-0.0057068383,12.464363,1.4644891e-08,-1.2329583e-06,0,0,1
12323000,12169666,12171000,0,-488.04483,12.325638,0.0033874512,-0.0046939766,12.4449215,3.6881953e-08,-1.0915319e-06,0,0,1
12387000,12233666,12235000,0,-487.9603,12.32626,-0.082336426,-0.013504468,12.448767,2.1782998e-05,-3.4394998e-06,0,0,1
12451000,12296333,12299000,0,-487.89505,12.326875,-0.1477356,-0.028454449,12.452668,7.010804e-05,-1.0864704e-05,0,0,1
12515000,12359000,12363000,0,-488.0368,12.327481,-0.005645752,-0.025914133,12.456622,1.0235364e-07,-9.666048e-06,0,0,1
12579000,12423000,12427000,0,-488.02747,12.328081,-0.016143799,-0.024805441,12.460626,8.3662644e-07,-8.664128e-06,0,0,1
12643000,12485666,12491000,0,-488.0135,12.328673,-0.030883789,-0.025482407,12.464677,3.0608364e-06,-8.0400705e-06,0,0,1
12707000,12548333,12555000,0,-488.0841,12.329258,0.038635254,-0.018341307,12.446191,4.7972358e-06,-6.6103166e-06,0,0,1
12763000,12611000,12611000,0,-488.0604,12.3297,0.013824463,-0.014758846,12.449183,6.140669e-07,-5.805701e-06,0,0,1
12827000,12675000,12675000,0,-488.0603,12.330272,0.012268066,-0.011691962,12.452883,4.834397e-07,-5.09204e-06,0,0,1
12891000,12736333,12739000,0,-488.0743,12.330835,0.02444458,-0.007743571,12.45663,1.9187773e-06,-4.326016e-06,0,0,1
12955000,12800333,12803000,0,-487.98022,12.331392,-0.07144165,-0.014971722,12.4604225,1.6384387e-05,-5.694342e-06,0,0,1
13019000,12863000,12867000,0,-488.03705,12.331943,-0.0154418945,-0.015024087,12.464257,7.6523486e-07,-5.1453626e-06,0,0,1
13083000,12927000,12931000,0,-488.09818,12.332485,0.04421997,-0.008301357,12.468132,6.273292e-06,-3.8496287e-06,0,0,1
13147000,12989666,12995000,0,-487.96643,12.333021,-0.0836792,-0.01669644,12.450205,2.2496684e-05,-5.926414e-06,0,0,1
13211000,13052333,13059000,0,-487.9623,12.3335495,-0.088531494,-0.024697065,12.453722,2.5174242e-05,-8.070139e-06,0,0,1
13267000,13115000,13115000,0,-487.93942,12.333935,-0.111968994,-0.03441697,12.456613,4.0258314e-05,-1.1655095e-05,0,0,1
13331000,13179000,13179000,0,-487.90262,12.334451,-0.14929199,-0.047452435,12.460206,7.154969e-05,-1.8451645e-05,0,0,1
13395000,13241666,13243000,0,-487.91302,12.33496,-0.13900757,-0.057649236,12.46384,6.201333e-05,-2.3303255e-05,0,0,1
13459000,13304333,13307000,0,-487.99377,12.335463,-0.058135986,-0.057703447,12.467508,1.0843523e-05,-2.1915554e-05,0,0,1
13523000,13367000,13371000,0,-487.9707,12.3359585,-0.07922363,-0.060100257,12.45048,2.016431e-05,-2.1720509e-05,0,0,1
13587000,13431000,13435000,0,-488.05106,12.336447,0.00088500977,-0.053179942,12.453817,2.5156697e-09,-1.9255485e-05,0,0,1
13651000,13493666,13499000,0,-488.04166,12.336928,-0.009674072,-0.048334546,12.457194,3.0050964e-07,-1.7144406e-05,0,0,1
13715000,13556333,13563000,0,-488.05582,12.337403,0.0033874512,-0.04257401,12.4606085,3.6835523e-08,-1.5230847e-05,0,0,1
13771000,13619000,13619000,0,-488.0558,12.337736,0.0022888184,-0.037577417,12.463389,1.6813049e-08,-1.353264e-05,0,0,1
13835000,13683000,13683000,0,-488.02762,12.338201,-0.026977539,-0.036374595,12.4668665,2.33511e-06,-1.2261999e-05,0,0,1
13899000,13745666,13747000,0,-488.00433,12.338658,-0.04788208,-0.03765622,12.464785,7.3573465e-06,-1.1715751e-05,0,0,1
13963000,13808333,13811000,0,-488.02814,12.339109,-0.025299072,-0.036279947,12.453829,2.0557309e-06,-1.0639867e-05,0,0,1
14027000,13871000,13875000,0,-488.0659,12.339553,0.010986328,-0.031015668,12.457034,3.8757028e-07,-9.411687e-06,0,0,1
14091000,13935000,13939000,0,-488.00946,12.339991,-0.04736328,-0.032870717,12.460274,7.201384e-06,-9.160873e-06,0,0,1
14155000,13997666,14003000,0,-488.1084,12.340423,0.05001831,-0.023639088,12.463547,8.029276e-06,-7.246348e-06,0,0,1
14219000,14060333,14067000,0,-487.9484,12.340848,-0.11282349,-0.033571996,12.46685,4.0841554e-05,-1.0988012e-05,0,0,1
14275000,14123000,14123000,0,-488.04782,12.341132,-0.014434814,-0.031440593,12.469516,6.683944e-07,-9.838665e-06,0,0,1
14339000,14187000,14187000,0,-488.10895,12.341548,0.050994873,-0.022086214,12.453745,8.352434e-06,-7.774427e-06,0,0,1
14403000,14249666,14251000,0,-488.11328,12.341956,0.052124023,-0.013821171,12.456792,8.724281e-06,-5.936911e-06,0,0,1
14467000,14312333,14315000,0,-488.03308,12.34236,-0.03149414,-0.015789496,12.459871,3.184241e-06,-5.6303325e-06,0,0,1
14531000,14375000,14379000,0,-487.98166,12.342756,-0.08554077,-0.02355804,12.46298,2.3484668e-05,-7.618858e-06,0,0,1
14595000,14439000,14443000,0,-487.94476,12.343147,-0.12451172,-0.035013776,12.466118,4.9744973e-05,-1.2399127e-05,0,0,1
14659000,14501666,14507000,0,-488.03488,12.3435335,-0.036102295,-0.03513501,12.469283,4.1810763e-06,-1.1483855e-05,0,0,1
14723000,14564333,14571000,0,-488.05862,12.343913,-0.008239746,-0.03213955,12.454144,2.1805889e-07,-1.0229128e-05,0,0,1
14779000,14627000,14627000,0,-488.07275,12.3441515,0.003692627,-0.028148744,12.456468,4.378607e-08,-9.084983e-06,0,0,1
14843000,14691000,14691000,0,-488.0164,12.3445215,-0.05517578,-0.031215642,12.459396,9.773721e-06,-9.163137e-06,0,0,1
14907000,14753666,14755000,0,-488.12952,12.344886,0.056030273,-0.021498773,12.462355,1.0076399e-05,-7.020366e-06,0,0,1
14971000,14816333,14819000,0,-488.0117,12.345245,-0.0647583,-0.0263168,12.46534,1.3456955e-05,-7.737241e-06,0,0,1
15035000,14879000,14883000,0,-488.02628,12.345599,-0.052215576,-0.029201273,12.46835,8.746839e-06,-7.849684e-06,0,0,1
15099000,14943000,14947000,0,-487.92807,12.345947,-0.14746094,-0.042620808,12.466926,6.976773e-05,-1.4875846e-05,0,0,1
15163000,15005666,15011000,0,-488.07947,12.346291,0.0047302246,-0.037347164,12.456636,7.184933e-08,-1.3211072e-05,0,0,1
15227000,15068333,15075000,0,-488.07004,12.346628,-0.007446289,-0.034016956,12.459431,1.7800883e-07,-1.17595155e-05,0,0,1
15283000,15131000,15131000,0,-488.07477,12.346825,-0.0050964355,-0.030795936,12.461673,8.337133e-08,-1.0459085e-05,0,0,1
15347000,15195000,15195000,0,-488.0138,12.347154,-0.06854248,-0.035079233,12.464517,1.5076626e-05,-1.0983062e-05,0,0,1
15411000,15257666,15259000,0,-488.07535,12.347479,-0.008911133,-0.032164805,12.467387,2.547712e-07,-9.788216e-06,0,0,1
15475000,15320333,15323000,0,-488.0895,12.347797,0.0025024414,-0.028303742,12.470278,2.0086842e-08,-8.695817e-06,0,0,1
15539000,15383000,15387000,0,-488.12708,12.348112,0.046783447,-0.019940913,12.456153,7.0284655e-06,-6.944526e-06,0,0,1
15603000,15447000,15451000,0,-487.98584,12.348421,-0.09768677,-0.028763138,12.45882,3.0637584e-05,-9.6331e-06,0,0,1
15667000,15509666,15515000,0,-487.9913,12.348725,-0.09414673,-0.036045127,12.4615135,2.8451139e-05,-1.1728927e-05,0,0,1
15731000,15572333,15579000,0,-487.98734,12.349025,-0.10015869,-0.04318577,12.4642315,3.2193766e-05,-1.40081975e-05,0,0,1
15787000,15635000,15635000,0,-487.97406,12.349184,-0.11495972,-0.051179588,12.466393,4.240436e-05,-1.7170818e-05,0,0,1
15851000,15699000,15699000,0,-488.05948,12.349477,-0.03137207,-0.048931926,12.469154,3.1572529e-06,-1.5580626e-05,0,0,1
15915000,15761666,15763000,0,-488.09262,12.349765,0.006713867,-0.042734466,12.455606,1.4475734e-07,-1.3829238e-05,0,0,1
15979000,15824333,15827000,0,-488.01276,12.350047,-0.07635498,-0.04647895,12.458155,1.871893e-05,-1.4373827e-05,0,0,1
16043000,15887000,15891000,0,-488.04153,12.350326,-0.050079346,-0.046879943,12.46073,8.0507025e-06,-1.366959e-05,0,0,1
16107000,15951000,15955000,0,-488.11234,12.350599,0.018005371,-0.03951707,12.463328,1.0404713e-06,-1.2000363e-05,0,0,1
16171000,16013666,16019000,0,-488.03238,12.350869,-0.0652771,-0.04238605,12.465951,1.3672763e-05,-1.2186624e-05,0,0,1
16235000,16076333,16083000,0,-488.0658,12.351134,-0.03439331,-0.04149586,12.468595,3.7948134e-06,-1.12519865e-05,0,0,1
16291000,16139000,16139000,0,-487.9299,12.35126,-0.17285156,-0.056125592,12.470679,9.583332e-05,-2.0672227e-05,0,0,1
16355000,16203000,16203000,0,-488.0205,12.35152,-0.07260132,-0.057995178,12.457444,1.6924665e-05,-2.0246971e-05,0,0,1
16419000,16265666,16267000,0,-487.99762,12.351774,-0.09780884,-0.062429357,12.45991,3.0711515e-05,-2.1412443e-05,0,0,1
16483000,16328333,16331000,0,-487.97025,12.352024,-0.1272583,-0.069649674,12.4623995,5.1979314e-05,-2.4816825e-05,0,0,1
16547000,16391000,16395000,0,-488.03235,12.352271,-0.06695557,-0.06934962,12.464912,1.4386135e-05,-2.3655108e-05,0,0,1
16611000,16455000,16459000,0,-488.047,12.352513,-0.054504395,-0.067665055,12.467446,9.531155e-06,-2.2052389e-05,0,0,1
16675000,16517666,16523000,0,-488.10376,12.352752,-0.00030517578,-0.06016296,12.47,2.987402e-10,-1.9596373e-05,0,0,1
16739000,16580333,16587000,0,-487.9629,12.352986,-0.13421631,-0.06841065,12.457207,5.7842877e-05,-2.3856075e-05,0,0,1
16795000,16643000,16643000,0,-488.06262,12.353082,-0.035583496,-0.06475453,12.459059,4.065107e-06,-2.1651857e-05,0,0,1
16859000,16707000,16707000,0,-487.9878,12.353311,-0.11273193,-0.070198774,12.461449,4.0792973e-05,-2.3823897e-05,0,0,1
16923000,16769666,16771000,0,-488.03568,12.353536,-0.06661987,-0.06980018,12.4638605,1.4243444e-05,-2.275689e-05,0,0,1
16987000,16832333,16835000,0,-487.99866,12.353757,-0.10574341,-0.07380336,12.466293,3.587808e-05,-2.4218263e-05,0,0,1
17051000,16895000,16899000,0,-487.98547,12.353975,-0.120666504,-0.079022735,12.468747,4.671008e-05,-2.6723288e-05,0,0,1
17115000,16959000,16963000,0,-488.00525,12.35419,-0.092559814,-0.08055886,12.456421,2.7511334e-05,-2.6812711e-05,0,0,1
17179000,17021666,17027000,0,-488.0107,12.3544,-0.08892822,-0.081490986,12.458697,2.5390227e-05,-2.6654285e-05,0,0,1
17243000,17084333,17091000,0,-488.13354,12.354607,0.032196045,-0.068829104,12.460998,3.3274553e-06,-2.3315071e-05,0,0,1
17299000,17147000,17147000,0,-488.06754,12.354674,-0.036376953,-0.065214746,12.462801,4.247144e-06,-2.1191383e-05,0,0,1
17363000,17211000,17211000,0,-488.1054,12.354877,-0.00064086914,-0.05788721,12.465143,1.3179576e-09,-1.8786837e-05,0,0,1
17427000,17273666,17275000,0,-488.0209,12.355077,-0.08761597,-0.0611982,12.4675045,2.4629011e-05,-1.9437499e-05,0,0,1
17491000,17336333,17339000,0,-487.9653,12.355272,-0.14489746,-0.0705202,12.469885,6.734713e-05,-2.4773432e-05,0,0,1
17555000,17399000,17403000,0,-488.05573,12.355465,-0.045410156,-0.06772357,12.457804,6.6210137e-06,-2.2751707e-05,0,0,1
17619000,17463000,17467000,0,-488.04672,12.355654,-0.056243896,-0.06642091,12.46002,1.0155284e-05,-2.1322325e-05,0,0,1
17683000,17525666,17531000,0,-488.00964,12.35584,-0.09524536,-0.06963119,12.462258,2.9117287e-05,-2.2190476e-05,0,0,1
17747000,17588333,17595000,0,-488.00107,12.356023,-0.10543823,-0.073619194,12.464518,3.5676378e-05,-2.3692468e-05,0,0,1
17803000,17651000,17651000,0,-487.98785,12.356067,-0.11987305,-0.07877071,12.466276,4.6106947e-05,-2.6188878e-05,0,0,1
17867000,17715000,17715000,0,-488.0734,12.356246,-0.035705566,-0.07388388,12.468574,4.0899226e-06,-2.3681196e-05,0,0,1
17931000,17777666,17779000,0,-488.0925,12.356422,-0.009094238,-0.06666804,12.4569,2.6557225e-07,-2.107332e-05,0,0,1
17995000,17840333,17843000,0,-488.10663,12.356595,0.0026855469,-0.05894379,12.459039,2.3154794e-08,-1.8723702e-05,0,0,1
18059000,17903000,17907000,0,-488.0644,12.356764,-0.042022705,-0.057059206,12.4612,5.6685e-06,-1.726968e-05,0,0,1
18123000,17967000,17971000,0,-488.0929,12.356931,-0.0060424805,-0.051270075,12.451199,1.1729496e-07,-1.532331e-05,0,0,1
18187000,18029666,18035000,0,-487.94272,12.357095,-0.15774536,-0.06312858,12.453221,7.992662e-05,-2.2518398e-05,0,0,1
18251000,18092333,18099000,0,-488.06146,12.357255,-0.039215088,-0.06046522,12.455267,4.9387077e-06,-2.0560461e-05,0,0,1
18307000,18155000,18155000,0,-488.0665,12.357278,-0.035064697,-0.05763624,12.4568615,3.948131e-06,-1.8710263e-05,0,0,1
18371000,18219000,18219000,0,-488.01514,12.357435,-0.087677,-0.06104512,12.458952,2.4680268e-05,-1.9387711e-05,0,0,1
18435000,18281666,18283000,0,-487.9924,12.357591,-0.11148071,-0.066662304,12.461063,3.9893705e-05,-2.1671533e-05,0,0,1
18499000,18344333,18347000,0,-488.03564,12.357743,-0.06594849,-0.06658281,12.4607935,1.3961238e-05,-2.0812799e-05,0,0,1
18563000,18407000,18411000,0,-487.98926,12.357893,-0.10903931,-0.0713114,12.453141,3.8189788e-05,-2.274816e-05,0,0,1
18627000,18471000,18475000,0,-487.93854,12.35804,-0.16064453,-0.081448495,12.45514,8.287876e-05,-2.957149e-05,0,0,1
18691000,18533666,18539000,0,-488.0479,12.358185,-0.051879883,-0.07815534,12.457163,8.642489e-06,-2.7240558e-05,0,0,1
18755000,18596333,18603000,0,-488.1047,12.358327,0.0036315918,-0.069046326,12.459208,4.2341245e-08,-2.4201927e-05,0,0,1
18811000,18659000,18659000,0,-488.05774,12.358331,-0.04486084,-0.066352665,12.460791,6.4602477e-06,-2.2225948e-05,0,0,1
18875000,18723000,18723000,0,-488.07224,12.358471,-0.031829834,-0.06243518,12.462876,3.2517e-06,-2.0072841e-05,0,0,1
18939000,18785666,18787000,0,-488.01614,12.358608,-0.081848145,-0.064597264,12.45294,2.1518194e-05,-2.0233814e-05,0,0,1
19003000,18848333,18851000,0,-488.10605,12.358743,0.007080078,-0.056614205,12.454893,1.6098896e-07,-1.7962344e-05,0,0,1
19067000,18911000,18915000,0,-487.95575,12.358875,-0.14477539,-0.066433154,12.45687,6.730395e-05,-2.3457762e-05,0,0,1
19131000,18973666,18979000,0,-488.03217,12.359005,-0.06869507,-0.06668507,12.458868,1.5150694e-05,-2.2532577e-05,0,0,1
19195000,19037666,19043000,0,-487.9623,12.359133,-0.13952637,-0.074950755,12.460888,6.249188e-05,-2.7066966e-05,0,0,1
19259000,19100333,19107000,0,-488.04337,12.359259,-0.059051514,-0.073179975,12.462928,1.1191853e-05,-2.5298876e-05,0,0,1
19315000,19163000,19163000,0,-487.96875,12.359247,-0.1265564,-0.07912477,12.452634,5.1447816e-05,-2.8211212e-05,0,0,1
19379000,19225666,19227000,0,-488.08725,12.35937,-0.008453369,-0.07125386,12.454543,2.2950483e-07,-2.5094796e-05,0,0,1
19443000,19289666,19291000,0,-488.0967,12.359491,9.1552734e-05,-0.06315792,12.456475,2.691581e-11,-2.2247157e-05,0,0,1
19507000,19352333,19355000,0,-487.96054,12.359611,-0.13687134,-0.07136775,12.458429,6.014807e-05,-2.646837e-05,0,0,1
19571000,19415000,19419000,0,-487.99463,12.359728,-0.10241699,-0.07482585,12.460405,3.367223e-05,-2.7270698e-05,0,0,1
19635000,19479000,19483000,0,-488.15045,12.359843,0.053344727,-0.06028167,12.462401,9.133584e-06,-2.3139715e-05,0,0,1
19699000,19541666,19547000,0,-488.10776,12.359957,0.0107421875,-0.052371506,12.462167,3.7038373e-07,-2.0521316e-05,0,0,1
19763000,19604333,19611000,0,-488.00906,12.360068,-0.08502197,-0.056007948,12.454558,2.3216355e-05,-2.0821477e-05,0,0,1
19819000,19667000,19667000,0,-488.0098,12.360042,-0.08444214,-0.059174802,12.455998,2.2898123e-05,-2.1052763e-05,0,0,1
19883000,19731000,19731000,0,-488.03873,12.360151,-0.055755615,-0.05878681,12.457911,9.981413e-06,-1.979644e-05,0,0,1
19947000,19793666,19795000,0,-488.09085,12.360259,-0.0040893555,-0.05269497,12.459844,5.3685515e-08,-1.7597624e-05,0,0,1
20011000,19856333,19859000,0,-488.00168,12.360365,-0.093811035,-0.057274267,12.461798,2.8247963e-05,-1.8783805e-05,0,0,1
20075000,19919000,19923000,0,-488.07764,12.360469,-0.01763916,-0.05285991,12.463772,9.98542e-07,-1.6802973e-05,0,0,1
20139000,19983000,19987000,0,-488.0543,12.360571,-0.03665161,-0.05102067,12.454056,4.3145483e-06,-1.5385847e-05,0,0,1
20203000,20045666,20051000,0,-488.07812,12.360671,-0.012908936,-0.046776038,12.455907,5.3513764e-07,-1.3731874e-05,0,0,1
20267000,20108333,20115000,0,-488.05008,12.360769,-0.040863037,-0.046117477,12.457781,5.3614294e-06,-1.2799616e-05,0,0,1
20323000,20171000,20171000,0,-488.01758,12.360731,-0.072631836,-0.04907051,12.459217,1.6936485e-05,-1.326036e-05,0,0,1
20387000,20235000,20235000,0,-488.06985,12.360828,-0.01928711,-0.045690835,12.461131,1.1940892e-06,-1.1891138e-05,0,0,1
20451000,20297666,20299000,0,-488.09818,12.360925,0.00982666,-0.039507665,12.463065,3.0991814e-07,-1.0532265e-05,0,0,1
20515000,20360333,20363000,0,-488.0934,12.361018,0.006713867,-0.034359746,12.453495,1.447819e-07,-9.34311e-06,0,0,1
20579000,20423000,20427000,0,-488.0746,12.361111,-0.011230469,-0.031783722,12.455309,4.0504312e-07,-8.347633e-06,0,0,1
20643000,20487000,20491000,0,-488.06998,12.361201,-0.015014648,-0.029880848,12.457145,7.238887e-07,-7.4825275e-06,0,0,1
20707000,20549666,20555000,0,-488.11237,12.36129,0.028320312,-0.02339879,12.459001,2.5749741e-06,-6.3623897e-06,0,0,1
20771000,20612333,20619000,0,-488.08862,12.361378,0.005340576,-0.020197947,12.460878,9.155615e-08,-5.643582e-06,0,0,1
20827000,20675000,20675000,0,-488.11206,12.361328,0.029388428,-0.014675267,12.46231,2.7721337e-06,-4.706282e-06,0,0,1
20891000,20739000,20739000,0,-488.11182,12.361415,0.029632568,-0.009647427,12.464225,2.8179502e-06,-3.8524686e-06,0,0,1
20955000,20801666,20803000,0,-488.08337,12.361501,0.0030822754,-0.008229678,12.454667,3.0512005e-08,-3.420008e-06,0,0,1
21019000,20864333,20867000,0,-488.088,12.361585,0.0077819824,-0.00644638,12.456467,1.9446685e-07,-3.017446e-06,0,0,1
21083000,20927000,20931000,0,-488.07858,12.361667,-0.0016479492,-0.005911955,12.458286,8.719455e-09,-2.6823493e-06,0,0,1
21147000,20991000,20995000,0,-488.13492,12.361747,0.056884766,0.0012139138,12.449881,1.039649e-05,-1.1982256e-06,0,0,1
21211000,21053666,21059000,0,-488.04053,12.361826,-0.037902832,-0.0031426493,12.451597,4.61507e-06,-1.578771e-06,0,0,1
21267000,21115000,21115000,0,-488.05963,12.361768,-0.01828003,-0.0047966307,12.4529085,1.0733539e-06,-1.5235468e-06,0,0,1
21331000,21179000,21179000,0,-488.05508,12.361846,-0.02230835,-0.006783776,12.454668,1.5983163e-06,-1.5320312e-06,0,0,1
21395000,21243000,21243000,0,-488.06,12.361923,-0.01675415,-0.007915166,12.4564495,9.013855e-07,-1.4604685e-06,0,0,1
21459000,21305666,21307000,0,-488.09772,12.3619995,0.02154541,-0.004634043,12.458253,1.4904327e-06,-1.1318168e-06,0,0,1
21523000,21368333,21371000,0,-488.0036,12.362074,-0.07095337,-0.012020353,12.449836,1.617493e-05,-2.8072425e-06,0,0,1
21587000,21431000,21435000,0,-488.0324,12.362146,-0.041534424,-0.0153074805,12.451533,5.5418345e-06,-3.1118075e-06,0,0,1
21651000,21495000,21499000,0,-488.09384,12.362218,0.02029419,-0.0112675745,12.453254,1.3228804e-06,-2.6085804e-06,0,0,1
21715000,21557666,21563000,0,-488.03732,12.362288,-0.036224365,-0.014047096,12.454997,4.214227e-06,-2.7874066e-06,0,0,1
21779000,21620333,21627000,0,-488.00476,12.362358,-0.06851196,-0.020113116,12.456762,1.5072581e-05,-4.155667e-06,0,0,1
21835000,21683000,21683000,0,-487.98663,12.36229,-0.0859375,-0.027444303,12.458104,2.3712288e-05,-6.333784e-06,0,0,1
21899000,21747000,21747000,0,-488.02026,12.36236,-0.051513672,-0.03017558,12.4599085,8.51903e-06,-6.5817553e-06,0,0,1
21963000,21809666,21811000,0,-487.98785,12.362429,-0.0821228,-0.035961114,12.451372,2.1665579e-05,-8.261692e-06,0,0,1
22027000,21872333,21875000,0,-488.05432,12.362495,-0.014831543,-0.03360781,12.4530735,7.065715e-07,-7.4202408e-06,0,0,1
22091000,21935000,21939000,0,-488.1812,12.36256,0.112335205,-0.017353417,12.454796,4.0527997e-05,-2.0800094e-06,0,0,1
22155000,21999000,22003000,0,-488.0957,12.362625,0.026428223,-0.012385288,12.456542,2.2428405e-06,-1.5894732e-06,0,0,1
22219000,22061666,22067000,0,-488.0767,12.362688,0.007537842,-0.010166382,12.458307,1.8242947e-07,-1.3921305e-06,0,0,1
22283000,22124333,22131000,0,-488.05316,12.36275,-0.015472412,-0.010757341,12.4600935,7.685192e-07,-1.3226758e-06,0,0,1
22339000,22187000,22187000,0,-487.99692,12.362677,-0.07046509,-0.017407287,12.451125,1.595142e-05,-2.951951e-06,0,0,1
22403000,22251000,22251000,0,-488.10086,12.362739,0.034698486,-0.011494575,12.452806,3.867353e-06,-2.1781293e-06,0,0,1
22467000,22312333,22315000,0,-488.03012,12.3628,-0.03555298,-0.014123271,12.45451,4.0596196e-06,-2.383707e-06,0,0,1
22531000,22376333,22379000,0,-488.10556,12.362859,0.040893555,-0.007880227,12.456234,5.3701074e-06,-1.5038415e-06,0,0,1
22595000,22439000,22443000,0,-488.1052,12.362918,0.04095459,-0.0024412526,12.457979,5.3853946e-06,-7.365534e-07,0,0,1
22659000,22503000,22507000,0,-488.05786,12.362976,-0.0059509277,-0.0028395136,12.459745,1.1368946e-07,-6.6587376e-07,0,0,1
22723000,22565666,22571000,0,-488.06262,12.363033,0.0018920898,-0.0023125391,12.451222,1.1500892e-08,-5.9043225e-07,0,0,1
22787000,22628333,22635000,0,-487.93115,12.363089,-0.12884521,-0.016405106,12.452885,5.332448e-05,-6.463683e-06,0,0,1
22843000,22691000,22691000,0,-488.03088,12.3630085,-0.027435303,-0.017633593,12.454146,2.4174947e-06,-6.0130387e-06,0,0,1
22907000,22755000,22755000,0,-488.0922,12.363065,0.035125732,-0.011646719,12.455851,3.962209e-06,-4.8810957e-06,0,0,1
22971000,22817666,22819000,0,-488.13882,12.36312,0.08258057,-0.0011523105,12.457576,2.1896876e-05,-1.8987432e-06,0,0,1
23035000,22880333,22883000,0,-487.99255,12.363174,-0.063201904,-0.00806308,12.459321,1.2824072e-05,-3.115551e-06,0,0,1
23099000,22943000,22947000,0,-488.01187,12.363228,-0.042419434,-0.011889516,12.461086,5.776088e-06,-3.411868e-06,0,0,1
23163000,23007000,23011000,0,-488.10147,12.36328,0.04736328,-0.0051657944,12.452483,7.2058897e-06,-2.207016e-06,0,0,1
23227000,23068333,23075000,0,-488.08228,12.363332,0.028930664,-0.0014403088,12.454147,2.6882074e-06,-1.6721485e-06,0,0,1
23291000,23132333,23139000,0,-488.02567,12.363382,-0.026916504,-0.0043312246,12.4558325,2.326615e-06,-1.7464142e-06,0,0,1
23347000,23195000,23195000,0,-488.13858,12.3632965,0.08706665,0.0058482075,12.457107,2.434145e-05,1.1591198e-06,0,0,1
23411000,23259000,23259000,0,-488.06265,12.363347,0.011444092,0.0064832014,12.458831,4.2048003e-07,1.0753025e-06,0,0,1
23475000,23321666,23323000,0,-488.1283,12.363398,0.078063965,0.014455391,12.460575,1.9562445e-05,3.1342774e-06,0,0,1
23539000,23384333,23387000,0,-488.09943,12.363447,0.047821045,0.01817149,12.452025,7.346122e-06,3.6033714e-06,0,0,1
23603000,23447000,23451000,0,-488.00977,12.363495,-0.04119873,0.011559135,12.453668,5.45168e-06,2.5948657e-06,0,0,1
23667000,23511000,23515000,0,-488.10406,12.363543,0.054382324,0.016418505,12.455333,9.497738e-06,3.3781703e-06,0,0,1
23731000,23573666,23579000,0,-487.96738,12.363589,-0.08157349,0.0055048093,12.457018,2.136702e-05,6.2221557e-07,0,0,1
23795000,23636333,23643000,0,-488.03387,12.363635,-0.013366699,0.0034029963,12.458723,5.736339e-07,4.890279e-07,0,0,1
23851000,23699000,23699000,0,-488.02463,12.363544,-0.02166748,0.0006107737,12.460008,1.5071571e-06,2.6670295e-07,0,0,1
23915000,23763000,23763000,0,-488.1093,12.363592,0.06222534,0.007602498,12.451519,1.24386215e-05,1.6479136e-06,0,0,1
23979000,23825666,23827000,0,-488.10406,12.363637,0.05722046,0.013128616,12.453141,1.0516804e-05,2.6356715e-06,0,0,1
24043000,23888333,23891000,0,-488.07068,12.363682,0.023956299,0.014334548,12.454785,1.8431607e-06,2.5474058e-06,0,0,1
24107000,23951000,23955000,0,-488.16434,12.363726,0.11804199,0.025884958,12.4564495,4.474441e-05,7.247094e-06,0,0,1
24171000,24015000,24019000,0,-488.10693,12.363769,0.060058594,0.029762818,12.458134,1.15813e-05,7.738919e-06,0,0,1
24235000,24077666,24083000,0,-488.12985,12.3638115,0.08270264,0.035658903,12.459839,2.195767e-05,9.322509e-06,0,0,1
24299000,24140333,24147000,0,-488.11032,12.363853,0.0625,0.03864833,12.461562,1.2538556e-05,9.680696e-06,0,0,1
24355000,24203000,24203000,0,-488.0628,12.36376,0.0140686035,0.035910763,12.452575,6.357741e-07,8.673319e-06,0,0,1
24419000,24267000,24267000,0,-488.09552,12.363802,0.046691895,0.037134156,12.454199,7.002082e-06,8.483675e-06,0,0,1
24483000,24329666,24331000,0,-488.0904,12.363844,0.041290283,0.037597038,12.455843,5.4749803e-06,8.148586e-06,0,0,1
24547000,24392333,24395000,0,-488.07596,12.363885,0.026763916,0.0363905,12.457508,2.3000014e-06,7.4972004e-06,0,0,1
24611000,24455000,24459000,0,-488.04755,12.363925,-0.0015563965,0.032164164,12.459191,7.776973e-09,6.661334e-06,0,0,1
24675000,24519000,24523000,0,-488.1086,12.363965,0.06011963,0.035336416,12.460896,1.1602279e-05,7.2220087e-06,0,0,1
24739000,24581666,24587000,0,-488.03763,12.364004,-0.012084961,0.030054938,12.452391,4.6913493e-07,6.36542e-06,0,0,1
24803000,24644333,24651000,0,-488.02832,12.364042,-0.020568848,0.024416719,12.453996,1.3588491e-06,5.50513e-06,0,0,1
24859000,24707000,24707000,0,-488.09424,12.363944,0.046325684,0.026856828,12.455203,6.8921204e-06,5.659606e-06,0,0,1
24923000,24771000,24771000,0,-487.98584,12.363983,-0.061645508,0.01681401,12.456848,1.2202665e-05,3.6326815e-06,0,0,1
24987000,24833666,24835000,0,-488.06622,12.364022,0.019744873,0.01714043,12.458513,1.2517064e-06,3.3675042e-06,0,0,1
25051000,24896333,24899000,0,-488.0989,12.36406,0.052764893,0.021108102,12.460197,8.937687e-06,3.987883e-06,0,0,1
25115000,24959000,24963000,0,-488.10782,12.364098,0.06121826,0.025575368,12.45177,1.2039013e-05,4.884577e-06,0,0,1
25179000,25023000,25027000,0,-488.10727,12.364134,0.060791016,0.02957147,12.453356,1.18700455e-05,5.677254e-06,0,0,1
25243000,25085666,25091000,0,-488.08792,12.364169,0.041778564,0.030931015,12.454962,5.6056324e-06,5.6692775e-06,0,0,1
25307000,25148333,25155000,0,-488.05466,12.364204,0.009246826,0.028515939,12.456589,2.7456568e-07,5.0684416e-06,0,0,1
25363000,25211000,25211000,0,-488.04987,12.364103,0.0052490234,0.025924588,12.4578085,8.846579e-08,4.513797e-06,0,0,1
25427000,25275000,25275000,0,-487.97473,12.3641405,-0.06903076,0.015149512,12.459474,1.5298387e-05,2.265606e-06,0,0,1
25491000,25337666,25339000,0,-488.05045,12.364176,0.008270264,0.014383348,12.461156,2.195535e-07,2.0377304e-06,0,0,1
25555000,25400333,25403000,0,-488.08795,12.364212,0.043426514,0.017618028,12.452695,6.057683e-06,2.4854523e-06,0,0,1
25619000,25463000,25467000,0,-488.08286,12.364245,0.03881836,0.019979214,12.454282,4.8396687e-06,2.747653e-06,0,0,1
25683000,25527000,25531000,0,-488.05432,12.36428,0.010986328,0.018958746,12.45589,3.876059e-07,2.4798462e-06,0,0,1
25747000,25589666,25595000,0,-488.13876,12.364312,0.09631348,0.027574,12.457517,2.9785344e-05,5.520951e-06,0,0,1
25811000,25652333,25659000,0,-488.10968,12.364345,0.06756592,0.032028098,12.459164,1.4656372e-05,6.538408e-06,0,0,1
25867000,25715000,25715000,0,-488.03867,12.364242,-0.0033874512,0.028083693,12.460396,3.6836152e-08,5.8060905e-06,0,0,1
25931000,25777666,25779000,0,-488.09033,12.364276,0.04699707,0.03019014,12.452017,7.0951546e-06,5.949658e-06,0,0,1
25995000,25841666,25843000,0,-488.00067,12.364309,-0.041900635,0.022009626,12.453587,5.6390604e-06,4.634626e-06,0,0,1
26059000,25904333,25907000,0,-488.1654,12.364342,0.12435913,0.033408795,12.455175,4.966672e-05,9.650072e-06,0,0,1
26123000,25967000,25971000,0,-488.04688,12.364373,0.0063171387,0.030391464,12.456784,1.2814299e-07,8.589567e-06,0,0,1
26187000,26031000,26035000,0,-488.10785,12.364405,0.06869507,0.034737974,12.458413,1.5151247e-05,9.334155e-06,0,0,1
26251000,26093666,26099000,0,-488.018,12.364436,-0.020202637,0.028619055,12.460061,1.3102554e-06,8.148651e-06,0,0,1
26315000,26156333,26163000,0,-488.14966,12.364467,0.110687256,0.037759393,12.451732,3.9357314e-05,1.1624514e-05,0,0,1
26371000,26219000,26219000,0,-488.09702,12.364361,0.05834961,0.040052626,12.452879,1.0936193e-05,1.1547852e-05,0,0,1
26435000,26283000,26283000,0,-488.0495,12.364392,0.011291504,0.03678895,12.454451,4.0948595e-07,1.0283924e-05,0,0,1
26499000,26345666,26347000,0,-488.09167,12.364423,0.054107666,0.038717795,12.456041,9.401509e-06,1.0185647e-05,0,0,1
26563000,26408333,26411000,0,-488.01605,12.364453,-0.020935059,0.032073963,12.457653,1.4072529e-06,8.894488e-06,0,0,1
26627000,26471000,26475000,0,-488.02563,12.364483,-0.010314941,0.027352903,12.459282,3.4158634e-07,7.865821e-06,0,0,1
26691000,26535000,26539000,0,-488.02573,12.364513,-0.009155273,0.02321013,12.460931,2.6906184e-07,6.9427138e-06,0,0,1
26755000,26597666,26603000,0,-488.0446,12.364542,0.007843018,0.021498643,12.452574,1.9759105e-07,6.191487e-06,0,0,1
26819000,26660333,26667000,0,-488.0586,12.364571,0.022979736,0.021663599,12.454129,1.6960423e-06,5.690807e-06,0,0,1
26875000,26723000,26723000,0,-488.05838,12.364463,0.023620605,0.02188156,12.455293,1.791794e-06,5.2565547e-06,0,0,1
26939000,26787000,26787000,0,-488.05817,12.364492,0.024291992,0.022155084,12.456886,1.8948584e-06,4.875086e-06,0,0,1
27003000,26849666,26851000,0,-488.1049,12.364522,0.072052,0.02771227,12.458499,1.6668111e-05,6.1885144e-06,0,0,1
27067000,26912333,26915000,0,-488.0385,12.364551,0.0065612793,0.02535658,12.46013,1.3820205e-07,5.514661e-06,0,0,1
27131000,26975000,26979000,0,-488.03845,12.364579,0.0041503906,0.022994742,12.451859,5.5335487e-08,4.9066293e-06,0,0,1
27195000,27039000,27043000,0,-488.07596,12.364606,0.043151855,0.025282074,12.453398,5.9809627e-06,5.0285394e-06,0,0,1
27259000,27101666,27107000,0,-488.0615,12.364633,0.029846191,0.025790395,12.454956,2.8608536e-06,4.7871167e-06,0,0,1
27323000,27164333,27171000,0,-488.0753,12.364659,0.045013428,0.027931359,12.456534,6.5064924e-06,4.978612e-06,0,0,1
27379000,27227000,27227000,0,-488.0984,12.364551,0.06893921,0.032498606,12.457712,1.5259991e-05,6.1237e-06,0,0,1
27443000,27291000,27291000,0,-488.04608,12.364579,0.017578125,0.030805502,12.459327,9.919974e-07,5.5413793e-06,0,0,1
27507000,27353666,27355000,0,-488.02243,12.364607,-0.0058898926,0.026718613,12.459339,1.1137295e-07,4.9118134e-06,0,0,1
27571000,27416333,27419000,0,-488.1164,12.3646345,0.0874939,0.033487454,12.452665,2.4589699e-05,7.1034365e-06,0,0,1
27635000,27479000,27483000,0,-488.04517,12.36466,0.017242432,0.031678166,12.454207,9.548627e-07,6.4186397e-06,0,0,1
27699000,27543000,27547000,0,-488.03564,12.364686,0.009185791,0.02912584,12.455769,2.7097084e-07,5.721032e-06,0,0,1
27763000,27604333,27611000,0,-488.0966,12.364712,0.0715332,0.0337594,12.45735,1.6430458e-05,6.8911772e-06,0,0,1
27819000,27667000,27667000,0,-488.14755,12.364602,0.12310791,0.043710582,12.4585285,4.8659218e-05,1.154309e-05,0,0,1
27883000,27731000,27731000,0,-488.0713,12.36463,0.047058105,0.044090442,12.460146,7.1089544e-06,1.1039926e-05,0,0,1
27947000,27795000,27795000,0,-488.07086,12.364656,0.042816162,0.04394584,12.451936,5.8889595e-06,1.0455419e-05,0,0,1
28011000,27857666,27859000,0,-488.0564,12.364682,0.029083252,0.042290546,12.453463,2.7167882e-06,9.593542e-06,0,0,1
28075000,27920333,27923000,0,-488.01385,12.364708,-0.012573242,0.036180094,12.455009,5.077039e-07,8.468516e-06,0,0,1
28139000,27983000,27987000,0,-488.05154,12.364733,0.026306152,0.035080384,12.456574,2.2221636e-06,7.772829e-06,0,0,1
28203000,28047000,28051000,0,-488.01843,12.364758,-0.00592041,0.030427812,12.4581585,1.1254073e-07,6.8780355e-06,0,0,1
28267000,28109666,28115000,0,-488.05606,12.364782,0.032806396,0.030692723,12.459761,3.4551535e-06,6.4968176e-06,0,0,1
28331000,28172333,28179000,0,-487.97125,12.364806,-0.05517578,0.021129124,12.451603,9.779839e-06,4.684006e-06,0,0,1
28387000,28235000,28235000,0,-488.04688,12.364695,0.021759033,0.02119928,12.452716,1.5208104e-06,4.3317054e-06,0,0,1
28451000,28299000,28299000,0,-488.06076,12.364719,0.03643799,0.022928495,12.4542465,4.264335e-06,4.3240607e-06,0,0,1
28515000,28361666,28363000,0,-488.03226,12.364744,0.008392334,0.021309555,12.455797,2.2617989e-07,3.867666e-06,0,0,1
28579000,28424333,28427000,0,-488.0134,12.364769,-0.009796143,0.01784516,12.457366,3.081371e-07,3.4025861e-06,0,0,1
28643000,28487000,28491000,0,-487.97592,12.364793,-0.04647827,0.010681141,12.458954,6.935509e-06,2.2511815e-06,0,0,1
28707000,28551000,28555000,0,-487.99985,12.364817,-0.024353027,0.0067056324,12.458982,1.904072e-06,1.7796633e-06,0,0,1
28771000,28613666,28619000,0,-488.1362,12.3648405,0.11013794,0.018225234,12.452377,3.896562e-05,5.921188e-06,0,0,1
28835000,28676333,28683000,0,-488.02722,12.364863,0.00088500977,0.016293967,12.453896,2.515654e-09,5.261996e-06,0,0,1
28891000,28739000,28739000,0,-488.0084,12.36475,-0.017547607,0.012524865,12.455024,9.888975e-07,4.5658035e-06,0,0,1
28955000,28803000,28803000,0,-488.14005,12.364775,0.114349365,0.024079418,12.456579,4.198834e-05,8.812332e-06,0,0,1
29019000,28865666,28867000,0,-488.07324,12.364799,0.046691895,0.026597844,12.458153,6.9998596e-06,8.610471e-06,0,0,1
29083000,28928333,28931000,0,-488.0822,12.364822,0.05529785,0.029794306,12.4597435,9.816743e-06,8.74482e-06,0,0,1
29147000,28991000,28995000,0,-488.0019,12.364845,-0.027496338,0.023413565,12.451644,2.428751e-06,7.500364e-06,0,0,1
29211000,29055000,29059000,0,-488.0585,12.364868,0.028839111,0.02402923,12.453147,2.6714351e-06,6.9524003e-06,0,0,1
29275000,29117666,29123000,0,-488.01596,12.36489,-0.014526367,0.019735165,12.45467,6.7770674e-07,6.10261e-06,0,0,1
29339000,29180333,29187000,0,-488.05835,12.364912,0.027618408,0.02061316,12.456211,2.4494655e-06,5.695741e-06,0,0,1
29395000,29243000,29243000,0,-488.0487,12.364799,0.017608643,0.020278532,12.457357,9.956021e-07,5.1722636e-06,0,0,1
29459000,29307000,29307000,0,-488.04855,12.364821,0.017089844,0.019916695,12.458933,9.376814e-07,4.6917435e-06,0,0,1
29523000,29369666,29371000,0,-487.99677,12.364845,-0.035705566,0.013721857,12.450916,4.0957225e-06,3.713054e-06,0,0,1
29587000,29432333,29435000,0,-488.07687,12.364867,0.044281006,0.01712538,12.452405,6.2985664e-06,4.0010154e-06,0,0,1
29651000,29495000,29499000,0,-488.1422,12.364889,0.10891724,0.02734869,12.453914,3.8101964e-05,7.799006e-06,0,0,1
29715000,29559000,29563000,0,-488.09894,12.364911,0.06460571,0.031576436,12.455441,1.3404256e-05,8.435063e-06,0,0,1
29779000,29621666,29627000,0,-488.06546,12.364933,0.030334473,0.031438116,12.456988,2.9547439e-06,7.824701e-06,0,0,1
29835000,29683000,29683000,0,-488.13092,12.364819,0.0949707,0.038379986,12.458136,2.8959177e-05,1.0133954e-05,0,0,1
29899000,29747000,29747000,0,-488.0972,12.364842,0.059387207,0.040763784,12.459717,1.1322377e-05,1.026881e-05,0,0,1
29963000,29811000,29811000,0,-488.06378,12.364865,0.023651123,0.03882192,12.451674,1.796949e-06,9.307464e-06,0,0,1
30027000,29872333,29875000,0,-487.96967,12.364887,-0.07180786,0.026734166,12.45317,1.656243e-05,6.4808387e-06,0,0,1
30091000,29936333,29939000,0,-488.05954,12.364909,0.017822266,0.025722886,12.454684,1.0201244e-06,5.861183e-06,0,0,1
30155000,29999000,30003000,0,-488.0453,12.36493,0.0029907227,0.023191093,12.456217,2.8722756e-08,5.2115934e-06,0,0,1
30219000,30063000,30067000,0,-488.0218,12.364951,-0.020843506,0.018194258,12.4577675,1.3949585e-06,4.4619137e-06,0,0,1
30283000,30125666,30131000,0,-488.03134,12.364972,-0.011566162,0.014879741,12.459336,4.294807e-07,3.9171427e-06,0,0,1
30347000,30188333,30195000,0,-487.99393,12.364993,-0.051330566,0.0075055724,12.45134,8.464396e-06,2.5381496e-06,0,0,1
30403000,30251000,30251000,0,-488.0883,12.364877,0.042907715,0.011448484,12.452426,5.9139384e-06,2.914128e-06,0,0,1
30467000,30315000,30315000,0,-488.0738,12.364899,0.027374268,0.013255665,12.453928,2.4067924e-06,2.856558e-06,0,0,1
30531000,30377666,30379000,0,-488.04068,12.364921,-0.0064697266,0.011058782,12.455448,1.3442266e-07,2.5234424e-06,0,0,1
30595000,30440333,30443000,0,-488.09238,12.364942,0.044708252,0.014806489,12.456985,6.418336e-06,2.957236e-06,0,0,1
30659000,30503000,30507000,0,-487.97928,12.364963,-0.06945801,0.005421537,12.458542,1.54895e-05,9.027319e-07,0,0,1
30723000,30567000,30571000,0,-487.97992,12.364984,-0.067718506,-0.002878042,12.450623,1.4732745e-05,-8.715066e-07,0,0,1
30787000,30629666,30635000,0,-488.02753,12.365004,-0.020690918,-0.0048619215,12.452093,1.3752357e-06,-9.276086e-07,0,0,1
30851000,30692333,30699000,0,-488.04178,12.365023,-0.007385254,-0.0051429574,12.453582,1.7518487e-07,-8.4380747e-07,0,0,1
30907000,30755000,30755000,0,-488.09348,12.364906,0.043426514,0.00026646396,12.454686,6.056715e-06,-7.526228e-08,0,0,1
30971000,30819000,30819000,0,-487.9945,12.364928,-0.05731201,-0.006267264,12.456213,1.0547882e-05,-1.2636447e-06,0,0,1
31035000,30881666,30883000,0,-488.07016,12.364949,0.01727295,-0.0036455116,12.457756,9.579727e-07,-1.0162157e-06,0,0,1
31099000,30944333,30947000,0,-488.0371,12.36497,-0.017242432,-0.0051598675,12.459317,9.54471e-07,-1.0093389e-06,0,0,1
31163000,31007000,31011000,0,-487.98566,12.364991,-0.06842041,-0.012205506,12.451371,1.5038834e-05,-2.571873e-06,0,0,1
31227000,31071000,31075000,0,-488.01443,12.36501,-0.04043579,-0.0154089425,12.4528475,5.2519817e-06,-2.8759987e-06,0,0,1
31291000,31133666,31139000,0,-488.06647,12.36503,0.0107421875,-0.012496403,12.454344,3.706164e-07,-2.5144122e-06,0,0,1
31347000,31195000,31195000,0,-487.99594,12.364914,-0.06088257,-0.017783303,12.455452,1.1903822e-05,-3.5403434e-06,0,0,1
31411000,31259000,31259000,0,-488.0951,12.364935,0.03756714,-0.011502402,12.456984,4.531723e-06,-2.6243642e-06,0,0,1
31475000,31323000,31323000,0,-488.01022,12.364957,-0.04901123,-0.015758723,12.458532,7.712307e-06,-3.2017194e-06,0,0,1
31539000,31385666,31387000,0,-488.03885,12.364977,-0.019958496,-0.016226467,12.45066,1.2797445e-06,-2.9876626e-06,0,0,1
31603000,31448333,31451000,0,-488.086,12.364997,0.026000977,-0.011523388,12.452125,2.1716803e-06,-2.413041e-06,0,0,1
31667000,31511000,31515000,0,-488.02472,12.365017,-0.03668213,-0.014325442,12.4536085,4.3218915e-06,-2.6256391e-06,0,0,1
31731000,31575000,31579000,0,-488.03912,12.365036,-0.023284912,-0.015342119,12.455111,1.7412518e-06,-2.5252832e-06,0,0,1
31795000,31637666,31643000,0,-488.07693,12.365055,0.013427734,-0.012137924,12.456631,5.7898177e-07,-2.1795508e-06,0,0,1
31859000,31700333,31707000,0,-488.11435,12.365074,0.04949951,-0.0052730595,12.458168,7.866973e-06,-1.06062e-06,0,0,1
31915000,31763000,31763000,0,-488.09042,12.364958,0.023986816,-0.0020142428,12.449953,1.8485767e-06,-7.366084e-07,0,0,1
31979000,31827000,31827000,0,-488.02917,12.364978,-0.038238525,-0.0061248,12.451406,4.6972523e-06,-1.1860432e-06,0,0,1
32043000,31889666,31891000,0,-488.02014,12.364998,-0.048065186,-0.010795841,12.452877,7.4208137e-06,-1.8804305e-06,0,0,1
32107000,31952333,31955000,0,-488.05814,12.365017,-0.01071167,-0.010786466,12.454367,3.6851293e-07,-1.7120408e-06,0,0,1
32171000,32015000,32019000,0,-487.99722,12.365037,-0.07269287,-0.017681288,12.455876,1.6969512e-05,-3.4113405e-06,0,0,1
32235000,32077666,32083000,0,-488.10117,12.365056,0.030975342,-0.012262236,12.457402,3.0808085e-06,-2.688288e-06,0,0,1
32299000,32141666,32147000,0,-488.05392,12.365074,-0.017364502,-0.012841217,12.458944,9.680625e-07,-2.4930853e-06,0,0,1
32363000,32204333,32211000,0,-488.0071,12.365093,-0.062469482,-0.01836856,12.451085,1.2536855e-05,-3.6117094e-06,0,0,1
32419000,32267000,32267000,0,-488.07812,12.364976,0.00793457,-0.015439051,12.452153,2.0223781e-07,-3.1869313e-06,0,0,1
32483000,32331000,32331000,0,-488.0546,12.364996,-0.017028809,-0.015619449,12.453632,9.313919e-07,-2.9309836e-06,0,0,1
32547000,32393666,32395000,0,-488.05475,12.365016,-0.018218994,-0.01590897,12.45513,1.0660082e-06,-2.723275e-06,0,0,1
32611000,32456333,32459000,0,-487.9939,12.365035,-0.08026123,-0.023076199,12.456644,2.0685717e-05,-4.723841e-06,0,0,1
32675000,32519000,32523000,0,-487.94766,12.365054,-0.12713623,-0.03466588,12.458177,5.189723e-05,-9.9777735e-06,0,0,1
32739000,32583000,32587000,0,-488.085,12.365073,0.013122559,-0.029243078,12.450387,5.532408e-07,-8.782765e-06,0,0,1
32803000,32645666,32651000,0,-488.07547,12.365091,0.0022888184,-0.025731266,12.451837,1.6828647e-08,-7.802724e-06,0,0,1
32867000,32708333,32715000,0,-488.0661,12.365109,-0.008361816,-0.023796745,12.453304,2.2458288e-07,-6.9587095e-06,0,0,1
32923000,32771000,32771000,0,-488.099,12.364991,0.023162842,-0.018566623,12.454391,1.7231424e-06,-5.991769e-06,0,0,1
32987000,32835000,32835000,0,-488.04245,12.365011,-0.035247803,-0.020459523,12.455894,3.989782e-06,-5.764593e-06,0,0,1
33051000,32897666,32899000,0,-488.0381,12.365031,-0.04107666,-0.022755723,12.457417,5.417791e-06,-5.7259685e-06,0,0,1
33115000,32960333,32963000,0,-488.07602,12.36505,-0.00039672852,-0.020265492,12.449696,5.056943e-10,-5.0882954e-06,0,0,1
33179000,33023000,33027000,0,-488.08072,12.365068,0.0027770996,-0.017699124,12.451134,2.477616e-08,-4.5188276e-06,0,0,1
33243000,33087000,33091000,0,-488.03378,12.365087,-0.045532227,-0.02085749,12.45259,6.6594453e-06,-4.7617345e-06,0,0,1
33307000,33149666,33155000,0,-488.07172,12.365105,-0.008605957,-0.019492997,12.454065,2.3787413e-07,-4.257897e-06,0,0,1
33363000,33211000,33211000,0,-487.9779,12.364987,-0.10342407,-0.028663702,12.455157,3.435216e-05,-7.546138e-06,0,0,1
33427000,33275000,33275000,0,-487.96948,12.365007,-0.112335205,-0.038158342,12.456668,4.0521907e-05,-1.128807e-05,0,0,1
33491000,33339000,33339000,0,-488.0973,12.365027,0.014923096,-0.032134917,12.458196,7.150274e-07,-9.926016e-06,0,0,1
33555000,33401666,33403000,0,-488.01263,12.3650465,-0.06732178,-0.036053795,12.450442,1.4560838e-05,-1.04422115e-05,0,0,1
33619000,33464333,33467000,0,-488.08838,12.365066,0.007446289,-0.031208977,12.451889,1.7811665e-07,-9.259374e-06,0,0,1
33683000,33527000,33531000,0,-488.06485,12.365084,-0.017211914,-0.029650055,12.453354,9.515508e-07,-8.33409e-06,0,0,1
33747000,33591000,33595000,0,-487.94293,12.365102,-0.13998413,-0.042170234,12.454836,6.293316e-05,-1.452973e-05,0,0,1
33811000,33653666,33659000,0,-488.10852,12.36512,0.025756836,-0.034604967,12.456336,2.1303683e-06,-1.2674239e-05,0,0,1
33875000,33716333,33723000,0,-488.07544,12.365137,-0.008483887,-0.031695735,12.457853,2.311035e-07,-1.1288385e-05,0,0,1
33931000,33779000,33779000,0,-488.0755,12.36502,-0.005432129,-0.028770627,12.449755,9.4806765e-08,-1.0041701e-05,0,0,1
33995000,33843000,33843000,0,-488.02393,12.365039,-0.058044434,-0.032092478,12.45119,1.0823564e-05,-1.0130423e-05,0,0,1
34059000,33905666,33907000,0,-488.0573,12.365057,-0.025482178,-0.031356268,12.452643,2.0857947e-06,-9.234466e-06,0,0,1
34123000,33968333,33971000,0,-488.01062,12.365076,-0.07342529,-0.036041703,12.454116,1.7315637e-05,-1.0134506e-05,0,0,1
34187000,34031000,34035000,0,-488.15683,12.365094,0.071777344,-0.024033364,12.455605,1.6545122e-05,-7.1630643e-06,0,0,1
34251000,34095000,34099000,0,-488.02002,12.365112,-0.0670166,-0.028910894,12.457112,1.44214e-05,-7.986705e-06,0,0,1
34315000,34157666,34163000,0,-488.08167,12.365129,-0.0026550293,-0.02598669,12.449461,2.2648951e-08,-7.099721e-06,0,0,1
34379000,34220333,34227000,0,-488.1005,12.365147,0.014984131,-0.021423567,12.450886,7.213115e-07,-6.2286545e-06,0,0,1
34435000,34283000,34283000,0,-488.105,12.365028,0.018188477,-0.017011778,12.45194,1.0627122e-06,-5.416579e-06,0,0,1
34499000,34347000,34347000,0,-488.1002,12.365047,0.011779785,-0.01374465,12.453402,4.457042e-07,-4.7513554e-06,0,0,1
34563000,34409666,34411000,0,-488.01553,12.365066,-0.07443237,-0.020503646,12.45488,1.7792794e-05,-6.2038243e-06,0,0,1
34627000,34472333,34475000,0,-487.95053,12.365085,-0.14053345,-0.033871956,12.456377,6.34202e-05,-1.25762945e-05,0,0,1
34691000,34535000,34539000,0,-488.00345,12.365103,-0.08828735,-0.039932467,12.4578905,2.5027211e-05,-1.3963015e-05,0,0,1
34755000,34597666,34603000,0,-488.0606,12.365121,-0.026763916,-0.038465843,12.450207,2.3013504e-06,-1.2664216e-05,0,0,1
34819000,34661666,34667000,0,-488.1313,12.365138,0.041931152,-0.029342778,12.45164,5.6481604e-06,-1.0586216e-05,0,0,1
34883000,34724333,34731000,0,-488.08862,12.365155,-0.0032348633,-0.02643501,12.453093,3.361202e-08,-9.410921e-06,0,0,1
34939000,34787000,34787000,0,-488.0511,12.365037,-0.04272461,-0.028249264,12.4541645,5.862753e-06,-9.015744e-06,0,0,1
35003000,34851000,34851000,0,-487.97168,12.365056,-0.12438965,-0.039158814,12.455651,4.9689203e-05,-1.3631172e-05,0,0,1
35067000,34912333,34915000,0,-488.06204,12.365074,-0.035736084,-0.038784835,12.457154,4.1006724e-06,-1.258984e-05,0,0,1
35131000,34976333,34979000,0,-488.08115,12.365093,-0.01361084,-0.035928212,12.449534,5.952189e-07,-1.1228748e-05,0,0,1
35195000,35039000,35043000,0,-488.0531,12.36511,-0.04434204,-0.0368653,12.450957,6.3166763e-06,-1.0681666e-05,0,0,1
35259000,35103000,35107000,0,-488.01126,12.365128,-0.08880615,-0.0427593,12.452398,2.5333376e-05,-1.2344271e-05,0,0,1
35323000,35165666,35171000,0,-488.06842,12.365145,-0.03439331,-0.041827552,12.453857,3.799304e-06,-1.139259e-05,0,0,1
35379000,35227000,35227000,0,-488.08282,12.365026,-0.022857666,-0.03975481,12.454935,1.6779626e-06,-1.0331124e-05,0,0,1
35443000,35291000,35291000,0,-488.06897,12.3650465,-0.040130615,-0.039797455,12.4564295,5.1715183e-06,-9.745637e-06,0,0,1
35507000,35355000,35355000,0,-488.13507,12.365066,0.026397705,-0.032285947,12.456537,2.2376648e-06,-8.3858295e-06,0,0,1
35571000,35417666,35419000,0,-488.08786,12.365084,-0.019683838,-0.030882409,12.450285,1.244802e-06,-7.590509e-06,0,0,1
35635000,35480333,35483000,0,-488.0223,12.365102,-0.08828735,-0.03727588,12.451716,2.5039622e-05,-9.533903e-06,0,0,1
35699000,35543000,35547000,0,-488.0231,12.365119,-0.08981323,-0.043127224,12.453165,2.590961e-05,-1.1357746e-05,0,0,1
35763000,35607000,35611000,0,-488.11316,12.365137,-0.0020751953,-0.038468838,12.454633,1.3830792e-08,-1.0070493e-05,0,0,1
35827000,35669666,35675000,0,-488.08032,12.365154,-0.038085938,-0.038426194,12.456118,4.6580763e-06,-9.467694e-06,0,0,1
35891000,35732333,35739000,0,-488.03372,12.3651705,-0.087890625,-0.04393529,12.457618,2.4803338e-05,-1.1175701e-05,0,0,1
35947000,35795000,35795000,0,-488.09555,12.365052,-0.018371582,-0.041088134,12.449614,1.0844193e-06,-1.00517855e-05,0,0,1
36011000,35859000,35859000,0,-488.06757,12.365071,-0.04977417,-0.042073783,12.4510355,7.9590745e-06,-9.814315e-06,0,0,1
36075000,35921666,35923000,0,-488.05862,12.365089,-0.061798096,-0.044270545,12.452476,1.22674555e-05,-1.00875295e-05,0,0,1
36139000,35984333,35987000,0,-488.00757,12.365107,-0.11584473,-0.052242115,12.453932,4.3102857e-05,-1.3764609e-05,0,0,1
36203000,36047000,36051000,0,-487.99924,12.365125,-0.12677002,-0.060542654,12.455407,5.1610154e-05,-1.7979655e-05,0,0,1
36267000,36111000,36115000,0,-488.0239,12.365142,-0.10461426,-0.06554369,12.456898,3.5142435e-05,-1.9927205e-05,0,0,1
36331000,36173666,36179000,0,-487.95914,12.365159,-0.16168213,-0.07625095,12.449336,8.399198e-05,-2.7062313e-05,0,0,1
36395000,36236333,36243000,0,-488.0592,12.365175,-0.063690186,-0.074852,12.4507475,1.3031956e-05,-2.5499683e-05,0,0,1
36451000,36299000,36299000,0,-488.07858,12.365057,-0.046539307,-0.07169867,12.451791,6.957737e-06,-2.3434575e-05,0,0,1
