timestamp,yaw_sp_move_rate,q_d[0],q_d[1],q_d[2],q_d[3],thrust_body[0],thrust_body[1],thrust_body[2]
5587000,0.0,0.99999994,-0.0,0.0,-0.00038541606,0.0,0.0,-0.001
5595000,0.0,0.99999994,-0.0,0.0,-0.0003480652,0.0,0.0,-0.001
5635000,0.0,0.99999994,-0.0,0.0,-0.0003863317,0.0,0.0,-0.001
5691000,0.0,0.99999994,-0.0,0.0,-0.00034559573,0.0,0.0,-0.001
5739000,0.0,0.9999999,-0.0,0.0,-0.00053028535,0.0,0.0,-0.001
5787000,0.0,0.9999999,-0.0,0.0,-0.0005067508,0.0,0.0,-0.001
5835000,0.0,0.99999994,-0.0,0.0,-0.00040017706,0.0,0.0,-0.001
5891000,0.0,1.0,-0.0,0.0,-9.7615215e-05,0.0,0.0,-0.001
5939000,0.0,1.0,0.0,0.0,3.285179e-05,0.0,0.0,-0.001
5987000,0.0,1.0,-0.0,0.0,-2.2389381e-06,0.0,0.0,-0.001
6035000,0.0,1.0,-0.0,0.0,-2.7417252e-06,0.0,0.0,-0.001
6083000,0.0,1.0,-0.0,0.0,-0.00022454234,0.0,0.0,-0.001
6139000,0.0,1.0,-0.0,0.0,-5.40666e-05,0.0,0.0,-0.001
6187000,0.0,0.99999994,0.0,0.0,0.00030102418,0.0,0.0,-0.001
6235000,0.0,0.99999994,0.0,0.0,0.00031728175,0.0,0.0,-0.001
6291000,0.0,0.99999994,0.0,0.0,0.00028901364,0.0,0.0,-0.001
6339000,0.0,0.99999994,0.0,0.0,0.0003959806,0.0,0.0,-0.001
6387000,0.0,0.7031742,0.0,0.0,0.7110176,0.0,0.0,-0.001
6435000,0.0,0.7031762,0.0,0.0,0.71101564,0.0,0.0,-0.001
6491000,0.0,0.703139,0.0,0.0,0.7110525,0.0,0.0,-0.001
6539000,0.0,0.7027421,0.0,0.0,0.71144474,0.0,0.0,-0.001
6587000,0.0,0.70275486,0.0,0.0,0.7114321,0.0,0.0,-0.001
6635000,0.0,0.70296675,0.0,0.0,0.71122277,0.0,0.0,-0.001
6683000,0.0,0.7026974,0.0,0.0,0.71148896,0.0,0.0,-0.001
6739000,0.0,0.70252365,0.0,0.0,0.71166044,0.0,0.0,-0.001
6787000,0.0,0.7023196,0.0,0.0,0.71186185,0.0,0.0,-0.001
6843000,0.0,0.7021064,0.0,0.0,0.7120721,0.0,0.0,-0.001
6891000,0.0,0.70223534,0.0,0.0,0.71194494,0.0,0.0,-0.001
6939000,0.0,0.70229775,0.0,0.0,0.7118834,0.0,0.0,-0.001
6987000,0.0,0.70222956,0.0,0.0,0.7119506,0.0,0.0,-0.001
7043000,0.0,0.7021575,0.0,0.0,0.7120217,0.0,0.0,-0.001
7091000,0.0,0.702041,0.0,0.0,0.71213657,0.0,0.0,-0.001
7139000,0.0,0.7019437,0.0,0.0,0.7122325,0.0,0.0,-0.001
7187000,0.0,0.7018902,0.0,0.0,0.71228516,0.0,0.0,-0.001
7243000,0.0,0.7016357,0.0,0.0,0.71253586,0.0,0.0,-0.001
7291000,0.0,0.70145524,0.0,0.0,0.71271354,0.0,0.0,-0.001
7339000,0.0,0.7013321,0.0,0.0,0.7128348,0.0,0.0,-0.001
7387000,0.0,0.7014891,0.0,0.0,0.71268016,0.0,0.0,-0.001
7435000,0.0,0.70147604,0.0,0.0,0.71269304,0.0,0.0,-0.001
7491000,0.0,0.70119196,0.0,0.0,0.7129725,0.0,0.0,-0.001
7539000,0.0,0.70105946,0.0,0.0,0.7131029,0.0,0.0,-0.001
7587000,0.0,0.7009735,0.0,0.0,0.7131874,0.0,0.0,-0.001
7635000,0.0,0.7008351,0.0,0.0,0.71332335,0.0,0.0,-0.001
7691000,0.0,0.7009526,0.0,0.0,0.71320796,0.0,0.0,-0.001
7739000,0.0,0.7010264,0.0,0.0,0.7131353,0.0,0.0,-0.001
7787000,0.0,0.7010815,0.0,0.0,0.7130812,0.0,0.0,-0.001
7843000,0.0,0.70087546,0.0,0.0,0.71328366,0.0,0.0,-0.001
7891000,0.0,0.70084864,0.0,0.0,0.71331006,0.0,0.0,-0.001
7939000,0.0,0.7007003,0.0,0.0,0.7134558,0.0,0.0,-0.001
7987000,0.0,0.7007223,0.0,0.0,0.71343416,0.0,0.0,-0.001
8043000,0.0,0.70071465,0.0,0.0,0.7134417,0.0,0.0,-0.001
8083000,0.0,0.7005839,0.0,0.0,0.71357006,0.0,0.0,-0.001
8139000,0.0,0.7008391,0.0,0.0,0.7133194,0.0,0.0,-0.001
8187000,0.0,0.7005827,0.0,0.0,0.71357125,0.0,0.0,-0.001
8243000,0.0,0.7004689,0.0,0.0,0.71368295,0.0,0.0,-0.001
8291000,0.0,0.70028913,0.0,0.0,0.7138594,0.0,0.0,-0.001
8339000,0.0,0.7003186,0.0,0.0,0.7138304,0.0,0.0,-0.001
8387000,0.0,0.7000689,0.0,0.0,0.7140753,0.0,0.0,-0.001
8443000,0.0,0.7000618,0.0,0.0,0.71408224,0.0,0.0,-0.001
8491000,0.0,0.70005476,0.0,0.0,0.71408916,0.0,0.0,-0.001
8539000,0.0,0.69968945,0.0,0.0,0.71444714,0.0,0.0,-0.001
8587000,0.0,0.6997188,0.0,0.0,0.7144184,0.0,0.0,-0.001
8643000,0.0,0.699527,0.0,0.0,0.7146061,0.0,0.0,-0.001
8691000,0.0,0.6993658,0.0,0.0,0.71476394,0.0,0.0,-0.001
8739000,0.0,0.69942486,0.0,0.0,0.7147061,0.0,0.0,-0.001
8787000,0.0,0.69928896,0.0,0.0,0.7148391,0.0,0.0,-0.001
8843000,0.0,0.6993066,0.0,0.0,0.71482193,0.0,0.0,-0.001
8883000,0.0,0.6988662,0.0,0.0,0.7152525,0.0,0.0,-0.001
8939000,0.0,0.69869244,0.0,0.0,0.7154223,0.0,0.0,-0.001
8987000,0.0,0.6988998,0.0,0.0,0.7152196,0.0,0.0,-0.001
9043000,0.0,0.69882935,0.0,0.0,0.7152884,0.0,0.0,-0.001
9091000,0.0,0.69857556,0.0,0.0,0.7155363,0.0,0.0,-0.001
9139000,0.0,0.69836676,0.0,0.0,0.7157401,0.0,0.0,-0.001
9187000,0.0,0.698268,0.0,0.0,0.7158364,0.0,0.0,-0.001
9235000,0.0,0.69824094,0.0,0.0,0.7158628,0.0,0.0,-0.001
9283000,0.0,0.69813555,0.0,0.0,0.7159656,0.0,0.0,-0.001
9339000,0.0,0.6981865,0.0,0.0,0.71591586,0.0,0.0,-0.001
9387000,0.0,0.698209,0.0,0.0,0.71589404,0.0,0.0,-0.001
9443000,0.0,0.69817656,0.0,0.0,0.71592563,0.0,0.0,-0.001
9491000,0.0,0.6982364,0.0,0.0,0.7158673,0.0,0.0,-0.001
9539000,0.0,0.69817066,0.0,0.0,0.71593136,0.0,0.0,-0.001
9587000,0.0,0.69796175,0.0,0.0,0.7161351,0.0,0.0,-0.001
9635000,0.0,0.6982383,0.0,0.0,0.7158654,0.0,0.0,-0.001
9691000,0.0,0.6978689,0.0,0.0,0.71622556,0.0,0.0,-0.001
9739000,0.0,0.69781613,0.0,0.0,0.716277,0.0,0.0,-0.001
9787000,0.0,0.6976079,0.0,0.0,0.7164798,0.0,0.0,-0.001
9843000,0.0,0.69732255,0.0,0.0,0.7167575,0.0,0.0,-0.001
9891000,0.0,0.6974318,0.0,0.0,0.71665114,0.0,0.0,-0.001
9939000,0.0,0.6973024,0.0,0.0,0.71677715,0.0,0.0,-0.001
9987000,0.0,0.6972511,0.0,0.0,0.71682703,0.0,0.0,-0.001
10043000,0.0,0.6970328,0.0,0.0,0.7170392,0.0,0.0,-0.001
10091000,0.0,0.69712687,0.0,0.0,0.7169478,0.0,0.0,-0.001
10139000,0.0,0.69720846,0.0,0.0,0.7168684,0.0,0.0,-0.001
10187000,0.0,0.6971333,0.0,0.0,0.71694154,0.0,0.0,-0.001
10235000,0.0,0.69703835,0.0,0.0,0.7170338,0.0,0.0,-0.001
10283000,0.0,0.69676673,0.0,0.0,0.7172978,0.0,0.0,-0.001
10339000,0.0,0.6969121,0.0,0.0,0.7171565,0.0,0.0,-0.001
10387000,0.0,0.69694453,0.0,0.0,0.71712506,0.0,0.0,-0.001
10435000,0.0,0.69693035,0.0,0.0,0.7171389,0.0,0.0,-0.001
10491000,0.0,0.69687855,0.0,0.0,0.71718913,0.0,0.0,-0.001
10539000,0.0,0.69681174,0.0,0.0,0.71725404,0.0,0.0,-0.001
10587000,0.0,0.6966728,0.0,0.0,0.71738905,0.0,0.0,-0.001
10643000,0.0,0.6969016,0.0,0.0,0.7171668,0.0,0.0,-0.001
10691000,0.0,0.6970132,0.0,0.0,0.7170583,0.0,0.0,-0.001
10739000,0.0,0.6969976,0.0,0.0,0.71707344,0.0,0.0,-0.001
10787000,0.0,0.69684374,0.0,0.0,0.7172229,0.0,0.0,-0.001
10835000,0.0,0.6968953,0.0,0.0,0.7171729,0.0,0.0,-0.001
10891000,0.0,0.69684136,0.0,0.0,0.7172253,0.0,0.0,-0.001
10939000,0.0,0.6967457,0.0,0.0,0.7173183,0.0,0.0,-0.001
10987000,0.0,0.6962592,0.0,0.0,0.7177904,0.0,0.0,-0.001
11035000,0.0,0.6961954,0.0,0.0,0.71785235,0.0,0.0,-0.001
11091000,0.0,0.69627696,0.0,0.0,0.71777326,0.0,0.0,-0.001
11139000,0.0,0.6962498,0.0,0.0,0.7177996,0.0,0.0,-0.001
11187000,0.0,0.69622517,0.0,0.0,0.7178235,0.0,0.0,-0.001
11243000,0.0,0.69602686,0.0,0.0,0.7180158,0.0,0.0,-0.001
11291000,0.0,0.69623244,0.0,0.0,0.7178164,0.0,0.0,-0.001
11339000,0.0,0.69619954,0.0,0.0,0.7178483,0.0,0.0,-0.001
11387000,0.0,0.69629526,0.0,0.0,0.71775544,0.0,0.0,-0.001
11443000,0.0,0.6964931,0.0,0.0,0.7175635,0.0,0.0,-0.001
11483000,0.0,0.69647014,0.0,0.0,0.7175858,0.0,0.0,-0.001
11539000,0.0,0.6961661,0.0,0.0,0.7178807,0.0,0.0,-0.001
11587000,0.0,0.6960352,0.0,0.0,0.7180076,0.0,0.0,-0.001
11643000,0.0,0.69603306,0.0,0.0,0.7180097,0.0,0.0,-0.001
11691000,0.0,0.6959555,0.0,0.0,0.7180849,0.0,0.0,-0.001
11739000,0.0,0.6959887,0.0,0.0,0.7180528,0.0,0.0,-0.001
11787000,0.0,0.6960126,0.0,0.0,0.7180296,0.0,0.0,-0.001
11835000,0.0,0.69611603,0.0,0.0,0.7179293,0.0,0.0,-0.001
11891000,0.0,0.69619894,0.0,0.0,0.7178489,0.0,0.0,-0.001
11939000,0.0,0.6963527,0.0,0.0,0.71769977,0.0,0.0,-0.001
11987000,0.0,0.69629353,0.0,0.0,0.71775717,0.0,0.0,-0.001
12043000,0.0,0.69625497,0.0,0.0,0.71779454,0.0,0.0,-0.001
12091000,0.0,0.6962138,0.0,0.0,0.7178346,0.0,0.0,-0.001
12139000,0.0,0.69635546,0.0,0.0,0.7176971,0.0,0.0,-0.001
12187000,0.0,0.6962478,0.0,0.0,0.7178015,0.0,0.0,-0.001
12235000,0.0,0.696161,0.0,0.0,0.71788573,0.0,0.0,-0.001
12291000,0.0,0.6960754,0.0,0.0,0.71796876,0.0,0.0,-0.001
12339000,0.0,0.69604325,0.0,0.0,0.7179999,0.0,0.0,-0.001
12387000,0.0,0.69587284,0.0,0.0,0.71816504,0.0,0.0,-0.001
12435000,0.0,0.6958558,0.0,0.0,0.71818155,0.0,0.0,-0.001
12491000,0.0,0.6958567,0.0,0.0,0.71818066,0.0,0.0,-0.001
12539000,0.0,0.69594073,0.0,0.0,0.7180993,0.0,0.0,-0.001
12587000,0.0,0.6958803,0.0,0.0,0.7181578,0.0,0.0,-0.001
12635000,0.0,0.69584423,0.0,0.0,0.71819276,0.0,0.0,-0.001
12683000,0.0,0.69565135,0.0,0.0,0.7183796,0.0,0.0,-0.001
12739000,0.0,0.6957351,0.0,0.0,0.7182985,0.0,0.0,-0.001
12787000,0.0,0.6960556,0.0,0.0,0.7179879,0.0,0.0,-0.001
12843000,0.0,0.69618267,0.0,0.0,0.7178647,0.0,0.0,-0.001
12891000,0.0,0.69597155,0.0,0.0,0.7180694,0.0,0.0,-0.001
12939000,0.0,0.6958365,0.0,0.0,0.71820027,0.0,0.0,-0.001
12987000,0.0,0.6957926,0.0,0.0,0.7182428,0.0,0.0,-0.001
13035000,0.0,0.69592476,0.0,0.0,0.71811473,0.0,0.0,-0.001
13091000,0.0,0.6959471,0.0,0.0,0.7180931,0.0,0.0,-0.001
13139000,0.0,0.6960549,0.0,0.0,0.71798855,0.0,0.0,-0.001
13187000,0.0,0.69577086,0.0,0.0,0.7182638,0.0,0.0,-0.001
13243000,0.0,0.6957865,0.0,0.0,0.71824867,0.0,0.0,-0.001
13283000,0.0,0.6957406,0.0,0.0,0.7182932,0.0,0.0,-0.001
13339000,0.0,0.6960837,0.0,0.0,0.71796066,0.0,0.0,-0.001
13387000,0.0,0.69619554,0.0,0.0,0.7178522,0.0,0.0,-0.001
13435000,0.0,0.6963537,0.0,0.0,0.7176989,0.0,0.0,-0.001
13491000,0.0,0.69642603,0.0,0.0,0.7176286,0.0,0.0,-0.001
13539000,0.0,0.69636506,0.0,0.0,0.7176878,0.0,0.0,-0.001
13587000,0.0,0.69651234,0.0,0.0,0.71754485,0.0,0.0,-0.001
13635000,0.0,0.6965103,0.0,0.0,0.7175468,0.0,0.0,-0.001
13691000,0.0,0.6965129,0.0,0.0,0.7175444,0.0,0.0,-0.001
13739000,0.0,0.6966884,0.0,0.0,0.7173739,0.0,0.0,-0.001
13787000,0.0,0.6964098,0.0,0.0,0.7176444,0.0,0.0,-0.001
13843000,0.0,0.6966217,0.0,0.0,0.71743864,0.0,0.0,-0.001
13891000,0.0,0.6966805,0.0,0.0,0.7173816,0.0,0.0,-0.001
13939000,0.0,0.69677055,0.0,0.0,0.7172941,0.0,0.0,-0.001
13987000,0.0,0.6969079,0.0,0.0,0.71716076,0.0,0.0,-0.001
14043000,0.0,0.69685596,0.0,0.0,0.7172111,0.0,0.0,-0.001
14083000,0.0,0.69673276,0.0,0.0,0.7173308,0.0,0.0,-0.001
14139000,0.0,0.69663227,0.0,0.0,0.7174285,0.0,0.0,-0.001
14187000,0.0,0.6962843,0.0,0.0,0.7177661,0.0,0.0,-0.001
14243000,0.0,0.6962056,0.0,0.0,0.7178424,0.0,0.0,-0.001
14283000,0.0,0.6959392,0.0,0.0,0.7181007,0.0,0.0,-0.001
14339000,0.0,0.6958876,0.0,0.0,0.71815073,0.0,0.0,-0.001
14387000,0.0,0.6959092,0.0,0.0,0.7181299,0.0,0.0,-0.001
14443000,0.0,0.6959166,0.0,0.0,0.7181226,0.0,0.0,-0.001
14483000,0.0,0.69587785,0.0,0.0,0.71816015,0.0,0.0,-0.001
14539000,0.0,0.6957638,0.0,0.0,0.7182707,0.0,0.0,-0.001
14587000,0.0,0.69580054,0.0,0.0,0.7182351,0.0,0.0,-0.001
14643000,0.0,0.69584304,0.0,0.0,0.7181939,0.0,0.0,-0.001
14691000,0.0,0.6957623,0.0,0.0,0.71827215,0.0,0.0,-0.001
14739000,0.0,0.6957478,0.0,0.0,0.7182862,0.0,0.0,-0.001
14787000,0.0,0.69568634,0.0,0.0,0.7183457,0.0,0.0,-0.001
14843000,0.0,0.6956812,0.0,0.0,0.71835077,0.0,0.0,-0.001
14883000,0.0,0.69580185,0.0,0.0,0.7182338,0.0,0.0,-0.001
14939000,0.0,0.6957551,0.0,0.0,0.7182791,0.0,0.0,-0.001
14987000,0.0,0.695797,0.0,0.0,0.71823853,0.0,0.0,-0.001
15043000,0.0,0.69568676,0.0,0.0,0.71834534,0.0,0.0,-0.001
15091000,0.0,0.6958839,0.0,0.0,0.71815425,0.0,0.0,-0.001
15139000,0.0,0.69599575,0.0,0.0,0.7180459,0.0,0.0,-0.001
15187000,0.0,0.6960341,0.0,0.0,0.7180088,0.0,0.0,-0.001
15235000,0.0,0.6960401,0.0,0.0,0.71800286,0.0,0.0,-0.001
15283000,0.0,0.696265,0.0,0.0,0.7177848,0.0,0.0,-0.001
15339000,0.0,0.696211,0.0,0.0,0.7178373,0.0,0.0,-0.001
15387000,0.0,0.6963584,0.0,0.0,0.7176942,0.0,0.0,-0.001
15443000,0.0,0.6963355,0.0,0.0,0.71771646,0.0,0.0,-0.001
15483000,0.0,0.69637746,0.0,0.0,0.71767575,0.0,0.0,-0.001
15539000,0.0,0.69628567,0.0,0.0,0.7177648,0.0,0.0,-0.001
15587000,0.0,0.6959662,0.0,0.0,0.71807456,0.0,0.0,-0.001
15643000,0.0,0.69597924,0.0,0.0,0.7180619,0.0,0.0,-0.001
15691000,0.0,0.69614863,0.0,0.0,0.71789765,0.0,0.0,-0.001
15739000,0.0,0.69630605,0.0,0.0,0.717745,0.0,0.0,-0.001
15787000,0.0,0.6964669,0.0,0.0,0.71758884,0.0,0.0,-0.001
15843000,0.0,0.696711,0.0,0.0,0.7173519,0.0,0.0,-0.001
15891000,0.0,0.6966481,0.0,0.0,0.717413,0.0,0.0,-0.001
15939000,0.0,0.6967605,0.0,0.0,0.71730393,0.0,0.0,-0.001
15987000,0.0,0.69685423,0.0,0.0,0.71721286,0.0,0.0,-0.001
16043000,0.0,0.69699305,0.0,0.0,0.7170779,0.0,0.0,-0.001
16091000,0.0,0.6974276,0.0,0.0,0.7166553,0.0,0.0,-0.001
16139000,0.0,0.6974616,0.0,0.0,0.7166222,0.0,0.0,-0.001
16187000,0.0,0.6975913,0.0,0.0,0.7164959,0.0,0.0,-0.001
16243000,0.0,0.69751817,0.0,0.0,0.71656716,0.0,0.0,-0.001
16291000,0.0,0.6975855,0.0,0.0,0.71650153,0.0,0.0,-0.001
16339000,0.0,0.69753397,0.0,0.0,0.7165517,0.0,0.0,-0.001
16387000,0.0,0.6975659,0.0,0.0,0.7165207,0.0,0.0,-0.001
16443000,0.0,0.6972569,0.0,0.0,0.7168214,0.0,0.0,-0.001
16491000,0.0,0.6974288,0.0,0.0,0.71665406,0.0,0.0,-0.001
16539000,0.0,0.69744337,0.0,0.0,0.71664,0.0,0.0,-0.001
16587000,0.0,0.69755715,0.0,0.0,0.71652925,0.0,0.0,-0.001
16643000,0.0,0.69750726,0.0,0.0,0.71657777,0.0,0.0,-0.001
16683000,0.0,0.6974544,0.0,0.0,0.7166292,0.0,0.0,-0.001
16739000,0.0,0.6973103,0.0,0.0,0.7167694,0.0,0.0,-0.001
16787000,0.0,0.6975656,0.0,0.0,0.7165209,0.0,0.0,-0.001
16835000,0.0,0.69757587,0.0,0.0,0.71651095,0.0,0.0,-0.001
16891000,0.0,0.69752795,0.0,0.0,0.7165576,0.0,0.0,-0.001
16939000,0.0,0.6974366,0.0,0.0,0.71664655,0.0,0.0,-0.001
16987000,0.0,0.6973358,0.0,0.0,0.71674454,0.0,0.0,-0.001
17043000,0.0,0.69744444,0.0,0.0,0.71663886,0.0,0.0,-0.001
17083000,0.0,0.6975424,0.0,0.0,0.7165435,0.0,0.0,-0.001
17139000,0.0,0.6976983,0.0,0.0,0.7163918,0.0,0.0,-0.001
17187000,0.0,0.69760585,0.0,0.0,0.7164818,0.0,0.0,-0.001
17243000,0.0,0.6975502,0.0,0.0,0.716536,0.0,0.0,-0.001
17283000,0.0,0.69762707,0.0,0.0,0.7164611,0.0,0.0,-0.001
17339000,0.0,0.697532,0.0,0.0,0.7165536,0.0,0.0,-0.001
17387000,0.0,0.6975229,0.0,0.0,0.7165625,0.0,0.0,-0.001
17443000,0.0,0.69746554,0.0,0.0,0.7166183,0.0,0.0,-0.001
17491000,0.0,0.69779235,0.0,0.0,0.7163001,0.0,0.0,-0.001
17539000,0.0,0.69754875,0.0,0.0,0.71653736,0.0,0.0,-0.001
17587000,0.0,0.69749594,0.0,0.0,0.7165888,0.0,0.0,-0.001
17643000,0.0,0.69751906,0.0,0.0,0.71656626,0.0,0.0,-0.001
17691000,0.0,0.6975013,0.0,0.0,0.71658355,0.0,0.0,-0.001
17739000,0.0,0.697562,0.0,0.0,0.71652454,0.0,0.0,-0.001
17787000,0.0,0.69753075,0.0,0.0,0.7165549,0.0,0.0,-0.001
17843000,0.0,0.69751096,0.0,0.0,0.7165741,0.0,0.0,-0.001
17891000,0.0,0.697571,0.0,0.0,0.71651566,0.0,0.0,-0.001
17939000,0.0,0.6975958,0.0,0.0,0.7164916,0.0,0.0,-0.001
17987000,0.0,0.6973256,0.0,0.0,0.7167545,0.0,0.0,-0.001
18043000,0.0,0.69742894,0.0,0.0,0.716654,0.0,0.0,-0.001
18091000,0.0,0.69750524,0.0,0.0,0.7165797,0.0,0.0,-0.001
18139000,0.0,0.69725335,0.0,0.0,0.7168248,0.0,0.0,-0.001
18187000,0.0,0.6972543,0.0,0.0,0.7168239,0.0,0.0,-0.001
18235000,0.0,0.6972651,0.0,0.0,0.7168134,0.0,0.0,-0.001
18283000,0.0,0.6972605,0.0,0.0,0.7168178,0.0,0.0,-0.001
18339000,0.0,0.6974619,0.0,0.0,0.7166219,0.0,0.0,-0.001
18387000,0.0,0.69730073,0.0,0.0,0.7167787,0.0,0.0,-0.001
18443000,0.0,0.6976035,0.0,0.0,0.71648407,0.0,0.0,-0.001
18483000,0.0,0.69767827,0.0,0.0,0.71641123,0.0,0.0,-0.001
18539000,0.0,0.69763654,0.0,0.0,0.7164518,0.0,0.0,-0.001
18587000,0.0,0.6976178,0.0,0.0,0.7164702,0.0,0.0,-0.001
18643000,0.0,0.6977493,0.0,0.0,0.7163421,0.0,0.0,-0.001
18683000,0.0,0.69773394,0.0,0.0,0.7163571,0.0,0.0,-0.001
18739000,0.0,0.6978383,0.0,0.0,0.7162554,0.0,0.0,-0.001
18787000,0.0,0.69811153,0.0,0.0,0.71598905,0.0,0.0,-0.001
18835000,0.0,0.6981002,0.0,0.0,0.7160001,0.0,0.0,-0.001
18891000,0.0,0.69779766,0.0,0.0,0.71629494,0.0,0.0,-0.001
18939000,0.0,0.6976841,0.0,0.0,0.7164055,0.0,0.0,-0.001
18987000,0.0,0.6977945,0.0,0.0,0.716298,0.0,0.0,-0.001
19035000,0.0,0.6976287,0.0,0.0,0.7164595,0.0,0.0,-0.001
19083000,0.0,0.6976888,0.0,0.0,0.7164009,0.0,0.0,-0.001
19139000,0.0,0.6977327,0.0,0.0,0.7163582,0.0,0.0,-0.001
19187000,0.0,0.69762796,0.0,0.0,0.7164602,0.0,0.0,-0.001
19235000,0.0,0.6974664,0.0,0.0,0.7166175,0.0,0.0,-0.001
19291000,0.0,0.69733405,0.0,0.0,0.7167463,0.0,0.0,-0.001
19339000,0.0,0.6972791,0.0,0.0,0.71679974,0.0,0.0,-0.001
19387000,0.0,0.69739896,0.0,0.0,0.71668315,0.0,0.0,-0.001
19443000,0.0,0.6972773,0.0,0.0,0.71680146,0.0,0.0,-0.001
19491000,0.0,0.6971912,0.0,0.0,0.7168852,0.0,0.0,-0.001
19539000,0.0,0.69721496,0.0,0.0,0.71686214,0.0,0.0,-0.001
19587000,0.0,0.69721645,0.0,0.0,0.71686065,0.0,0.0,-0.001
19635000,0.0,0.6971988,0.0,0.0,0.7168779,0.0,0.0,-0.001
19691000,0.0,0.6971232,0.0,0.0,0.7169513,0.0,0.0,-0.001
19739000,0.0,0.6970222,0.0,0.0,0.71704954,0.0,0.0,-0.001
19787000,0.0,0.6970271,0.0,0.0,0.7170448,0.0,0.0,-0.001
19843000,0.0,0.6967038,0.0,0.0,0.71735895,0.0,0.0,-0.001
19883000,0.0,0.69672793,0.0,0.0,0.71733546,0.0,0.0,-0.001
19939000,0.0,0.69658977,0.0,0.0,0.71746963,0.0,0.0,-0.001
19987000,0.0,0.6965745,0.0,0.0,0.7174845,0.0,0.0,-0.001
20043000,0.0,0.696612,0.0,0.0,0.7174481,0.0,0.0,-0.001
20091000,0.0,0.696426,0.0,0.0,0.71762866,0.0,0.0,-0.001
20139000,0.0,0.6963793,0.0,0.0,0.717674,0.0,0.0,-0.001
20187000,0.0,0.6960564,0.0,0.0,0.7179871,0.0,0.0,-0.001
20243000,0.0,0.6959851,0.0,0.0,0.7180562,0.0,0.0,-0.001
20291000,0.0,0.69600654,0.0,0.0,0.7180355,0.0,0.0,-0.001
20339000,0.0,0.69601136,0.0,0.0,0.7180308,0.0,0.0,-0.001
20387000,0.0,0.6958714,0.0,0.0,0.7181664,0.0,0.0,-0.001
20443000,0.0,0.6958846,0.0,0.0,0.71815366,0.0,0.0,-0.001
20491000,0.0,0.695901,0.0,0.0,0.71813774,0.0,0.0,-0.001
20539000,0.0,0.69563967,0.0,0.0,0.7183909,0.0,0.0,-0.001
20587000,0.0,0.6957334,0.0,0.0,0.71830016,0.0,0.0,-0.001
20643000,0.0,0.695597,0.0,0.0,0.71843225,0.0,0.0,-0.001
20691000,0.0,0.69550663,0.0,0.0,0.7185197,0.0,0.0,-0.001
20739000,0.0,0.6954573,0.0,0.0,0.71856743,0.0,0.0,-0.001
20787000,0.0,0.69527423,0.0,0.0,0.7187446,0.0,0.0,-0.001
20843000,0.0,0.69510674,0.0,0.0,0.7189065,0.0,0.0,-0.001
20891000,0.0,0.6949313,0.0,0.0,0.71907616,0.0,0.0,-0.001
20939000,0.0,0.6948267,0.0,0.0,0.7191772,0.0,0.0,-0.001
20987000,0.0,0.6945648,0.0,0.0,0.71943015,0.0,0.0,-0.001
21043000,0.0,0.69443697,0.0,0.0,0.71955353,0.0,0.0,-0.001
21091000,0.0,0.69438934,0.0,0.0,0.7195995,0.0,0.0,-0.001
21139000,0.0,0.6940343,0.0,0.0,0.7199419,0.0,0.0,-0.001
21187000,0.0,0.6939814,0.0,0.0,0.71999294,0.0,0.0,-0.001
21235000,0.0,0.69365925,0.0,0.0,0.7203033,0.0,0.0,-0.001
21291000,0.0,0.6934196,0.0,0.0,0.7205341,0.0,0.0,-0.001
21339000,0.0,0.69335675,0.0,0.0,0.72059447,0.0,0.0,-0.001
21387000,0.0,0.6931958,0.0,0.0,0.7207493,0.0,0.0,-0.001
21443000,0.0,0.69281435,0.0,0.0,0.721116,0.0,0.0,-0.001
21483000,0.0,0.6927333,0.0,0.0,0.7211939,0.0,0.0,-0.001
21539000,0.0,0.692796,0.0,0.0,0.72113365,0.0,0.0,-0.001
21587000,0.0,0.6925325,0.0,0.0,0.7213867,0.0,0.0,-0.001
21635000,0.0,0.69263476,0.0,0.0,0.7212886,0.0,0.0,-0.001
21691000,0.0,0.69239104,0.0,0.0,0.72152257,0.0,0.0,-0.001
21739000,0.0,0.69249,0.0,0.0,0.7214275,0.0,0.0,-0.001
21787000,0.0,0.69243425,0.0,0.0,0.721481,0.0,0.0,-0.001
21835000,0.0,0.69228333,0.0,0.0,0.7216259,0.0,0.0,-0.001
21891000,0.0,0.69222325,0.0,0.0,0.7216834,0.0,0.0,-0.001
21939000,0.0,0.69224995,0.0,0.0,0.7216578,0.0,0.0,-0.001
21987000,0.0,0.69218796,0.0,0.0,0.7217173,0.0,0.0,-0.001
22035000,0.0,0.69196594,0.0,0.0,0.7219302,0.0,0.0,-0.001
22091000,0.0,0.6916202,0.0,0.0,0.72226137,0.0,0.0,-0.001
22139000,0.0,0.69136506,0.0,0.0,0.7225056,0.0,0.0,-0.001
22187000,0.0,0.69123065,0.0,0.0,0.7226342,0.0,0.0,-0.001
22235000,0.0,0.69117516,0.0,0.0,0.72268724,0.0,0.0,-0.001
22283000,0.0,0.69145495,0.0,0.0,0.7224196,0.0,0.0,-0.001
22339000,0.0,0.6912772,0.0,0.0,0.72258973,0.0,0.0,-0.001
22387000,0.0,0.6914113,0.0,0.0,0.72246134,0.0,0.0,-0.001
22435000,0.0,0.6911965,0.0,0.0,0.722667,0.0,0.0,-0.001
22491000,0.0,0.69130063,0.0,0.0,0.7225673,0.0,0.0,-0.001
22539000,0.0,0.6915192,0.0,0.0,0.72235817,0.0,0.0,-0.001
22587000,0.0,0.69146365,0.0,0.0,0.7224113,0.0,0.0,-0.001
22643000,0.0,0.69112283,0.0,0.0,0.7227373,0.0,0.0,-0.001
22683000,0.0,0.691086,0.0,0.0,0.72277254,0.0,0.0,-0.001
22739000,0.0,0.69090027,0.0,0.0,0.7229501,0.0,0.0,-0.001
22787000,0.0,0.6907994,0.0,0.0,0.7230465,0.0,0.0,-0.001
22843000,0.0,0.6905454,0.0,0.0,0.72328913,0.0,0.0,-0.001
22891000,0.0,0.6905562,0.0,0.0,0.7232787,0.0,0.0,-0.001
22939000,0.0,0.69061124,0.0,0.0,0.72322625,0.0,0.0,-0.001
22987000,0.0,0.69035023,0.0,0.0,0.72347534,0.0,0.0,-0.001
23043000,0.0,0.6903881,0.0,0.0,0.7234392,0.0,0.0,-0.001
23091000,0.0,0.6901691,0.0,0.0,0.7236482,0.0,0.0,-0.001
23139000,0.0,0.69044083,0.0,0.0,0.7233889,0.0,0.0,-0.001
23187000,0.0,0.6904425,0.0,0.0,0.7233873,0.0,0.0,-0.001
23235000,0.0,0.6902379,0.0,0.0,0.7235825,0.0,0.0,-0.001
23283000,0.0,0.690287,0.0,0.0,0.72353566,0.0,0.0,-0.001
23339000,0.0,0.69026226,0.0,0.0,0.72355926,0.0,0.0,-0.001
23387000,0.0,0.69022816,0.0,0.0,0.7235918,0.0,0.0,-0.001
23435000,0.0,0.6902715,0.0,0.0,0.72355044,0.0,0.0,-0.001
23483000,0.0,0.6903107,0.0,0.0,0.72351307,0.0,0.0,-0.001
23539000,0.0,0.6901891,0.0,0.0,0.7236291,0.0,0.0,-0.001
23587000,0.0,0.6900986,0.0,0.0,0.7237154,0.0,0.0,-0.001
23635000,0.0,0.68993455,0.0,0.0,0.7238718,0.0,0.0,-0.001
23683000,0.0,0.68979305,0.0,0.0,0.7240066,0.0,0.0,-0.001
23739000,0.0,0.68981504,0.0,0.0,0.72398573,0.0,0.0,-0.001
23787000,0.0,0.6895494,0.0,0.0,0.72423875,0.0,0.0,-0.001
23843000,0.0,0.68945193,0.0,0.0,0.72433144,0.0,0.0,-0.001
23883000,0.0,0.6894426,0.0,0.0,0.7243403,0.0,0.0,-0.001
23939000,0.0,0.68941057,0.0,0.0,0.72437084,0.0,0.0,-0.001
23987000,0.0,0.6894255,0.0,0.0,0.7243566,0.0,0.0,-0.001
24043000,0.0,0.6894623,0.0,0.0,0.72432154,0.0,0.0,-0.001
24091000,0.0,0.6894727,0.0,0.0,0.72431177,0.0,0.0,-0.001
24139000,0.0,0.6896395,0.0,0.0,0.7241529,0.0,0.0,-0.001
24187000,0.0,0.6893588,0.0,0.0,0.7244201,0.0,0.0,-0.001
24243000,0.0,0.689259,0.0,0.0,0.724515,0.0,0.0,-0.001
24291000,0.0,0.6892333,0.0,0.0,0.7245395,0.0,0.0,-0.001
24339000,0.0,0.68910044,0.0,0.0,0.7246658,0.0,0.0,-0.001
24387000,0.0,0.6889683,0.0,0.0,0.72479147,0.0,0.0,-0.001
24443000,0.0,0.6887598,0.0,0.0,0.7249896,0.0,0.0,-0.001
24483000,0.0,0.6886728,0.0,0.0,0.7250723,0.0,0.0,-0.001
24539000,0.0,0.68851954,0.0,0.0,0.7252179,0.0,0.0,-0.001
24587000,0.0,0.68862474,0.0,0.0,0.7251179,0.0,0.0,-0.001
24643000,0.0,0.6886289,0.0,0.0,0.7251139,0.0,0.0,-0.001
24683000,0.0,0.6884267,0.0,0.0,0.7253059,0.0,0.0,-0.001
24739000,0.0,0.6882474,0.0,0.0,0.7254761,0.0,0.0,-0.001
24787000,0.0,0.6881567,0.0,0.0,0.72556204,0.0,0.0,-0.001
24835000,0.0,0.6881424,0.0,0.0,0.7255757,0.0,0.0,-0.001
24883000,0.0,0.6878735,0.0,0.0,0.7258306,0.0,0.0,-0.001
24939000,0.0,0.6877039,0.0,0.0,0.7259913,0.0,0.0,-0.001
24987000,0.0,0.68746877,0.0,0.0,0.72621393,0.0,0.0,-0.001
25035000,0.0,0.6874543,0.0,0.0,0.7262277,0.0,0.0,-0.001
25091000,0.0,0.68711394,0.0,0.0,0.7265496,0.0,0.0,-0.001
25139000,0.0,0.68706244,0.0,0.0,0.7265984,0.0,0.0,-0.001
25187000,0.0,0.6867484,0.0,0.0,0.7268952,0.0,0.0,-0.001
25235000,0.0,0.68687403,0.0,0.0,0.7267765,0.0,0.0,-0.001
25283000,0.0,0.6865965,0.0,0.0,0.7270387,0.0,0.0,-0.001
25339000,0.0,0.6865907,0.0,0.0,0.7270443,0.0,0.0,-0.001
25387000,0.0,0.68636703,0.0,0.0,0.7272553,0.0,0.0,-0.001
25443000,0.0,0.6865109,0.0,0.0,0.7271195,0.0,0.0,-0.001
25483000,0.0,0.6864284,0.0,0.0,0.7271974,0.0,0.0,-0.001
25539000,0.0,0.6865529,0.0,0.0,0.7270799,0.0,0.0,-0.001
25587000,0.0,0.686596,0.0,0.0,0.7270392,0.0,0.0,-0.001
25643000,0.0,0.6862463,0.0,0.0,0.72736925,0.0,0.0,-0.001
25683000,0.0,0.6862216,0.0,0.0,0.72739255,0.0,0.0,-0.001
25739000,0.0,0.68621904,0.0,0.0,0.72739494,0.0,0.0,-0.001
25787000,0.0,0.6862181,0.0,0.0,0.7273959,0.0,0.0,-0.001
25835000,0.0,0.6862477,0.0,0.0,0.72736794,0.0,0.0,-0.001
25883000,0.0,0.68610257,0.0,0.0,0.72750485,0.0,0.0,-0.001
25939000,0.0,0.685933,0.0,0.0,0.7276647,0.0,0.0,-0.001
25987000,0.0,0.6859623,0.0,0.0,0.72763705,0.0,0.0,-0.001
26043000,0.0,0.6858973,0.0,0.0,0.7276984,0.0,0.0,-0.001
26091000,0.0,0.6858348,0.0,0.0,0.7277573,0.0,0.0,-0.001
26139000,0.0,0.6858546,0.0,0.0,0.7277386,0.0,0.0,-0.001
26187000,0.0,0.68598735,0.0,0.0,0.7276135,0.0,0.0,-0.001
26243000,0.0,0.6858856,0.0,0.0,0.72770935,0.0,0.0,-0.001
26291000,0.0,0.685757,0.0,0.0,0.7278306,0.0,0.0,-0.001
26339000,0.0,0.6859517,0.0,0.0,0.72764707,0.0,0.0,-0.001
26387000,0.0,0.68585765,0.0,0.0,0.7277357,0.0,0.0,-0.001
26443000,0.0,0.6856702,0.0,0.0,0.72791237,0.0,0.0,-0.001
26483000,0.0,0.685824,0.0,0.0,0.72776747,0.0,0.0,-0.001
26539000,0.0,0.6858706,0.0,0.0,0.72772354,0.0,0.0,-0.001
26587000,0.0,0.68571347,0.0,0.0,0.7278716,0.0,0.0,-0.001
26643000,0.0,0.68563825,0.0,0.0,0.7279424,0.0,0.0,-0.001
26691000,0.0,0.6855797,0.0,0.0,0.72799766,0.0,0.0,-0.001
26739000,0.0,0.6857103,0.0,0.0,0.7278746,0.0,0.0,-0.001
26787000,0.0,0.6855446,0.0,0.0,0.72803056,0.0,0.0,-0.001
26843000,0.0,0.6855229,0.0,0.0,0.72805107,0.0,0.0,-0.001
26891000,0.0,0.68549955,0.0,0.0,0.72807306,0.0,0.0,-0.001
26939000,0.0,0.68549496,0.0,0.0,0.7280774,0.0,0.0,-0.001
26987000,0.0,0.68541497,0.0,0.0,0.7281527,0.0,0.0,-0.001
27035000,0.0,0.68571126,0.0,0.0,0.7278737,0.0,0.0,-0.001
27091000,0.0,0.6855761,0.0,0.0,0.72800106,0.0,0.0,-0.001
27139000,0.0,0.6856679,0.0,0.0,0.72791463,0.0,0.0,-0.001
27187000,0.0,0.6857428,0.0,0.0,0.72784394,0.0,0.0,-0.001
27243000,0.0,0.68564963,0.0,0.0,0.7279317,0.0,0.0,-0.001
27291000,0.0,0.6854647,0.0,0.0,0.7281059,0.0,0.0,-0.001
27339000,0.0,0.68540275,0.0,0.0,0.72816414,0.0,0.0,-0.001
27387000,0.0,0.6856437,0.0,0.0,0.72793734,0.0,0.0,-0.001
27443000,0.0,0.68605816,0.0,0.0,0.7275467,0.0,0.0,-0.001
27491000,0.0,0.68613964,0.0,0.0,0.7274699,0.0,0.0,-0.001
27539000,0.0,0.68605024,0.0,0.0,0.72755414,0.0,0.0,-0.001
27587000,0.0,0.6861161,0.0,0.0,0.72749203,0.0,0.0,-0.001
27635000,0.0,0.6859771,0.0,0.0,0.72762316,0.0,0.0,-0.001
27691000,0.0,0.68596804,0.0,0.0,0.7276316,0.0,0.0,-0.001
27739000,0.0,0.6859502,0.0,0.0,0.7276485,0.0,0.0,-0.001
27787000,0.0,0.68620723,0.0,0.0,0.7274062,0.0,0.0,-0.001
27835000,0.0,0.68645126,0.0,0.0,0.7271759,0.0,0.0,-0.001
27883000,0.0,0.6865695,0.0,0.0,0.72706425,0.0,0.0,-0.001
27939000,0.0,0.6866486,0.0,0.0,0.7269895,0.0,0.0,-0.001
27987000,0.0,0.68647844,0.0,0.0,0.7271502,0.0,0.0,-0.001
28035000,0.0,0.6865268,0.0,0.0,0.7271046,0.0,0.0,-0.001
28091000,0.0,0.68656754,0.0,0.0,0.7270661,0.0,0.0,-0.001
28139000,0.0,0.6867363,0.0,0.0,0.72690666,0.0,0.0,-0.001
28187000,0.0,0.68674815,0.0,0.0,0.72689545,0.0,0.0,-0.001
28243000,0.0,0.6867396,0.0,0.0,0.7269035,0.0,0.0,-0.001
28291000,0.0,0.686908,0.0,0.0,0.72674435,0.0,0.0,-0.001
28339000,0.0,0.68713254,0.0,0.0,0.72653216,0.0,0.0,-0.001
28387000,0.0,0.6870656,0.0,0.0,0.7265954,0.0,0.0,-0.001
28443000,0.0,0.6872298,0.0,0.0,0.7264401,0.0,0.0,-0.001
28491000,0.0,0.68734556,0.0,0.0,0.7263306,0.0,0.0,-0.001
28539000,0.0,0.6875117,0.0,0.0,0.7261733,0.0,0.0,-0.001
28587000,0.0,0.6873511,0.0,0.0,0.72632533,0.0,0.0,-0.001
28643000,0.0,0.68733096,0.0,0.0,0.72634435,0.0,0.0,-0.001
28683000,0.0,0.68715906,0.0,0.0,0.72650707,0.0,0.0,-0.001
28739000,0.0,0.6872841,0.0,0.0,0.7263887,0.0,0.0,-0.001
28787000,0.0,0.6872514,0.0,0.0,0.72641975,0.0,0.0,-0.001
28843000,0.0,0.68736494,0.0,0.0,0.7263122,0.0,0.0,-0.001
28883000,0.0,0.68722475,0.0,0.0,0.7264449,0.0,0.0,-0.001
28939000,0.0,0.6872884,0.0,0.0,0.72638464,0.0,0.0,-0.001
28987000,0.0,0.687336,0.0,0.0,0.7263395,0.0,0.0,-0.001
29035000,0.0,0.687277,0.0,0.0,0.7263954,0.0,0.0,-0.001
29083000,0.0,0.6873306,0.0,0.0,0.7263448,0.0,0.0,-0.001
29139000,0.0,0.6874692,0.0,0.0,0.7262136,0.0,0.0,-0.001
29187000,0.0,0.6876026,0.0,0.0,0.7260872,0.0,0.0,-0.001
29243000,0.0,0.68777835,0.0,0.0,0.72592074,0.0,0.0,-0.001
29291000,0.0,0.6880886,0.0,0.0,0.72562665,0.0,0.0,-0.001
29339000,0.0,0.68811774,0.0,0.0,0.72559905,0.0,0.0,-0.001
29387000,0.0,0.68797874,0.0,0.0,0.72573084,0.0,0.0,-0.001
29443000,0.0,0.6878739,0.0,0.0,0.72583026,0.0,0.0,-0.001
29491000,0.0,0.68814254,0.0,0.0,0.72557557,0.0,0.0,-0.001
29539000,0.0,0.68841726,0.0,0.0,0.72531486,0.0,0.0,-0.001
29587000,0.0,0.68837005,0.0,0.0,0.72535974,0.0,0.0,-0.001
29635000,0.0,0.6883123,0.0,0.0,0.72541445,0.0,0.0,-0.001
29691000,0.0,0.68815446,0.0,0.0,0.72556424,0.0,0.0,-0.001
29739000,0.0,0.688071,0.0,0.0,0.7256434,0.0,0.0,-0.001
29787000,0.0,0.6880087,0.0,0.0,0.72570246,0.0,0.0,-0.001
29843000,0.0,0.6879043,0.0,0.0,0.7258014,0.0,0.0,-0.001
29883000,0.0,0.68774194,0.0,0.0,0.72595525,0.0,0.0,-0.001
29939000,0.0,0.68793386,0.0,0.0,0.72577333,0.0,0.0,-0.001
29987000,0.0,0.68820924,0.0,0.0,0.7255123,0.0,0.0,-0.001
30043000,0.0,0.6884904,0.0,0.0,0.7252455,0.0,0.0,-0.001
30083000,0.0,0.6885016,0.0,0.0,0.7252348,0.0,0.0,-0.001
30139000,0.0,0.6884928,0.0,0.0,0.72524315,0.0,0.0,-0.001
30187000,0.0,0.6885561,0.0,0.0,0.72518307,0.0,0.0,-0.001
30243000,0.0,0.68857944,0.0,0.0,0.72516096,0.0,0.0,-0.001
30291000,0.0,0.68866515,0.0,0.0,0.72507954,0.0,0.0,-0.001
30339000,0.0,0.68880326,0.0,0.0,0.7249483,0.0,0.0,-0.001
30387000,0.0,0.6888733,0.0,0.0,0.72488177,0.0,0.0,-0.001
30435000,0.0,0.68884856,0.0,0.0,0.7249054,0.0,0.0,-0.001
30491000,0.0,0.68879545,0.0,0.0,0.7249558,0.0,0.0,-0.001
30539000,0.0,0.68876755,0.0,0.0,0.72498226,0.0,0.0,-0.001
30587000,0.0,0.68891925,0.0,0.0,0.72483814,0.0,0.0,-0.001
30643000,0.0,0.68921286,0.0,0.0,0.724559,0.0,0.0,-0.001
30683000,0.0,0.6892036,0.0,0.0,0.72456783,0.0,0.0,-0.001
30739000,0.0,0.68926203,0.0,0.0,0.7245121,0.0,0.0,-0.001
30787000,0.0,0.689208,0.0,0.0,0.72456366,0.0,0.0,-0.001
30843000,0.0,0.689219,0.0,0.0,0.7245531,0.0,0.0,-0.001
30891000,0.0,0.6890697,0.0,0.0,0.7246951,0.0,0.0,-0.001
30939000,0.0,0.6891757,0.0,0.0,0.7245943,0.0,0.0,-0.001
30987000,0.0,0.68939525,0.0,0.0,0.7243855,0.0,0.0,-0.001
31043000,0.0,0.68944407,0.0,0.0,0.7243389,0.0,0.0,-0.001
31083000,0.0,0.6894296,0.0,0.0,0.7243527,0.0,0.0,-0.001
31139000,0.0,0.68931335,0.0,0.0,0.7244633,0.0,0.0,-0.001
31187000,0.0,0.6892238,0.0,0.0,0.7245485,0.0,0.0,-0.001
31243000,0.0,0.6892688,0.0,0.0,0.72450566,0.0,0.0,-0.001
31291000,0.0,0.68930125,0.0,0.0,0.72447485,0.0,0.0,-0.001
31339000,0.0,0.6893428,0.0,0.0,0.7244353,0.0,0.0,-0.001
31387000,0.0,0.6893453,0.0,0.0,0.7244329,0.0,0.0,-0.001
31435000,0.0,0.6895898,0.0,0.0,0.7242002,0.0,0.0,-0.001
31483000,0.0,0.68980086,0.0,0.0,0.7239992,0.0,0.0,-0.001
31539000,0.0,0.68998253,0.0,0.0,0.72382605,0.0,0.0,-0.001
31587000,0.0,0.6903314,0.0,0.0,0.72349334,0.0,0.0,-0.001
31635000,0.0,0.6904097,0.0,0.0,0.72341853,0.0,0.0,-0.001
31683000,0.0,0.6903546,0.0,0.0,0.7234713,0.0,0.0,-0.001
31739000,0.0,0.6904063,0.0,0.0,0.7234219,0.0,0.0,-0.001
31787000,0.0,0.6905422,0.0,0.0,0.7232921,0.0,0.0,-0.001
31835000,0.0,0.6906273,0.0,0.0,0.7232109,0.0,0.0,-0.001
31891000,0.0,0.69066036,0.0,0.0,0.72317934,0.0,0.0,-0.001
31939000,0.0,0.69105715,0.0,0.0,0.72280014,0.0,0.0,-0.001
31987000,0.0,0.6910017,0.0,0.0,0.7228532,0.0,0.0,-0.001
32043000,0.0,0.691138,0.0,0.0,0.72272277,0.0,0.0,-0.001
32091000,0.0,0.69126076,0.0,0.0,0.72260547,0.0,0.0,-0.001
32139000,0.0,0.69150764,0.0,0.0,0.72236913,0.0,0.0,-0.001
32187000,0.0,0.6915565,0.0,0.0,0.7223224,0.0,0.0,-0.001
32243000,0.0,0.69144195,0.0,0.0,0.722432,0.0,0.0,-0.001
32291000,0.0,0.6914305,0.0,0.0,0.7224429,0.0,0.0,-0.001
32339000,0.0,0.69153154,0.0,0.0,0.72234637,0.0,0.0,-0.001
32387000,0.0,0.69187444,0.0,0.0,0.7220179,0.0,0.0,-0.001
32435000,0.0,0.6920255,0.0,0.0,0.7218731,0.0,0.0,-0.001
32483000,0.0,0.6920916,0.0,0.0,0.7218097,0.0,0.0,-0.001
32539000,0.0,0.69237757,0.0,0.0,0.72153544,0.0,0.0,-0.001
32587000,0.0,0.6923872,0.0,0.0,0.7215261,0.0,0.0,-0.001
32643000,0.0,0.69237167,0.0,0.0,0.72154105,0.0,0.0,-0.001
32691000,0.0,0.69236696,0.0,0.0,0.7215456,0.0,0.0,-0.001
32739000,0.0,0.69250524,0.0,0.0,0.72141284,0.0,0.0,-0.001
32787000,0.0,0.69278693,0.0,0.0,0.72114235,0.0,0.0,-0.001
32835000,0.0,0.69287765,0.0,0.0,0.72105515,0.0,0.0,-0.001
32883000,0.0,0.69275105,0.0,0.0,0.7211768,0.0,0.0,-0.001
32939000,0.0,0.69266754,0.0,0.0,0.721257,0.0,0.0,-0.001
32987000,0.0,0.69268304,0.0,0.0,0.7212421,0.0,0.0,-0.001
33043000,0.0,0.6930692,0.0,0.0,0.72087103,0.0,0.0,-0.001
33083000,0.0,0.693042,0.0,0.0,0.7208973,0.0,0.0,-0.001
33139000,0.0,0.69327533,0.0,0.0,0.72067285,0.0,0.0,-0.001
33187000,0.0,0.6932524,0.0,0.0,0.7206949,0.0,0.0,-0.001
33243000,0.0,0.6935222,0.0,0.0,0.72043526,0.0,0.0,-0.001
33291000,0.0,0.69374776,0.0,0.0,0.72021806,0.0,0.0,-0.001
33339000,0.0,0.69399846,0.0,0.0,0.7199765,0.0,0.0,-0.001
33387000,0.0,0.6938951,0.0,0.0,0.7200761,0.0,0.0,-0.001
33443000,0.0,0.69381404,0.0,0.0,0.7201542,0.0,0.0,-0.001
33491000,0.0,0.6939657,0.0,0.0,0.7200081,0.0,0.0,-0.001
33539000,0.0,0.6940259,0.0,0.0,0.7199501,0.0,0.0,-0.001
33587000,0.0,0.6941194,0.0,0.0,0.7198599,0.0,0.0,-0.001
33635000,0.0,0.6943987,0.0,0.0,0.7195905,0.0,0.0,-0.001
33683000,0.0,0.69427896,0.0,0.0,0.719706,0.0,0.0,-0.001
33739000,0.0,0.69428897,0.0,0.0,0.7196964,0.0,0.0,-0.001
33787000,0.0,0.6943456,0.0,0.0,0.71964175,0.0,0.0,-0.001
33835000,0.0,0.69467974,0.0,0.0,0.71931916,0.0,0.0,-0.001
33891000,0.0,0.6944686,0.0,0.0,0.719523,0.0,0.0,-0.001
33939000,0.0,0.6944629,0.0,0.0,0.71952856,0.0,0.0,-0.001
33987000,0.0,0.6945345,0.0,0.0,0.71945953,0.0,0.0,-0.001
34035000,0.0,0.69467145,0.0,0.0,0.71932715,0.0,0.0,-0.001
34091000,0.0,0.6946496,0.0,0.0,0.7193483,0.0,0.0,-0.001
34139000,0.0,0.69467694,0.0,0.0,0.7193219,0.0,0.0,-0.001
34187000,0.0,0.6948892,0.0,0.0,0.7191168,0.0,0.0,-0.001
34243000,0.0,0.69477236,0.0,0.0,0.7192297,0.0,0.0,-0.001
34291000,0.0,0.6946923,0.0,0.0,0.719307,0.0,0.0,-0.001
34339000,0.0,0.69513845,0.0,0.0,0.71887594,0.0,0.0,-0.001
34387000,0.0,0.69520277,0.0,0.0,0.71881366,0.0,0.0,-0.001
34443000,0.0,0.69530517,0.0,0.0,0.71871465,0.0,0.0,-0.001
34491000,0.0,0.6952189,0.0,0.0,0.71879816,0.0,0.0,-0.001
34539000,0.0,0.6955046,0.0,0.0,0.71852165,0.0,0.0,-0.001
34587000,0.0,0.6956762,0.0,0.0,0.7183555,0.0,0.0,-0.001
34643000,0.0,0.69578534,0.0,0.0,0.71824986,0.0,0.0,-0.001
34683000,0.0,0.6958707,0.0,0.0,0.7181671,0.0,0.0,-0.001
34739000,0.0,0.69573104,0.0,0.0,0.7183024,0.0,0.0,-0.001
34787000,0.0,0.69551283,0.0,0.0,0.71851367,0.0,0.0,-0.001
34835000,0.0,0.6954713,0.0,0.0,0.71855384,0.0,0.0,-0.001
34883000,0.0,0.6955302,0.0,0.0,0.7184969,0.0,0.0,-0.001
34939000,0.0,0.6954755,0.0,0.0,0.71854985,0.0,0.0,-0.001
34987000,0.0,0.6956461,0.0,0.0,0.7183847,0.0,0.0,-0.001
35035000,0.0,0.6954088,0.0,0.0,0.7186144,0.0,0.0,-0.001
35083000,0.0,0.69544363,0.0,0.0,0.71858066,0.0,0.0,-0.001
35139000,0.0,0.6954577,0.0,0.0,0.718567,0.0,0.0,-0.001
35187000,0.0,0.6954573,0.0,0.0,0.71856743,0.0,0.0,-0.001
35243000,0.0,0.6956262,0.0,0.0,0.71840394,0.0,0.0,-0.001
35291000,0.0,0.69579446,0.0,0.0,0.718241,0.0,0.0,-0.001
35339000,0.0,0.6958571,0.0,0.0,0.7181803,0.0,0.0,-0.001
35387000,0.0,0.6959746,0.0,0.0,0.71806645,0.0,0.0,-0.001
35435000,0.0,0.6962859,0.0,0.0,0.71776456,0.0,0.0,-0.001
35491000,0.0,0.6963197,0.0,0.0,0.7177318,0.0,0.0,-0.001
35539000,0.0,0.6964193,0.0,0.0,0.71763515,0.0,0.0,-0.001
35587000,0.0,0.6965252,0.0,0.0,0.71753234,0.0,0.0,-0.001
35643000,0.0,0.6964957,0.0,0.0,0.71756107,0.0,0.0,-0.001
35683000,0.0,0.6966307,0.0,0.0,0.71742994,0.0,0.0,-0.001
35739000,0.0,0.6967665,0.0,0.0,0.71729803,0.0,0.0,-0.001
35787000,0.0,0.696788,0.0,0.0,0.7172771,0.0,0.0,-0.001
35835000,0.0,0.69674635,0.0,0.0,0.71731764,0.0,0.0,-0.001
35891000,0.0,0.6967809,0.0,0.0,0.717284,0.0,0.0,-0.001
35939000,0.0,0.6969386,0.0,0.0,0.7171309,0.0,0.0,-0.001
35987000,0.0,0.69675297,0.0,0.0,0.71731126,0.0,0.0,-0.001
36035000,0.0,0.6966256,0.0,0.0,0.7174349,0.0,0.0,-0.001
36091000,0.0,0.69664925,0.0,0.0,0.7174119,0.0,0.0,-0.001
36139000,0.0,0.6968274,0.0,0.0,0.7172388,0.0,0.0,-0.001
36187000,0.0,0.6969139,0.0,0.0,0.7171549,0.0,0.0,-0.001
36235000,0.0,0.69693357,0.0,0.0,0.7171357,0.0,0.0,-0.001
36283000,0.0,0.6969621,0.0,0.0,0.71710795,0.0,0.0,-0.001
36339000,0.0,0.6970769,0.0,0.0,0.7169964,0.0,0.0,-0.001
36387000,0.0,0.6971415,0.0,0.0,0.7169335,0.0,0.0,-0.001
36443000,0.0,0.6968878,0.0,0.0,0.7171802,0.0,0.0,-0.001
36491000,0.0,0.6967989,0.0,0.0,0.71726656,0.0,0.0,-0.001
36539000,0.0,0.69719535,0.0,0.0,0.71688116,0.0,0.0,-0.001
36587000,0.0,0.69749355,0.0,0.0,0.71659106,0.0,0.0,-0.001
36635000,0.0,0.697756,0.0,0.0,0.71633554,0.0,0.0,-0.001
36691000,0.0,0.69767404,0.0,0.0,0.71641535,0.0,0.0,-0.001
36739000,0.0,0.69762015,0.0,0.0,0.7164678,0.0,0.0,-0.001
36787000,0.0,0.6976513,0.0,0.0,0.7164374,0.0,0.0,-0.001
36843000,0.0,0.6975723,0.0,0.0,0.71651447,0.0,0.0,-0.001
36883000,0.0,0.69748306,0.0,0.0,0.71660125,0.0,0.0,-0.001
36939000,0.0,0.69731826,0.0,0.0,0.7167617,0.0,0.0,-0.001
36987000,0.0,0.69736266,0.0,0.0,0.7167185,0.0,0.0,-0.001
37043000,0.0,0.69724923,0.0,0.0,0.7168289,0.0,0.0,-0.001
37091000,0.0,0.696834,0.0,0.0,0.7172324,0.0,0.0,-0.001
37139000,0.0,0.6967999,0.0,0.0,0.7172656,0.0,0.0,-0.001
37187000,0.0,0.6965698,0.0,0.0,0.71748906,0.0,0.0,-0.001
37243000,0.0,0.6962627,0.0,0.0,0.717787,0.0,0.0,-0.001
37283000,0.0,0.6962659,0.0,0.0,0.717784,0.0,0.0,-0.001
37339000,0.0,0.69619465,0.0,0.0,0.71785307,0.0,0.0,-0.001
37387000,0.0,0.6960243,0.0,0.0,0.7180183,0.0,0.0,-0.001
37435000,0.0,0.69603294,0.0,0.0,0.7180098,0.0,0.0,-0.001
37491000,0.0,0.69580144,0.0,0.0,0.71823424,0.0,0.0,-0.001
37539000,0.0,0.6960047,0.0,0.0,0.71803725,0.0,0.0,-0.001
37587000,0.0,0.6958394,0.0,0.0,0.71819746,0.0,0.0,-0.001
37643000,0.0,0.6957244,0.0,0.0,0.7183088,0.0,0.0,-0.001
37691000,0.0,0.6956442,0.0,0.0,0.7183865,0.0,0.0,-0.001
37739000,0.0,0.6958164,0.0,0.0,0.71821976,0.0,0.0,-0.001
37787000,0.0,0.69584787,0.0,0.0,0.71818924,0.0,0.0,-0.001
37843000,0.0,0.69582254,0.0,0.0,0.71821386,0.0,0.0,-0.001
37891000,0.0,0.6956692,0.0,0.0,0.7183624,0.0,0.0,-0.001
37939000,0.0,0.695352,0.0,0.0,0.71866935,0.0,0.0,-0.001
37987000,0.0,0.6952772,0.0,0.0,0.71874166,0.0,0.0,-0.001
38043000,0.0,0.69495714,0.0,0.0,0.71905124,0.0,0.0,-0.001
38091000,0.0,0.694869,0.0,0.0,0.71913636,0.0,0.0,-0.001
38139000,0.0,0.6947058,0.0,0.0,0.719294,0.0,0.0,-0.001
38187000,0.0,0.694571,0.0,0.0,0.7194242,0.0,0.0,-0.001
38235000,0.0,0.69443506,0.0,0.0,0.7195554,0.0,0.0,-0.001
38291000,0.0,0.69446194,0.0,0.0,0.71952945,0.0,0.0,-0.001
38339000,0.0,0.69438535,0.0,0.0,0.7196034,0.0,0.0,-0.001
38387000,0.0,0.694388,0.0,0.0,0.71960086,0.0,0.0,-0.001
38443000,0.0,0.6941295,0.0,0.0,0.7198501,0.0,0.0,-0.001
38491000,0.0,0.6938786,0.0,0.0,0.720092,0.0,0.0,-0.001
38539000,0.0,0.6934063,0.0,0.0,0.72054684,0.0,0.0,-0.001
38587000,0.0,0.69309056,0.0,0.0,0.7208505,0.0,0.0,-0.001
38643000,0.0,0.69315094,0.0,0.0,0.7207925,0.0,0.0,-0.001
38683000,0.0,0.6927318,0.0,0.0,0.72119534,0.0,0.0,-0.001
38739000,0.0,0.6924117,0.0,0.0,0.7215026,0.0,0.0,-0.001
38787000,0.0,0.69224167,0.0,0.0,0.7216658,0.0,0.0,-0.001
38843000,0.0,0.6923449,0.0,0.0,0.72156674,0.0,0.0,-0.001
38891000,0.0,0.6922848,0.0,0.0,0.7216244,0.0,0.0,-0.001
38939000,0.0,0.69200796,0.0,0.0,0.7218899,0.0,0.0,-0.001
38987000,0.0,0.6918555,0.0,0.0,0.72203606,0.0,0.0,-0.001
39035000,0.0,0.69152457,0.0,0.0,0.7223529,0.0,0.0,-0.001
39091000,0.0,0.69139177,0.0,0.0,0.72248006,0.0,0.0,-0.001
39139000,0.0,0.69142056,0.0,0.0,0.7224525,0.0,0.0,-0.001
39187000,0.0,0.69153255,0.0,0.0,0.72234535,0.0,0.0,-0.001
39235000,0.0,0.6914737,0.0,0.0,0.7224016,0.0,0.0,-0.001
39291000,0.0,0.69147635,0.0,0.0,0.7223992,0.0,0.0,-0.001
39339000,0.0,0.69132704,0.0,0.0,0.722542,0.0,0.0,-0.001
39387000,0.0,0.6912938,0.0,0.0,0.7225739,0.0,0.0,-0.001
39443000,0.0,0.6911696,0.0,0.0,0.72269267,0.0,0.0,-0.001
39491000,0.0,0.6909569,0.0,0.0,0.722896,0.0,0.0,-0.001
39539000,0.0,0.69094115,0.0,0.0,0.722911,0.0,0.0,-0.001
39587000,0.0,0.6907068,0.0,0.0,0.7231349,0.0,0.0,-0.001
39643000,0.0,0.6907274,0.0,0.0,0.7231153,0.0,0.0,-0.001
39683000,0.0,0.6907583,0.0,0.0,0.72308576,0.0,0.0,-0.001
39739000,0.0,0.69075847,0.0,0.0,0.72308564,0.0,0.0,-0.001
39787000,0.0,0.6906829,0.0,0.0,0.7231578,0.0,0.0,-0.001
39843000,0.0,0.6906302,0.0,0.0,0.72320807,0.0,0.0,-0.001
39891000,0.0,0.6904082,0.0,0.0,0.7234201,0.0,0.0,-0.001
39939000,0.0,0.6903063,0.0,0.0,0.7235173,0.0,0.0,-0.001
39987000,0.0,0.6898905,0.0,0.0,0.7239137,0.0,0.0,-0.001
40035000,0.0,0.6897563,0.0,0.0,0.72404164,0.0,0.0,-0.001
40083000,0.0,0.6897572,0.0,0.0,0.72404075,0.0,0.0,-0.001
40139000,0.0,0.68972063,0.0,0.0,0.7240756,0.0,0.0,-0.001
40187000,0.0,0.6893626,0.0,0.0,0.7244165,0.0,0.0,-0.001
40235000,0.0,0.689279,0.0,0.0,0.724496,0.0,0.0,-0.001
40291000,0.0,0.68863666,0.0,0.0,0.72510666,0.0,0.0,-0.001
40339000,0.0,0.6881895,0.0,0.0,0.725531,0.0,0.0,-0.001
40387000,0.0,0.6881281,0.0,0.0,0.7255892,0.0,0.0,-0.001
40435000,0.0,0.68816453,0.0,0.0,0.72555465,0.0,0.0,-0.001
40491000,0.0,0.68822825,0.0,0.0,0.7254942,0.0,0.0,-0.001
40539000,0.0,0.6880025,0.0,0.0,0.7257083,0.0,0.0,-0.001
40587000,0.0,0.68788266,0.0,0.0,0.7258219,0.0,0.0,-0.001
40643000,0.0,0.68766195,0.0,0.0,0.726031,0.0,0.0,-0.001
40691000,0.0,0.687285,0.0,0.0,0.7263878,0.0,0.0,-0.001
40739000,0.0,0.68695164,0.0,0.0,0.72670317,0.0,0.0,-0.001
40787000,0.0,0.68671036,0.0,0.0,0.7269311,0.0,0.0,-0.001
40843000,0.0,0.68667054,0.0,0.0,0.72696877,0.0,0.0,-0.001
40891000,0.0,0.68646795,0.0,0.0,0.7271601,0.0,0.0,-0.001
40939000,0.0,0.686067,0.0,0.0,0.7275384,0.0,0.0,-0.001
40987000,0.0,0.68559426,0.0,0.0,0.7279839,0.0,0.0,-0.001
41043000,0.0,0.6854172,0.0,0.0,0.7281507,0.0,0.0,-0.001
41083000,0.0,0.6851809,0.0,0.0,0.72837305,0.0,0.0,-0.001
41139000,0.0,0.6849216,0.0,0.0,0.7286167,0.0,0.0,-0.001
41187000,0.0,0.68460673,0.0,0.0,0.72891265,0.0,0.0,-0.001
41243000,0.0,0.6844243,0.0,0.0,0.72908396,0.0,0.0,-0.001
41283000,0.0,0.6846698,0.0,0.0,0.7288534,0.0,0.0,-0.001
41339000,0.0,0.6844733,0.0,0.0,0.72903806,0.0,0.0,-0.001
41387000,0.0,0.68403316,0.0,0.0,0.72945094,0.0,0.0,-0.001
41435000,0.0,0.68369454,0.0,0.0,0.72976834,0.0,0.0,-0.001
41483000,0.0,0.6834813,0.0,0.0,0.72996813,0.0,0.0,-0.001
41539000,0.0,0.68334204,0.0,0.0,0.7300984,0.0,0.0,-0.001
41587000,0.0,0.68295664,0.0,0.0,0.7304589,0.0,0.0,-0.001
41643000,0.0,0.682815,0.0,0.0,0.7305913,0.0,0.0,-0.001
41691000,0.0,0.6826337,0.0,0.0,0.73076075,0.0,0.0,-0.001
41739000,0.0,0.6823309,0.0,0.0,0.7310436,0.0,0.0,-0.001
41787000,0.0,0.68220395,0.0,0.0,0.73116195,0.0,0.0,-0.001
41835000,0.0,0.68207043,0.0,0.0,0.7312865,0.0,0.0,-0.001
41883000,0.0,0.68191016,0.0,0.0,0.73143595,0.0,0.0,-0.001
41939000,0.0,0.6816782,0.0,0.0,0.7316522,0.0,0.0,-0.001
41987000,0.0,0.6814519,0.0,0.0,0.7318629,0.0,0.0,-0.001
42035000,0.0,0.68138933,0.0,0.0,0.73192114,0.0,0.0,-0.001
42091000,0.0,0.6811602,0.0,0.0,0.7321344,0.0,0.0,-0.001
42139000,0.0,0.6809426,0.0,0.0,0.7323369,0.0,0.0,-0.001
42187000,0.0,0.6807947,0.0,0.0,0.73247427,0.0,0.0,-0.001
42235000,0.0,0.68055403,0.0,0.0,0.73269784,0.0,0.0,-0.001
42291000,0.0,0.68022496,0.0,0.0,0.73300344,0.0,0.0,-0.001
42339000,0.0,0.6802118,0.0,0.0,0.7330156,0.0,0.0,-0.001
42387000,0.0,0.68031406,0.0,0.0,0.7329207,0.0,0.0,-0.001
42435000,0.0,0.6804037,0.0,0.0,0.73283756,0.0,0.0,-0.001
42491000,0.0,0.6802558,0.0,0.0,0.7329748,0.0,0.0,-0.001
42539000,0.0,0.6801087,0.0,0.0,0.7331113,0.0,0.0,-0.001
42587000,0.0,0.68008333,0.0,0.0,0.7331348,0.0,0.0,-0.001
42635000,0.0,0.67995423,0.0,0.0,0.7332547,0.0,0.0,-0.001
42683000,0.0,0.68009514,0.0,0.0,0.7331239,0.0,0.0,-0.001
42739000,0.0,0.67986363,0.0,0.0,0.73333865,0.0,0.0,-0.001
42787000,0.0,0.6799268,0.0,0.0,0.73328,0.0,0.0,-0.001
42843000,0.0,0.6799158,0.0,0.0,0.7332902,0.0,0.0,-0.001
42883000,0.0,0.6797496,0.0,0.0,0.7334443,0.0,0.0,-0.001
42939000,0.0,0.6794969,0.0,0.0,0.73367834,0.0,0.0,-0.001
42987000,0.0,0.6793554,0.0,0.0,0.73380953,0.0,0.0,-0.001
43043000,0.0,0.67928475,0.0,0.0,0.73387486,0.0,0.0,-0.001
43091000,0.0,0.6792619,0.0,0.0,0.733896,0.0,0.0,-0.001
43139000,0.0,0.67916685,0.0,0.0,0.733984,0.0,0.0,-0.001
43187000,0.0,0.6791148,0.0,0.0,0.73403203,0.0,0.0,-0.001
43235000,0.0,0.67915505,0.0,0.0,0.73399484,0.0,0.0,-0.001
43283000,0.0,0.67895335,0.0,0.0,0.73418146,0.0,0.0,-0.001
43339000,0.0,0.6789831,0.0,0.0,0.734154,0.0,0.0,-0.001
43387000,0.0,0.6787825,0.0,0.0,0.73433936,0.0,0.0,-0.001
43443000,0.0,0.6787002,0.0,0.0,0.7344155,0.0,0.0,-0.001
43491000,0.0,0.67862743,0.0,0.0,0.73448277,0.0,0.0,-0.001
43539000,0.0,0.67856824,0.0,0.0,0.73453736,0.0,0.0,-0.001
43587000,0.0,0.67862624,0.0,0.0,0.7344838,0.0,0.0,-0.001
43635000,0.0,0.67861867,0.0,0.0,0.7344908,0.0,0.0,-0.001
43691000,0.0,0.6785634,0.0,0.0,0.73454183,0.0,0.0,-0.001
43739000,0.0,0.6783474,0.0,0.0,0.73474133,0.0,0.0,-0.001
43787000,0.0,0.6781119,0.0,0.0,0.73495865,0.0,0.0,-0.001
43835000,0.0,0.67787784,0.0,0.0,0.7351746,0.0,0.0,-0.001
43883000,0.0,0.677876,0.0,0.0,0.7351762,0.0,0.0,-0.001
43939000,0.0,0.6779663,0.0,0.0,0.73509294,0.0,0.0,-0.001
43987000,0.0,0.6777604,0.0,0.0,0.73528284,0.0,0.0,-0.001
44035000,0.0,0.6774492,0.0,0.0,0.73556954,0.0,0.0,-0.001
44091000,0.0,0.6774059,0.0,0.0,0.7356095,0.0,0.0,-0.001
44139000,0.0,0.677168,0.0,0.0,0.7358284,0.0,0.0,-0.001
44187000,0.0,0.67722774,0.0,0.0,0.73577356,0.0,0.0,-0.001
44243000,0.0,0.6774214,0.0,0.0,0.73559517,0.0,0.0,-0.001
44291000,0.0,0.6774893,0.0,0.0,0.73553264,0.0,0.0,-0.001
44339000,0.0,0.67725986,0.0,0.0,0.7357439,0.0,0.0,-0.001
44387000,0.0,0.677283,0.0,0.0,0.7357226,0.0,0.0,-0.001
44435000,0.0,0.67710966,0.0,0.0,0.7358821,0.0,0.0,-0.001
44483000,0.0,0.6773779,0.0,0.0,0.7356353,0.0,0.0,-0.001
44539000,0.0,0.6775139,0.0,0.0,0.73550993,0.0,0.0,-0.001
44587000,0.0,0.6776822,0.0,0.0,0.7353549,0.0,0.0,-0.001
44635000,0.0,0.67775095,0.0,0.0,0.73529154,0.0,0.0,-0.001
44691000,0.0,0.6777207,0.0,0.0,0.73531944,0.0,0.0,-0.001
44739000,0.0,0.67801845,0.0,0.0,0.73504496,0.0,0.0,-0.001
44787000,0.0,0.6780156,0.0,0.0,0.7350476,0.0,0.0,-0.001
44835000,0.0,0.6781893,0.0,0.0,0.7348873,0.0,0.0,-0.001
44891000,0.0,0.67791563,0.0,0.0,0.7351398,0.0,0.0,-0.001
44939000,0.0,0.67767406,0.0,0.0,0.73536247,0.0,0.0,-0.001
44987000,0.0,0.677652,0.0,0.0,0.7353828,0.0,0.0,-0.001
45035000,0.0,0.6778805,0.0,0.0,0.7351721,0.0,0.0,-0.001
45083000,0.0,0.67799616,0.0,0.0,0.7350655,0.0,0.0,-0.001
45139000,0.0,0.67793673,0.0,0.0,0.73512036,0.0,0.0,-0.001
45187000,0.0,0.6781208,0.0,0.0,0.7349504,0.0,0.0,-0.001
45243000,0.0,0.6781116,0.0,0.0,0.734959,0.0,0.0,-0.001
45291000,0.0,0.6780769,0.0,0.0,0.73499095,0.0,0.0,-0.001
45339000,0.0,0.6781266,0.0,0.0,0.7349451,0.0,0.0,-0.001
45387000,0.0,0.67811173,0.0,0.0,0.7349589,0.0,0.0,-0.001
45443000,0.0,0.6780538,0.0,0.0,0.7350123,0.0,0.0,-0.001
45483000,0.0,0.67823404,0.0,0.0,0.73484606,0.0,0.0,-0.001
45539000,0.0,0.67811227,0.0,0.0,0.73495835,0.0,0.0,-0.001
45587000,0.0,0.6783749,0.0,0.0,0.73471594,0.0,0.0,-0.001
45643000,0.0,0.67849225,0.0,0.0,0.7346076,0.0,0.0,-0.001
45691000,0.0,0.67872596,0.0,0.0,0.7343917,0.0,0.0,-0.001
45739000,0.0,0.6789041,0.0,0.0,0.734227,0.0,0.0,-0.001
45787000,0.0,0.678892,0.0,0.0,0.7342382,0.0,0.0,-0.001
45843000,0.0,0.67898357,0.0,0.0,0.73415345,0.0,0.0,-0.001
45883000,0.0,0.6791747,0.0,0.0,0.7339766,0.0,0.0,-0.001
45939000,0.0,0.679417,0.0,0.0,0.7337525,0.0,0.0,-0.001
45987000,0.0,0.6794684,0.0,0.0,0.73370486,0.0,0.0,-0.001
46043000,0.0,0.6794883,0.0,0.0,0.7336863,0.0,0.0,-0.001
46083000,0.0,0.67992264,0.0,0.0,0.7332839,0.0,0.0,-0.001
46139000,0.0,0.6800881,0.0,0.0,0.7331304,0.0,0.0,-0.001
46187000,0.0,0.68025523,0.0,0.0,0.7329753,0.0,0.0,-0.001
46235000,0.0,0.68046373,0.0,0.0,0.73278177,0.0,0.0,-0.001
46291000,0.0,0.6805917,0.0,0.0,0.7326629,0.0,0.0,-0.001
46339000,0.0,0.6809501,0.0,0.0,0.7323298,0.0,0.0,-0.001
46387000,0.0,0.68131113,0.0,0.0,0.731994,0.0,0.0,-0.001
46443000,0.0,0.68146175,0.0,0.0,0.7318537,0.0,0.0,-0.001
46491000,0.0,0.68172663,0.0,0.0,0.7316071,0.0,0.0,-0.001
46539000,0.0,0.6818624,0.0,0.0,0.7314805,0.0,0.0,-0.001
46587000,0.0,0.68193465,0.0,0.0,0.73141307,0.0,0.0,-0.001
46635000,0.0,0.6818902,0.0,0.0,0.7314546,0.0,0.0,-0.001
46691000,0.0,0.68192357,0.0,0.0,0.73142344,0.0,0.0,-0.001
46739000,0.0,0.68201137,0.0,0.0,0.73134166,0.0,0.0,-0.001
46787000,0.0,0.6820481,0.0,0.0,0.7313074,0.0,0.0,-0.001
46835000,0.0,0.68222207,0.0,0.0,0.731145,0.0,0.0,-0.001
46891000,0.0,0.68260455,0.0,0.0,0.730788,0.0,0.0,-0.001
46939000,0.0,0.68281406,0.0,0.0,0.7305922,0.0,0.0,-0.001
46987000,0.0,0.6830299,0.0,0.0,0.7303905,0.0,0.0,-0.001
47035000,0.0,0.68335766,0.0,0.0,0.7300838,0.0,0.0,-0.001
47091000,0.0,0.68363893,0.0,0.0,0.7298204,0.0,0.0,-0.001
47139000,0.0,0.68383753,0.0,0.0,0.72963434,0.0,0.0,-0.001
47187000,0.0,0.68422955,0.0,0.0,0.7292667,0.0,0.0,-0.001
47243000,0.0,0.68470633,0.0,0.0,0.7288191,0.0,0.0,-0.001
47283000,0.0,0.6851455,0.0,0.0,0.72840625,0.0,0.0,-0.001
47339000,0.0,0.68524766,0.0,0.0,0.7283101,0.0,0.0,-0.001
47387000,0.0,0.6854865,0.0,0.0,0.72808534,0.0,0.0,-0.001
47435000,0.0,0.68583375,0.0,0.0,0.7277582,0.0,0.0,-0.001
47483000,0.0,0.68598276,0.0,0.0,0.72761786,0.0,0.0,-0.001
47539000,0.0,0.68620807,0.0,0.0,0.72740537,0.0,0.0,-0.001
47587000,0.0,0.6865443,0.0,0.0,0.727088,0.0,0.0,-0.001
47643000,0.0,0.68690497,0.0,0.0,0.7267472,0.0,0.0,-0.001
47683000,0.0,0.6870718,0.0,0.0,0.72658956,0.0,0.0,-0.001
47739000,0.0,0.6874597,0.0,0.0,0.72622263,0.0,0.0,-0.001
47787000,0.0,0.68775725,0.0,0.0,0.72594076,0.0,0.0,-0.001
47843000,0.0,0.6877899,0.0,0.0,0.72590977,0.0,0.0,-0.001
47883000,0.0,0.6877703,0.0,0.0,0.72592837,0.0,0.0,-0.001
47939000,0.0,0.687815,0.0,0.0,0.725886,0.0,0.0,-0.001
47987000,0.0,0.68798923,0.0,0.0,0.7257209,0.0,0.0,-0.001
48043000,0.0,0.6881852,0.0,0.0,0.7255351,0.0,0.0,-0.001
48083000,0.0,0.6882748,0.0,0.0,0.72545004,0.0,0.0,-0.001
48139000,0.0,0.6886888,0.0,0.0,0.72505707,0.0,0.0,-0.001
48187000,0.0,0.6889415,0.0,0.0,0.724817,0.0,0.0,-0.001
48235000,0.0,0.6889453,0.0,0.0,0.72481334,0.0,0.0,-0.001
48283000,0.0,0.68895453,0.0,0.0,0.7248046,0.0,0.0,-0.001
48339000,0.0,0.68947303,0.0,0.0,0.72431135,0.0,0.0,-0.001
48387000,0.0,0.6895663,0.0,0.0,0.72422254,0.0,0.0,-0.001
48435000,0.0,0.68975824,0.0,0.0,0.72403973,0.0,0.0,-0.001
48491000,0.0,0.68978643,0.0,0.0,0.724013,0.0,0.0,-0.001
48539000,0.0,0.68979824,0.0,0.0,0.72400165,0.0,0.0,-0.001
48587000,0.0,0.6899558,0.0,0.0,0.72385156,0.0,0.0,-0.001
48643000,0.0,0.69000876,0.0,0.0,0.7238011,0.0,0.0,-0.001
48683000,0.0,0.69016665,0.0,0.0,0.72365046,0.0,0.0,-0.001
48739000,0.0,0.69034386,0.0,0.0,0.7234814,0.0,0.0,-0.001
48787000,0.0,0.6907087,0.0,0.0,0.7231331,0.0,0.0,-0.001
48835000,0.0,0.691027,0.0,0.0,0.722829,0.0,0.0,-0.001
48883000,0.0,0.6914179,0.0,0.0,0.722455,0.0,0.0,-0.001
48939000,0.0,0.69160736,0.0,0.0,0.72227365,0.0,0.0,-0.001
48987000,0.0,0.69189847,0.0,0.0,0.7219949,0.0,0.0,-0.001
49043000,0.0,0.6920524,0.0,0.0,0.72184736,0.0,0.0,-0.001
49083000,0.0,0.6918912,0.0,0.0,0.7220018,0.0,0.0,-0.001
49139000,0.0,0.69173825,0.0,0.0,0.7221483,0.0,0.0,-0.001
49187000,0.0,0.6918332,0.0,0.0,0.7220574,0.0,0.0,-0.001
49243000,0.0,0.6918623,0.0,0.0,0.7220295,0.0,0.0,-0.001
49291000,0.0,0.69194716,0.0,0.0,0.7219482,0.0,0.0,-0.001
49339000,0.0,0.69225,0.0,0.0,0.72165775,0.0,0.0,-0.001
49387000,0.0,0.69222474,0.0,0.0,0.721682,0.0,0.0,-0.001
49435000,0.0,0.6922414,0.0,0.0,0.72166604,0.0,0.0,-0.001
49491000,0.0,0.6923552,0.0,0.0,0.7215569,0.0,0.0,-0.001
49539000,0.0,0.69250625,0.0,0.0,0.7214119,0.0,0.0,-0.001
49587000,0.0,0.6928039,0.0,0.0,0.72112596,0.0,0.0,-0.001
49643000,0.0,0.69308966,0.0,0.0,0.72085136,0.0,0.0,-0.001
49683000,0.0,0.69344544,0.0,0.0,0.7205092,0.0,0.0,-0.001
49739000,0.0,0.693538,0.0,0.0,0.72042,0.0,0.0,-0.001
49787000,0.0,0.6938678,0.0,0.0,0.72010237,0.0,0.0,-0.001
49835000,0.0,0.69420135,0.0,0.0,0.719781,0.0,0.0,-0.001
49883000,0.0,0.6941653,0.0,0.0,0.7198156,0.0,0.0,-0.001
49939000,0.0,0.6941711,0.0,0.0,0.7198101,0.0,0.0,-0.001
49987000,0.0,0.69432247,0.0,0.0,0.71966404,0.0,0.0,-0.001
50035000,0.0,0.69449615,0.0,0.0,0.7194964,0.0,0.0,-0.001
50083000,0.0,0.6947421,0.0,0.0,0.71925896,0.0,0.0,-0.001
50139000,0.0,0.6950223,0.0,0.0,0.71898824,0.0,0.0,-0.001
50187000,0.0,0.6950813,0.0,0.0,0.71893114,0.0,0.0,-0.001
50243000,0.0,0.69526297,0.0,0.0,0.7187554,0.0,0.0,-0.001
50291000,0.0,0.69547105,0.0,0.0,0.7185541,0.0,0.0,-0.001
50339000,0.0,0.69566214,0.0,0.0,0.7183691,0.0,0.0,-0.001
50387000,0.0,0.6958612,0.0,0.0,0.71817625,0.0,0.0,-0.001
50443000,0.0,0.6958176,0.0,0.0,0.7182185,0.0,0.0,-0.001
50483000,0.0,0.6960552,0.0,0.0,0.71798825,0.0,0.0,-0.001
50539000,0.0,0.69619656,0.0,0.0,0.7178512,0.0,0.0,-0.001
50587000,0.0,0.6964857,0.0,0.0,0.7175708,0.0,0.0,-0.001
50643000,0.0,0.6967285,0.0,0.0,0.7173349,0.0,0.0,-0.001
50691000,0.0,0.6968025,0.0,0.0,0.7172631,0.0,0.0,-0.001
50739000,0.0,0.6969748,0.0,0.0,0.7170957,0.0,0.0,-0.001
50787000,0.0,0.6972687,0.0,0.0,0.7168098,0.0,0.0,-0.001
50843000,0.0,0.6973737,0.0,0.0,0.7167077,0.0,0.0,-0.001
50891000,0.0,0.6974833,0.0,0.0,0.716601,0.0,0.0,-0.001
50939000,0.0,0.6975228,0.0,0.0,0.71656257,0.0,0.0,-0.001
50987000,0.0,0.69762933,0.0,0.0,0.7164589,0.0,0.0,-0.001
51043000,0.0,0.69767046,0.0,0.0,0.71641886,0.0,0.0,-0.001
51091000,0.0,0.697626,0.0,0.0,0.7164622,0.0,0.0,-0.001
51139000,0.0,0.69775605,0.0,0.0,0.7163355,0.0,0.0,-0.001
51187000,0.0,0.6982164,0.0,0.0,0.7158869,0.0,0.0,-0.001
51243000,0.0,0.69838697,0.0,0.0,0.71572036,0.0,0.0,-0.001
51291000,0.0,0.6985973,0.0,0.0,0.71551514,0.0,0.0,-0.001
51339000,0.0,0.6989427,0.0,0.0,0.71517766,0.0,0.0,-0.001
51387000,0.0,0.69881946,0.0,0.0,0.7152982,0.0,0.0,-0.001
51443000,0.0,0.6989269,0.0,0.0,0.7151931,0.0,0.0,-0.001
51483000,0.0,0.69890153,0.0,0.0,0.715218,0.0,0.0,-0.001
51539000,0.0,0.69920605,0.0,0.0,0.71492016,0.0,0.0,-0.001
51587000,0.0,0.69931847,0.0,0.0,0.71481025,0.0,0.0,-0.001
51643000,0.0,0.6996129,0.0,0.0,0.71452206,0.0,0.0,-0.001
51691000,0.0,0.6996448,0.0,0.0,0.71449083,0.0,0.0,-0.001
51739000,0.0,0.69978666,0.0,0.0,0.7143519,0.0,0.0,-0.001
51787000,0.0,0.7000043,0.0,0.0,0.7141386,0.0,0.0,-0.001
51843000,0.0,0.6999538,0.0,0.0,0.71418816,0.0,0.0,-0.001
51891000,0.0,0.6997688,0.0,0.0,0.7143695,0.0,0.0,-0.001
51939000,0.0,0.7000467,0.0,0.0,0.714097,0.0,0.0,-0.001
51987000,0.0,0.7001968,0.0,0.0,0.71394986,0.0,0.0,-0.001
52035000,0.0,0.7002831,0.0,0.0,0.7138652,0.0,0.0,-0.001
52091000,0.0,0.7005656,0.0,0.0,0.713588,0.0,0.0,-0.001
52139000,0.0,0.7008229,0.0,0.0,0.7133354,0.0,0.0,-0.001
52187000,0.0,0.7008391,0.0,0.0,0.7133194,0.0,0.0,-0.001
52235000,0.0,0.70085764,0.0,0.0,0.71330124,0.0,0.0,-0.001
52283000,0.0,0.700825,0.0,0.0,0.71333337,0.0,0.0,-0.001
52339000,0.0,0.70084184,0.0,0.0,0.7133168,0.0,0.0,-0.001
52387000,0.0,0.7011426,0.0,0.0,0.7130211,0.0,0.0,-0.001
52443000,0.0,0.70126075,0.0,0.0,0.71290493,0.0,0.0,-0.001
52491000,0.0,0.70128495,0.0,0.0,0.7128811,0.0,0.0,-0.001
52539000,0.0,0.70130634,0.0,0.0,0.71286005,0.0,0.0,-0.001
52587000,0.0,0.70153624,0.0,0.0,0.71263385,0.0,0.0,-0.001
52643000,0.0,0.70162946,0.0,0.0,0.712542,0.0,0.0,-0.001
52691000,0.0,0.701522,0.0,0.0,0.71264786,0.0,0.0,-0.001
52739000,0.0,0.7016989,0.0,0.0,0.7124737,0.0,0.0,-0.001
52787000,0.0,0.7022579,0.0,0.0,0.71192265,0.0,0.0,-0.001
52843000,0.0,0.7023489,0.0,0.0,0.7118329,0.0,0.0,-0.001
52883000,0.0,0.70246595,0.0,0.0,0.71171737,0.0,0.0,-0.001
52939000,0.0,0.70239115,0.0,0.0,0.7117912,0.0,0.0,-0.001
52987000,0.0,0.70242506,0.0,0.0,0.7117577,0.0,0.0,-0.001
53043000,0.0,0.70244807,0.0,0.0,0.711735,0.0,0.0,-0.001
53091000,0.0,0.70262784,0.0,0.0,0.7115575,0.0,0.0,-0.001
53139000,0.0,0.7026282,0.0,0.0,0.7115572,0.0,0.0,-0.001
53187000,0.0,0.7026934,0.0,0.0,0.7114928,0.0,0.0,-0.001
53243000,0.0,0.70249015,0.0,0.0,0.71169347,0.0,0.0,-0.001
53291000,0.0,0.70254654,0.0,0.0,0.71163785,0.0,0.0,-0.001
53339000,0.0,0.7025992,0.0,0.0,0.7115858,0.0,0.0,-0.001
53387000,0.0,0.70281553,0.0,0.0,0.71137214,0.0,0.0,-0.001
53435000,0.0,0.70284414,0.0,0.0,0.7113439,0.0,0.0,-0.001
53491000,0.0,0.7029662,0.0,0.0,0.71122324,0.0,0.0,-0.001
53539000,0.0,0.70313996,0.0,0.0,0.71105146,0.0,0.0,-0.001
53587000,0.0,0.7034939,0.0,0.0,0.7107014,0.0,0.0,-0.001
53643000,0.0,0.7037129,0.0,0.0,0.7104845,0.0,0.0,-0.001
53691000,0.0,0.7039708,0.0,0.0,0.7102289,0.0,0.0,-0.001
53739000,0.0,0.70393056,0.0,0.0,0.7102688,0.0,0.0,-0.001
53787000,0.0,0.70408803,0.0,0.0,0.71011275,0.0,0.0,-0.001
53835000,0.0,0.7041348,0.0,0.0,0.7100663,0.0,0.0,-0.001
53891000,0.0,0.7039916,0.0,0.0,0.71020836,0.0,0.0,-0.001
53939000,0.0,0.7042289,0.0,0.0,0.7099731,0.0,0.0,-0.001
53987000,0.0,0.70429325,0.0,0.0,0.70990914,0.0,0.0,-0.001
54043000,0.0,0.70418954,0.0,0.0,0.710012,0.0,0.0,-0.001
54091000,0.0,0.7040822,0.0,0.0,0.7101185,0.0,0.0,-0.001
54139000,0.0,0.7041951,0.0,0.0,0.7100066,0.0,0.0,-0.001
54187000,0.0,0.7040911,0.0,0.0,0.7101098,0.0,0.0,-0.001
54235000,0.0,0.70415443,0.0,0.0,0.7100469,0.0,0.0,-0.001
54291000,0.0,0.704348,0.0,0.0,0.70985484,0.0,0.0,-0.001
