timestamp,timestamp_sample,time_last_fuse,device_id,observation,observation_variance,innovation,innovation_filtered,innovation_variance,test_ratio,test_ratio_filtered,estimator_instance,innovation_rejected,fused
5499000,5341000,5347000,0,-488.054,1.0,0.0,0.0,1.0,0.0,0.0,0,0,1
5899000,5741000,5747000,0,-488.054,1.0,0.0029296875,0.0013020835,1.8033838,1.9037698e-07,8.4612e-08,0,0,1
6299000,6141000,6147000,0,-488.053,1.0,0.004119873,0.0025544344,1.3661352,4.9697434e-07,2.6788416e-07,0,0,1
6699000,6541000,6547000,0,-488.053,1.0,0.0060424805,0.004104677,1.2381455,1.1795568e-06,6.73072e-07,0,0,1
7099000,6941000,6947000,0,-488.054,1.0,0.010253906,0.006837668,1.1758595,3.5767061e-06,1.9635763e-06,0,0,1
7499000,7345000,7347000,0,-488.054,1.0,0.014282227,0.010164661,1.1438955,7.132889e-06,4.2737556e-06,0,0,1
7899000,7741000,7747000,0,-488.054,1.0,0.015014648,0.012308182,1.1255058,8.01203e-06,5.925939e-06,0,0,1
8299000,8141000,8147000,0,-488.053,1.0,0.014587402,0.013321169,1.1143974,7.637933e-06,6.686825e-06,0,0,1
8699000,8541000,8547000,0,-488.053,1.0,0.023101807,0.017668119,1.1099825,1.92325e-05,1.2262681e-05,0,0,1
9099000,8941000,8947000,0,-488.053,1.0,0.027526855,0.022049781,1.1091815,2.7325654e-05,1.8957337e-05,0,0,1
9499000,9341000,9347000,0,-488.052,1.0,0.0284729,0.0249045,1.1096599,2.9223587e-05,2.3520115e-05,0,0,1
9899000,9741000,9747000,0,-488.052,1.0,0.030212402,0.027263569,1.1123223,3.282463e-05,2.7655457e-05,0,0,1
10299000,10141000,10147000,0,-488.053,1.0,0.036132812,0.031205455,1.1214902,4.6565903e-05,3.60601e-05,0,0,1
10699000,10541000,10547000,0,-488.054,1.0,0.03427124,0.032568026,1.1302361,4.1567168e-05,3.8507686e-05,0,0,1
11099000,10941000,10947000,0,-488.054,1.0,0.03048706,0.031643152,1.1380734,3.266787e-05,3.5912213e-05,0,0,1
11499000,11341000,11347000,0,-488.053,1.0,0.026794434,0.029488167,1.1387761,2.521801e-05,3.1159234e-05,0,0,1
11899000,11741000,11747000,0,-488.054,1.0,0.020965576,0.02570035,1.1351562,1.5488808e-05,2.41946e-05,0,0,1
12299000,12141000,12147000,0,-488.053,1.0,0.013641357,0.020340797,1.1333673,6.5675667e-06,1.6360362e-05,0,0,1
12699000,12541000,12547000,0,-488.053,1.0,0.008636475,0.015138876,1.1317544,2.636215e-06,1.0260741e-05,0,0,1
13099000,12941000,12947000,0,-488.054,1.0,0.0058288574,0.01100109,1.1288986,1.2038487e-06,6.235455e-06,0,0,1
13499000,13341000,13347000,0,-488.053,1.0,0.0038757324,0.007834264,1.1274967,5.32908e-07,3.7009895e-06,0,0,1
13899000,13741000,13747000,0,-488.054,1.0,0.0022583008,0.005356058,1.1248499,1.8135476e-07,2.1367073e-06,0,0,1
14299000,14141000,14147000,0,-488.055,1.0,-0.0014343262,0.0023381093,1.123541,7.324313e-08,1.154507e-06,0,0,1
14699000,14541000,14547000,0,-488.054,1.0,-0.013305664,-0.004614679,1.1222503,6.310204e-06,-2.1631427e-06,0,0,1
15099000,14945000,14947000,0,-488.054,1.0,-0.020111084,-0.011540063,1.1198045,1.4447368e-05,-7.652995e-06,0,0,1
15499000,15345000,15347000,0,-488.053,1.0,-0.028656006,-0.01914715,1.1185874,2.9364419e-05,-1.7302518e-05,0,0,1
15899000,15745000,15747000,0,-488.054,1.0,-0.03479004,-0.026099546,1.1173912,4.3327593e-05,-2.8869219e-05,0,0,1
16299000,16145000,16147000,0,-488.054,1.0,-0.04071045,-0.03259328,1.1151425,5.9448572e-05,-4.2460044e-05,0,0,1
16699000,16545000,16547000,0,-488.052,1.0,-0.048217773,-0.0395375,1.1140419,8.347814e-05,-6.0690312e-05,0,0,1
17099000,16945000,16947000,0,-488.055,1.0,-0.046966553,-0.042839304,1.1129811,7.927743e-05,-6.895125e-05,0,0,1
17499000,17345000,17347000,0,-488.053,1.0,-0.051239014,-0.046572506,1.1109588,9.4528674e-05,-8.0319e-05,0,0,1
17899000,17745000,17747000,0,-488.053,1.0,-0.052703857,-0.049297553,1.1100104,0.00010009624,-8.9108886e-05,0,0,1
18099000,17945000,17947000,0,-488.053,1.0,-0.049926758,-0.049477324,1.1029191,9.0403046e-05,-8.947864e-05,0,0,1
18499000,18345000,18347000,0,-488.054,1.0,-0.047058105,-0.048402116,1.1021975,8.036546e-05,-8.542834e-05,0,0,1
18899000,18745000,18747000,0,-488.054,1.0,-0.047332764,-0.047926847,1.1022595,8.130175e-05,-8.35943e-05,0,0,1
19299000,19145000,19147000,0,-488.054,1.0,-0.045135498,-0.046686247,1.102258,7.392872e-05,-7.929849e-05,0,0,1
19699000,19545000,19547000,0,-488.053,1.0,-0.0440979,-0.04553587,1.1013714,7.062558e-05,-7.544386e-05,0,0,1
20099000,19945000,19947000,0,-488.053,1.0,-0.04144287,-0.04371676,1.1012906,6.2381776e-05,-6.963849e-05,0,0,1
20499000,20345000,20347000,0,-488.054,1.0,-0.036254883,-0.04040037,1.1011775,4.7745856e-05,-5.990843e-05,0,0,1
20899000,20745000,20747000,0,-488.053,1.0,-0.030517578,-0.03600802,1.1002234,3.38594e-05,-4.8331083e-05,0,0,1
21107000,20949000,20955000,0,-488.054,1.0,-0.02633667,-0.033205524,1.0949816,2.5338151e-05,-4.1668358e-05,0,0,1
21507000,21349000,21355000,0,-488.053,1.0,-0.023712158,-0.02898625,1.0955386,2.0529314e-05,-3.2273227e-05,0,0,1
21907000,21749000,21755000,0,-488.054,1.0,-0.01751709,-0.023888845,1.0952832,1.1206178e-05,-2.2910093e-05,0,0,1
22307000,22149000,22155000,0,-488.052,1.0,-0.017242432,-0.020934884,1.0956978,1.08534105e-05,-1.7551567e-05,0,0,1
22707000,22549000,22555000,0,-488.054,1.0,-0.007598877,-0.01500777,1.0960552,2.1073001e-06,-1.0687448e-05,0,0,1
23107000,22949000,22955000,0,-488.053,1.0,-0.0022888184,-0.009354902,1.0956131,1.9126057e-07,-6.022475e-06,0,0,1
23507000,23349000,23355000,0,-488.053,1.0,0.0010070801,-0.0047495766,1.0958664,3.7019483e-08,-3.329366e-06,0,0,1
23907000,23749000,23755000,0,-488.054,1.0,0.007446289,0.00067080837,1.0960758,2.0234813e-06,-9.503226e-07,0,0,1
24307000,24149000,24155000,0,-488.054,1.0,0.0059509277,0.0030175282,1.0955076,1.2930459e-06,4.673018e-08,0,0,1
24707000,24549000,24555000,0,-488.054,1.0,0.004180908,0.0035345862,1.0956547,6.3815696e-07,3.0958654e-07,0,0,1
25107000,24949000,24955000,0,-488.054,1.0,0.008026123,0.005530825,1.0957743,2.35153e-06,1.217117e-06,0,0,1
25507000,25349000,25355000,0,-488.054,1.0,0.00982666,0.007440085,1.0951375,3.5269818e-06,2.2437237e-06,0,0,1
25907000,25749000,25755000,0,-488.054,1.0,0.011352539,0.009178953,1.0952204,4.707003e-06,3.3385145e-06,0,0,1
26307000,26149000,26155000,0,-488.053,1.0,0.015197754,0.011853976,1.0952903,8.435087e-06,5.603658e-06,0,0,1
26707000,26549000,26555000,0,-488.053,1.0,0.016998291,0.014140339,1.0946252,1.0558569e-05,7.80584e-06,0,0,1
27107000,26949000,26955000,0,-488.053,1.0,0.019958496,0.016726186,1.0946822,1.4555514e-05,1.0805696e-05,0,0,1
27507000,27349000,27355000,0,-488.054,1.0,0.0256958,0.020712681,1.0940121,2.4141384e-05,1.6732669e-05,0,0,1
27907000,27749000,27755000,0,-488.053,1.0,0.02670288,0.023374993,1.0940654,2.6069514e-05,2.0882379e-05,0,0,1
28307000,28149000,28155000,0,-488.053,1.0,0.028686523,0.025735673,1.0941155,3.0085183e-05,2.4972514e-05,0,0,1
28707000,28549000,28555000,0,-488.054,1.0,0.029968262,0.027616823,1.0934544,3.285356e-05,2.8475202e-05,0,0,1
29107000,28949000,28955000,0,-488.053,1.0,0.026062012,0.026925797,1.0935099,2.484581e-05,2.6862139e-05,0,0,1
29507000,29349000,29355000,0,-488.053,1.0,0.02255249,0.024982104,1.0935656,1.8603907e-05,2.3191813e-05,0,0,1
29907000,29749000,29755000,0,-488.053,1.0,0.015167236,0.02061994,1.0929227,8.419445e-06,1.6626316e-05,0,0,1
30307000,30149000,30155000,0,-488.053,1.0,0.00869751,0.0153210815,1.0929878,2.7684364e-06,1.0467258e-05,0,0,1
30707000,30549000,30555000,0,-488.054,1.0,0.007171631,0.011699103,1.0930564,1.8821459e-06,6.6516523e-06,0,0,1
31107000,30949000,30955000,0,-488.054,1.0,0.0010681152,0.006974219,1.092433,4.177355e-08,3.7139282e-06,0,0,1
31507000,31349000,31355000,0,-488.054,1.0,-0.0044555664,0.0018943143,1.0925125,7.26841e-07,1.7402529e-06,0,0,1
31907000,31749000,31755000,0,-488.054,1.0,-0.0134887695,-0.0049426123,1.092592,6.6611105e-06,-1.9936867e-06,0,0,1
32307000,32149000,32155000,0,-488.053,1.0,-0.017089844,-0.010341382,1.0919902,1.0698365e-05,-5.8624328e-06,0,0,1
32707000,32549000,32555000,0,-488.054,1.0,-0.019012451,-0.014195191,1.0920827,1.3239777e-05,-9.141253e-06,0,0,1
33107000,32949000,32955000,0,-488.054,1.0,-0.024291992,-0.018682659,1.0921773,2.1611908e-05,-1.46837665e-05,0,0,1
33507000,33349000,33355000,0,-488.055,1.0,-0.026184082,-0.022016626,1.0915959,2.5123076e-05,-1.932346e-05,0,0,1
33907000,33749000,33755000,0,-488.053,1.0,-0.030029297,-0.025577813,1.091698,3.304059e-05,-2.5419962e-05,0,0,1
34307000,34149000,34155000,0,-488.053,1.0,-0.0340271,-0.029333051,1.0918056,4.2419404e-05,-3.297527e-05,0,0,1
34707000,34549000,34555000,0,-488.053,1.0,-0.036071777,-0.03232804,1.0912402,4.769521e-05,-3.9517465e-05,0,0,1
35107000,34949000,34955000,0,-488.055,1.0,-0.0423584,-0.036785975,1.0913546,6.576172e-05,-5.1181578e-05,0,0,1
35507000,35349000,35355000,0,-488.053,1.0,-0.055847168,-0.045257617,1.0908004,0.00011437129,-7.92659e-05,0,0,1
35907000,35749000,35755000,0,-488.053,1.0,-0.064086914,-0.053626195,1.0909208,0.00015059325,-0.00011096694,0,0,1
36307000,36149000,36155000,0,-488.055,1.0,-0.07052612,-0.061137274,1.0910457,0.00018235474,-0.00014269486,0,0,1
36707000,36549000,36555000,0,-488.053,1.0,-0.077697754,-0.06849749,1.090504,0.00022143671,-0.00017769124,0,0,1
37107000,36949000,36955000,0,-488.054,1.0,-0.08105469,-0.07407846,1.090636,0.00024095527,-0.00020580858,0,0,1
37507000,37349000,37355000,0,-488.054,1.0,-0.08267212,-0.07789787,1.0907664,0.00025063768,-0.00022573263,0,0,1
37907000,37749000,37755000,0,-488.053,1.0,-0.08868408,-0.082691744,1.0902358,0.00028855653,-0.00025365438,0,0,1
38307000,38149000,38155000,0,-488.053,1.0,-0.09295654,-0.087253876,1.0903744,0.00031698906,-0.00028180314,0,0,1
38507000,38349000,38355000,0,-488.054,1.0,-0.088378906,-0.08757532,1.0860744,0.00028767204,-0.00028347995,0,0,1
38907000,38749000,38755000,0,-488.054,1.0,-0.09484863,-0.0908079,1.0861177,0.00033131815,-0.00030474138,0,0,1
39307000,39149000,39155000,0,-488.054,1.0,-0.10256958,-0.09603532,1.0867333,0.0003872346,-0.00034140504,0,0,1
39707000,39553000,39555000,0,-488.054,1.0,-0.10964966,-0.1021196,1.0873152,0.0004423022,-0.00038649625,0,0,1
40107000,39953000,39955000,0,-488.053,1.0,-0.11303711,-0.10697183,1.0872424,0.00047008425,-0.00042364647,0,0,1
40507000,40349000,40355000,0,-488.053,1.0,-0.11175537,-0.109085985,1.0877497,0.00045926974,-0.0004393907,0,0,1
40907000,40749000,40755000,0,-488.053,1.0,-0.10803223,-0.10861765,1.0882198,0.00042899285,-0.00043476943,0,0,1
41307000,41149000,41155000,0,-488.055,1.0,-0.09851074,-0.10412569,1.0880241,0.00035677027,-0.00040010313,0,0,1
41707000,41549000,41555000,0,-488.053,1.0,-0.101623535,-0.10301362,1.0884244,0.00037953365,-0.00039096116,0,0,1
42107000,41949000,41955000,0,-488.054,1.0,-0.1043396,-0.103602946,1.0887922,0.00039995703,-0.00039495932,0,0,1
42507000,42353000,42355000,0,-488.055,1.0,-0.10498047,-0.104218565,1.0884937,0.00040499633,-0.0003994449,0,0,1
42907000,42753000,42755000,0,-488.054,1.0,-0.10736084,-0.10561513,1.0888064,0.00042344903,-0.0004101134,0,0,1
43307000,43153000,43155000,0,-488.054,1.0,-0.10333252,-0.10460064,1.0890961,0.0003921641,-0.00040213592,0,0,1
43707000,43553000,43555000,0,-488.052,1.0,-0.10348511,-0.10410485,1.0887241,0.0003934575,-0.00039827885,0,0,1
44107000,43953000,43955000,0,-488.053,1.0,-0.100250244,-0.10239169,1.0889742,0.00036915884,-0.0003853366,0,0,1
44507000,44353000,44355000,0,-488.053,1.0,-0.095947266,-0.0995275,1.0892074,0.0003380762,-0.000364332,0,0,1
44907000,44753000,44755000,0,-488.054,1.0,-0.095214844,-0.097610764,1.0887892,0.00033306231,-0.00035043436,0,0,1
45307000,45153000,45155000,0,-488.054,1.0,-0.0899353,-0.09419945,1.0890012,0.00029709275,-0.00032672696,0,0,1
45507000,45353000,45355000,0,-488.054,1.0,-0.084747314,-0.09149884,1.0848703,0.00026480982,-0.00030903635,0,0,1
45907000,45753000,45755000,0,-488.052,1.0,-0.08627319,-0.08917633,1.0849631,0.000274408,-0.00029364598,0,0,1
46307000,46153000,46155000,0,-488.055,1.0,-0.08151245,-0.08577016,1.0856056,0.00024481377,-0.00027194276,0,0,1
46707000,46553000,46555000,0,-488.053,1.0,-0.081451416,-0.08385072,1.0862112,0.00024431097,-0.00025966196,0,0,1
47107000,46953000,46955000,0,-488.054,1.0,-0.079315186,-0.08183493,1.086175,0.00023167166,-0.00024722182,0,0,1
47507000,47353000,47355000,0,-488.053,1.0,-0.08041382,-0.08120333,1.0867001,0.00023801903,-0.00024313168,0,0,1
47907000,47753000,47755000,0,-488.052,1.0,-0.080566406,-0.08092025,1.0871902,0.00023881547,-0.00024121336,0,0,1
48307000,48153000,48155000,0,-488.054,1.0,-0.080322266,-0.08065448,1.0870296,0.00023740537,-0.00023952092,0,0,1
48707000,48553000,48555000,0,-488.055,1.0,-0.07577515,-0.078485884,1.0874463,0.00021120574,-0.00022693639,0,0,1
49107000,48953000,48955000,0,-488.054,1.0,-0.07107544,-0.075192355,1.0878302,0.00018575392,-0.00020863306,0,0,1
49507000,49353000,49355000,0,-488.054,1.0,-0.06576538,-0.07100259,1.0875628,0.0001590744,-0.000186607,0,0,1
49907000,49753000,49755000,0,-488.053,1.0,-0.061401367,-0.06673538,1.0878928,0.00013862131,-0.00016528003,0,0,1
50307000,50153000,50155000,0,-488.053,1.0,-0.053710938,-0.06094674,1.088198,0.000106041916,-0.00013895197,0,0,1
50707000,50553000,50555000,0,-488.053,1.0,-0.048431396,-0.055384364,1.087856,8.624671e-05,-0.000115527415,0,0,1
51107000,50953000,50955000,0,-488.054,1.0,-0.044006348,-0.05032747,1.0881209,7.11891e-05,-9.5821495e-05,0,0,1
51507000,51349000,51355000,0,-488.053,1.0,-0.039855957,-0.045699436,1.0883701,5.838078e-05,-7.927404e-05,0,0,1
51907000,51753000,51755000,0,-488.053,1.0,-0.038238525,-0.042365134,1.0879792,5.3757823e-05,-6.787077e-05,0,0,1
52307000,52153000,52155000,0,-488.054,1.0,-0.034484863,-0.03886279,1.0882046,4.371258e-05,-5.7133795e-05,0,0,1
52707000,52553000,52555000,0,-488.053,1.0,-0.03778076,-0.03838189,1.0877914,5.2487485e-05,-5.506877e-05,0,0,1
53107000,52953000,52955000,0,-488.053,1.0,-0.03866577,-0.038508058,1.0879989,5.4964832e-05,-5.5022574e-05,0,0,1
53507000,53353000,53355000,0,-488.053,1.0,-0.038726807,-0.03860528,1.0882002,5.5128294e-05,-5.5069562e-05,0,0,1
53907000,53753000,53755000,0,-488.053,1.0,-0.037902832,-0.038293082,1.087769,5.2828298e-05,-5.4073444e-05,0,0,1
54307000,54153000,54155000,0,-488.053,1.0,-0.039154053,-0.038675737,1.0879624,5.6363708e-05,-5.509134e-05,0,0,1
