timestamp,timestamp_sample,device_id,magnetometer_ga[0],magnetometer_ga[1],magnetometer_ga[2],calibration_count
4391000,4391000,197388,0.016791075,-0.21681193,0.43037003,0
4515000,4458636,197388,0.011570923,-0.21600126,0.42854628,0
4535000,4529000,197388,0.0037635555,-0.21648842,0.4324953,0
4647000,4596200,197388,0.010774803,-0.21790414,0.42783356,0
4679000,4667000,197388,0.009761758,-0.215967,0.43045494,0
4779000,4733666,197388,0.010909845,-0.21575677,0.42884073,0
4823000,4805000,197388,0.0095986,-0.21359527,0.42859185,0
4919000,4876333,197388,0.009572063,-0.21829835,0.4264456,0
4963000,4947000,197388,0.01080786,-0.21745877,0.42956632,0
5051000,5014000,197388,0.012250412,-0.21578541,0.4320097,0
5107000,5085400,197388,0.0115963435,-0.21453379,0.42901888,0
5195000,5157000,197388,0.0076342523,-0.21633966,0.42942154,0
5251000,5228600,197388,0.008114073,-0.21669789,0.42623702,0
5339000,5299500,197388,0.009907311,-0.2172062,0.42882845,0
5395000,5371800,197388,0.011770721,-0.21623595,0.42969188,0
5483000,5443000,197388,0.009371699,-0.21716179,0.42773646,0
5535000,5514200,197388,0.01117337,-0.21713255,0.42783722,0
5623000,5586000,197388,0.010831021,-0.21524303,0.4297354,0
5679000,5657400,197388,0.013316511,-0.21663423,0.4292625,0
5767000,5729000,197388,0.011093318,-0.21603498,0.4289777,0
5823000,5799800,197388,0.011326311,-0.2139896,0.4322838,0
5911000,5872000,197388,0.0076824017,-0.21429586,0.4299731,0
5963000,5943000,197388,0.007502836,-0.21918765,0.429929,0
6055000,6015000,197388,0.01108777,-0.21717659,0.42713636,0
6107000,6086200,197388,0.009028042,-0.21299879,0.42939702,0
6195000,6158000,197388,0.010300393,-0.21702261,0.42746165,0
6251000,6229400,197388,0.010042251,-0.21349578,0.42809272,0
6339000,6301000,197388,0.009021245,-0.21625283,0.42861965,0
6395000,6371800,197388,0.009519245,-0.21326481,0.43026897,0
6483000,6444000,197388,0.011174678,-0.21427365,0.42966074,0
6539000,6515800,197388,0.007818301,-0.2152611,0.42595688,0
6627000,6586500,197388,0.010256942,-0.21780172,0.42891124,0
6679000,6658200,197388,0.011381298,-0.21521766,0.42797795,0
6767000,6730000,197388,0.008754662,-0.21562307,0.43054864,0
6823000,6801400,197388,0.011216597,-0.21793106,0.42717925,0
6911000,6873000,197388,0.009563755,-0.21785943,0.42913902,0
6967000,6944600,197388,0.009960364,-0.21660788,0.4320332,0
7055000,7016000,197388,0.009326514,-0.21780697,0.42923892,0
7111000,7087000,197388,0.010446912,-0.21499117,0.42845988,0
7199000,7159000,197388,0.012357036,-0.2150921,0.4287299,0
7251000,7230200,197388,0.008473237,-0.21446748,0.42833003,0
7339000,7302000,197388,0.011737255,-0.2143323,0.429902,0
7395000,7373400,197388,0.007707558,-0.21628074,0.4295567,0
7483000,7445000,197388,0.009044728,-0.21397893,0.43244505,0
7539000,7516600,197388,0.010243282,-0.21265225,0.4342676,0
7627000,7588000,197388,0.010431943,-0.21902737,0.43052503,0
7683000,7659800,197388,0.007844834,-0.21300589,0.43016863,0
7771000,7731000,197388,0.01265239,-0.21634944,0.4280128,0
7823000,7802200,197388,0.01291931,-0.2149186,0.4292844,0
7911000,7874000,197388,0.009018362,-0.21619079,0.4267518,0
7967000,7944600,197388,0.009698949,-0.21318737,0.4288602,0
8043000,8011571,197388,0.011456637,-0.21838136,0.42949563,0
8111000,8083000,197388,0.011308197,-0.21772408,0.4286937,0
8187000,8153857,197388,0.010351373,-0.21725504,0.4266575,0
8243000,8220600,197388,0.010027939,-0.2182496,0.4313315,0
8331000,8292000,197388,0.003940089,-0.21532488,0.42933297,0
8387000,8363800,197388,0.012670169,-0.21577087,0.42841157,0
8475000,8435000,197388,0.009977536,-0.21601908,0.42743903,0
8527000,8506200,197388,0.008879903,-0.21493757,0.42716476,0
8615000,8578000,197388,0.0091171,-0.21521212,0.4315971,0
8671000,8649400,197388,0.008813078,-0.21863352,0.4264104,0
8759000,8721000,197388,0.009324092,-0.21750814,0.428979,0
8815000,8792600,197388,0.011214732,-0.2150063,0.42699185,0
8903000,8864000,197388,0.008911779,-0.21509185,0.4283964,0
8955000,8935000,197388,0.00738941,-0.21689646,0.42618972,0
9047000,9007000,197388,0.009348931,-0.21415746,0.42894772,0
9099000,9078200,197388,0.008371037,-0.21830542,0.43025264,0
9187000,9150000,197388,0.009316723,-0.21740268,0.4282893,0
9243000,9221400,197388,0.010498406,-0.21757399,0.43059182,0
9331000,9293000,197388,0.009332826,-0.21458218,0.42862427,0
9387000,9364600,197388,0.0066187712,-0.22039185,0.4299942,0
9475000,9436000,197388,0.008752829,-0.21526311,0.4320605,0
9531000,9507800,197388,0.0086666,-0.21686418,0.4283819,0
9619000,9579000,197388,0.00965915,-0.21384527,0.42740804,0
9671000,9650200,197388,0.008507389,-0.21900372,0.428565,0
9759000,9722000,197388,0.010346628,-0.21684729,0.42706117,0
9815000,9793400,197388,0.007945501,-0.21390294,0.42613623,0
9903000,9865000,197388,0.009560084,-0.21950433,0.43063992,0
9959000,9936600,197388,0.009006694,-0.21762729,0.4297042,0
10047000,10007500,197388,0.009628399,-0.21520793,0.4294468,0
10103000,10079000,197388,0.010179224,-0.21557839,0.42657527,0
10191000,10151000,197388,0.009127493,-0.21614952,0.4303501,0
10243000,10222200,197388,0.011000126,-0.21627975,0.42747346,0
10331000,10294000,197388,0.010926701,-0.21393073,0.43085873,0
10387000,10365400,197388,0.007343127,-0.21543947,0.42917356,0
10475000,10436500,197388,0.009967172,-0.21653505,0.42800328,0
10531000,10508600,197388,0.0073582022,-0.21657406,0.430554,0
10619000,10580000,197388,0.01051589,-0.21451245,0.43079814,0
10675000,10651800,197388,0.008621117,-0.21413758,0.4272611,0
10763000,10723000,197388,0.0082465,-0.217583,0.42977387,0
10815000,10794200,197388,0.010215933,-0.21744657,0.4284906,0
10903000,10866000,197388,0.008708506,-0.21475527,0.42950997,0
10959000,10937400,197388,0.007939358,-0.21936098,0.43192512,0
11047000,11008500,197388,0.01025041,-0.21690312,0.42985052,0
11103000,11080600,197388,0.008311009,-0.21786986,0.42853475,0
11191000,11152000,197388,0.011070457,-0.21637473,0.4299846,0
11247000,11223800,197388,0.009087068,-0.21579142,0.43080422,0
11335000,11294500,197388,0.008342366,-0.21611668,0.42952818,0
11387000,11366200,197388,0.009390493,-0.21597777,0.4272429,0
11475000,11438000,197388,0.007314774,-0.21692267,0.42898867,0
11531000,11509400,197388,0.010331578,-0.21451977,0.4289314,0
11619000,11581000,197388,0.009336286,-0.21600784,0.42853335,0
11675000,11652600,197388,0.009711362,-0.21379673,0.4294996,0
11763000,11724000,197388,0.009246485,-0.21491441,0.42635658,0
11819000,11795800,197388,0.008897039,-0.21403201,0.42976585,0
11907000,11867000,197388,0.0084454175,-0.21563332,0.42879632,0
11959000,11938200,197388,0.010806384,-0.2185854,0.4287601,0
12047000,12010000,197388,0.010032577,-0.21810378,0.42787102,0
12103000,12081400,197388,0.00946482,-0.21782242,0.43072224,0
12191000,12153000,197388,0.009464243,-0.21918438,0.42726985,0
12247000,12224600,197388,0.00943892,-0.21490136,0.42819116,0
12335000,12296000,197388,0.011019864,-0.21721411,0.42708734,0
12391000,12367800,197388,0.011045921,-0.21556525,0.4278359,0
12479000,12439000,197388,0.009579238,-0.21649028,0.4284078,0
12531000,12510200,197388,0.009017001,-0.21823142,0.42669907,0
12619000,12582000,197388,0.0076830434,-0.21624483,0.4291239,0
12675000,12653400,197388,0.009819481,-0.21391225,0.4290572,0
12763000,12724500,197388,0.009444166,-0.21466832,0.42774516,0
12819000,12796600,197388,0.008580859,-0.21841173,0.4280784,0
12907000,12868000,197388,0.009979177,-0.21613246,0.42951515,0
12959000,12939000,197388,0.009099263,-0.21904866,0.42717862,0
13047000,13010500,197388,0.008429598,-0.21803713,0.43219644,0
13103000,13082200,197388,0.012193871,-0.21677795,0.43151703,0
13191000,13153500,197388,0.009175694,-0.21703836,0.43022695,0
13247000,13225400,197388,0.0071845106,-0.21697329,0.42899323,0
13335000,13297000,197388,0.008604674,-0.2174412,0.42949113,0
13391000,13368600,197388,0.010753113,-0.21494587,0.42918968,0
13479000,13440000,197388,0.009287458,-0.21775046,0.42757428,0
13535000,13511800,197388,0.011216223,-0.21417825,0.43274266,0
13623000,13583000,197388,0.010657034,-0.21966796,0.4272837,0
13675000,13654200,197388,0.012977461,-0.21612826,0.4311822,0
13763000,13726000,197388,0.009020533,-0.21557087,0.42983615,0
13819000,13797400,197388,0.012167933,-0.21517852,0.42603216,0
13907000,13869000,197388,0.008186108,-0.21546,0.4263724,0
13963000,13939800,197388,0.00882047,-0.21957378,0.4317026,0
14051000,14012000,197388,0.00996399,-0.21396826,0.42845246,0
14107000,14083800,197388,0.009459865,-0.21700917,0.4306186,0
14191000,14154500,197388,0.010108265,-0.21517709,0.42923862,0
14247000,14226200,197388,0.009195561,-0.21756203,0.42946798,0
14335000,14298000,197388,0.011723704,-0.21565099,0.42776155,0
14391000,14369400,197388,0.011035602,-0.21809292,0.431737,0
14479000,14441000,197388,0.009458338,-0.21578398,0.4308021,0
14535000,14512600,197388,0.0051546446,-0.21462487,0.43018904,0
14623000,14584000,197388,0.0103674065,-0.21576351,0.42927092,0
14679000,14655800,197388,0.010419831,-0.21397339,0.43050238,0
14767000,14727000,197388,0.009332151,-0.216635,0.43220386,0
14819000,14798200,197388,0.012511745,-0.21399358,0.42872697,0
14907000,14870000,197388,0.012696513,-0.21540084,0.43183485,0
14963000,14941400,197388,0.008970427,-0.21658735,0.42778516,0
15051000,15013000,197388,0.011330748,-0.21654722,0.42950055,0
15107000,15084600,197388,0.010562377,-0.2148056,0.43052822,0
15195000,15156000,197388,0.010423787,-0.21659459,0.4301716,0
15251000,15227800,197388,0.00954988,-0.21646026,0.4289503,0
15339000,15299000,197388,0.008883771,-0.21780737,0.42950138,0
15391000,15370200,197388,0.012161666,-0.21587348,0.4278215,0
15479000,15441500,197388,0.010809505,-0.21720922,0.42973745,0
15535000,15513400,197388,0.012588066,-0.21694438,0.43126664,0
15623000,15585000,197388,0.010774611,-0.21551904,0.43099508,0
15679000,15656600,197388,0.011640904,-0.21599197,0.4307242,0
15767000,15728000,197388,0.008525661,-0.21585411,0.4288623,0
15823000,15799800,197388,0.011254913,-0.22001515,0.42898822,0
15911000,15871000,197388,0.008626897,-0.21731617,0.4278171,0
15963000,15942200,197388,0.0087153455,-0.21903852,0.42666444,0
16051000,16014000,197388,0.008200294,-0.21721248,0.42912322,0
16107000,16085400,197388,0.012438994,-0.21687822,0.4284799,0
16195000,16157000,197388,0.008579128,-0.21707666,0.429938,0
16251000,16228600,197388,0.01153861,-0.21518746,0.43001062,0
16339000,16299500,197388,0.009640908,-0.21579677,0.43006298,0
16395000,16371800,197388,0.009217966,-0.21280181,0.4262413,0
16483000,16443000,197388,0.00824957,-0.21655968,0.4285701,0
16535000,16514200,197388,0.012522844,-0.21374476,0.43269506,0
16623000,16586000,197388,0.008454939,-0.21681704,0.42822,0
16679000,16657400,197388,0.009654904,-0.21615635,0.43285617,0
16767000,16729000,197388,0.009454339,-0.21747248,0.42988414,0
16823000,16800600,197388,0.009450474,-0.21356511,0.42874274,0
16911000,16872000,197388,0.009272185,-0.21804646,0.42912638,0
16967000,16943800,197388,0.0094508175,-0.21951154,0.43129155,0
17051000,17014500,197388,0.009188225,-0.21522069,0.4273255,0
17107000,17086200,197388,0.00980331,-0.21784635,0.42945465,0
17195000,17158000,197388,0.008826894,-0.21918738,0.42904013,0
17251000,17229400,197388,0.01084124,-0.21463929,0.4321204,0
17339000,17301000,197388,0.007939297,-0.21619682,0.43007115,0
17395000,17372600,197388,0.009006282,-0.2149009,0.42836347,0
17483000,17444000,197388,0.009886335,-0.21636878,0.43025783,0
17539000,17515800,197388,0.0119814025,-0.2141294,0.4327379,0
17627000,17587000,197388,0.010244432,-0.2162569,0.42917776,0
17679000,17657400,197388,0.0072320215,-0.21634014,0.42889127,0
17759000,17724714,197388,0.008586841,-0.21592034,0.42817673,0
17823000,17795666,197388,0.0095648235,-0.21791135,0.42832848,0
17891000,17862333,197388,0.010669235,-0.21575074,0.4316494,0
17967000,17933285,197388,0.009645541,-0.21455526,0.42803594,0
18031000,18005000,197388,0.011031248,-0.2146276,0.42919314,0
18111000,18076714,197388,0.009446296,-0.217804,0.428739,0
18175000,18147666,197388,0.009913916,-0.21630555,0.43000862,0
18243000,18214333,197388,0.0107990485,-0.21667111,0.42961693,0
18319000,18285285,197388,0.009636096,-0.21762921,0.428412,0
18383000,18357000,197388,0.010933366,-0.2172271,0.42769405,0
18459000,18428142,197388,0.009460077,-0.21441707,0.4267794,0
18527000,18499666,197388,0.010685965,-0.21658549,0.4291384,0
18595000,18566333,197388,0.008805647,-0.21494232,0.4299597,0
18671000,18637285,197388,0.007881838,-0.21465246,0.42930898,0
18735000,18709000,197388,0.011003114,-0.21780227,0.428082,0
18815000,18780142,197388,0.009941215,-0.21675022,0.4291082,0
18879000,18851666,197388,0.0101156095,-0.21577677,0.4292186,0
18947000,18918333,197388,0.009361808,-0.21623802,0.4286549,0
19023000,18989285,197388,0.007825582,-0.2155082,0.42837018,0
19087000,19061000,197388,0.008038911,-0.21524626,0.4322947,0
19163000,19132142,197388,0.0075457934,-0.21666805,0.4279107,0
19231000,19203000,197388,0.010807414,-0.21572648,0.43088135,0
19299000,19270333,197388,0.010833862,-0.21829295,0.4306019,0
19375000,19341285,197388,0.0094598895,-0.21758564,0.4282958,0
19439000,19413000,197388,0.011028927,-0.2141376,0.42855698,0
19519000,19484714,197388,0.0068667945,-0.21404605,0.42784855,0
19583000,19555666,197388,0.008968203,-0.21550974,0.4316022,0
19651000,19622333,197388,0.007221074,-0.21663687,0.42862555,0
19727000,19693285,197388,0.009440066,-0.21721783,0.4298569,0
19791000,19765000,197388,0.010435257,-0.2161276,0.42965055,0
19871000,19836714,197388,0.010189442,-0.21432108,0.42658442,0
19935000,19907666,197388,0.009735554,-0.2139108,0.42882872,0
20003000,19974333,197388,0.01231778,-0.212813,0.42966044,0
20079000,20045285,197388,0.0096805645,-0.21415861,0.43034923,0
20143000,20117000,197388,0.009877285,-0.21508113,0.4281217,0
20223000,20188714,197388,0.007854729,-0.21520858,0.43025666,0
20287000,20259666,197388,0.010643761,-0.21435094,0.42600006,0
20355000,20326333,197388,0.009497065,-0.2185645,0.42807075,0
20431000,20397285,197388,0.009611564,-0.21684444,0.428985,0
20495000,20469000,197388,0.0090671275,-0.21662995,0.42987582,0
20575000,20540142,197388,0.009472794,-0.216191,0.43094125,0
20639000,20611666,197388,0.008059001,-0.21635638,0.4279824,0
20707000,20678333,197388,0.0083389385,-0.21339199,0.42545485,0
20783000,20749285,197388,0.00976466,-0.21444151,0.43190932,0
20847000,20821000,197388,0.006675358,-0.21620402,0.43002397,0
20927000,20892714,197388,0.010076623,-0.21409121,0.42705637,0
20991000,20963000,197388,0.0114403125,-0.2166855,0.43033227,0
21059000,21030333,197388,0.008028071,-0.21693435,0.42669722,0
21135000,21101285,197388,0.008078301,-0.21350387,0.4312667,0
21199000,21173000,197388,0.011524352,-0.2168306,0.42834172,0
21279000,21244714,197388,0.010225696,-0.21431649,0.43036097,0
21343000,21315666,197388,0.010018937,-0.2160292,0.43028164,0
21411000,21382333,197388,0.009444876,-0.21752416,0.4265339,0
21487000,21453285,197388,0.011269252,-0.21366902,0.42974246,0
21551000,21525000,197388,0.007828679,-0.2178247,0.42814648,0
21631000,21596714,197388,0.008682752,-0.21431048,0.42840663,0
21695000,21667666,197388,0.008403378,-0.21803771,0.43039498,0
21763000,21734333,197388,0.010642972,-0.21546319,0.4281752,0
21839000,21805285,197388,0.0083128065,-0.21610615,0.43031514,0
21903000,21877000,197388,0.008211017,-0.21521787,0.42799246,0
21983000,21948714,197388,0.007491028,-0.21613483,0.42644125,0
22047000,22019666,197388,0.009996948,-0.21600084,0.42847246,0
22115000,22086333,197388,0.008006516,-0.21555763,0.43123063,0
22191000,22157285,197388,0.0089205885,-0.21491773,0.4298654,0
22255000,22229000,197388,0.0061002816,-0.21705519,0.43027377,0
22335000,22300714,197388,0.0070101283,-0.21483256,0.4300464,0
22399000,22371666,197388,0.01002362,-0.21635477,0.43080604,0
22467000,22438333,197388,0.0069854683,-0.21688068,0.4308705,0
22543000,22509285,197388,0.009604323,-0.21825808,0.42930844,0
22607000,22581000,197388,0.009060761,-0.21676561,0.42662853,0
22683000,22652142,197388,0.011834388,-0.21283291,0.4276063,0
22751000,22723666,197388,0.0061398908,-0.2189232,0.43092465,0
22819000,22790333,197388,0.008820443,-0.2169151,0.42568752,0
22895000,22861285,197388,0.00876058,-0.21581943,0.42812327,0
22959000,22932333,197388,0.010203518,-0.21597257,0.4269869,0
23027000,22999000,197388,0.010024173,-0.21607904,0.42846942,0
23103000,23070428,197388,0.011080963,-0.21542144,0.42891684,0
23167000,23141666,197388,0.010547927,-0.21424298,0.43047592,0
23247000,23213285,197388,0.0095502045,-0.2160755,0.42975053,0
23311000,23285000,197388,0.0081169,-0.21715693,0.4283018,0
23391000,23356714,197388,0.01108981,-0.21562469,0.4297583,0
23455000,23427666,197388,0.011573685,-0.21435612,0.4292459,0
23531000,23499000,197388,0.00941837,-0.21579382,0.42938262,0
23599000,23570333,197388,0.007944275,-0.21653643,0.43040097,0
23663000,23637000,197388,0.010659523,-0.21613002,0.42842513,0
23739000,23708142,197388,0.009943401,-0.21407905,0.42766994,0
23807000,23779666,197388,0.008156233,-0.21444023,0.4301135,0
23875000,23846333,197388,0.01276134,-0.2171799,0.43021077,0
23951000,23917285,197388,0.007812505,-0.215933,0.43019715,0
24015000,23989000,197388,0.0101278685,-0.21759002,0.43001413,0
24095000,24060714,197388,0.009497578,-0.21621926,0.4305285,0
24159000,24131666,197388,0.009161504,-0.21354084,0.4243878,0
24227000,24198333,197388,0.010336364,-0.21486722,0.42948863,0
24303000,24269285,197388,0.009055302,-0.21523288,0.42989162,0
24367000,24341000,197388,0.0074604074,-0.21734774,0.42734677,0
24447000,24412714,197388,0.009182716,-0.21603908,0.43115842,0
24511000,24483666,197388,0.007744431,-0.21717636,0.42898595,0
24579000,24550333,197388,0.009845765,-0.21699195,0.42865682,0
24655000,24621285,197388,0.010712816,-0.21576878,0.42904124,0
24719000,24693000,197388,0.008242047,-0.21363619,0.42865884,0
24795000,24764142,197388,0.009368335,-0.21593803,0.4278766,0
24863000,24835666,197388,0.0100238435,-0.214044,0.42644083,0
24931000,24902333,197388,0.009143397,-0.21352874,0.42683232,0
25007000,24973285,197388,0.010098062,-0.2161675,0.42722684,0
25071000,25045000,197388,0.010893205,-0.21560064,0.4282498,0
25151000,25116714,197388,0.008870637,-0.21643479,0.42974427,0
25215000,25187666,197388,0.010447141,-0.21253656,0.42800927,0
25283000,25254333,197388,0.007750954,-0.21621984,0.4269044,0
25359000,25325285,197388,0.008653365,-0.21353866,0.429386,0
25423000,25397000,197388,0.009136245,-0.21512005,0.42925292,0
25503000,25468714,197388,0.007663495,-0.21699288,0.425019,0
25567000,25539666,197388,0.008200544,-0.21623054,0.42918026,0
25635000,25606333,197388,0.010504499,-0.21513587,0.43216798,0
25711000,25677285,197388,0.010157431,-0.21746829,0.42785648,0
25775000,25749000,197388,0.006723715,-0.2140955,0.4265706,0
25855000,25820714,197388,0.0102964975,-0.21589708,0.42650446,0
25919000,25891666,197388,0.0078113093,-0.21599132,0.42656624,0
25995000,25963000,197388,0.008061374,-0.2207281,0.42820016,0
26063000,26035000,197388,0.0098210685,-0.21670966,0.43004236,0
26139000,26106428,197388,0.010620376,-0.21668807,0.42929912,0
26207000,26178333,197388,0.011141112,-0.21669039,0.42844504,0
26283000,26249285,197388,0.010172754,-0.21543556,0.42998555,0
26347000,26321000,197388,0.008304147,-0.21579447,0.43307433,0
26427000,26392714,197388,0.009358337,-0.2165536,0.43048203,0
26491000,26463666,197388,0.012991963,-0.21964231,0.4267764,0
26559000,26530333,197388,0.010822109,-0.21551618,0.42910868,0
26635000,26601285,197388,0.010984722,-0.21506794,0.4312466,0
26699000,26673000,197388,0.009788604,-0.21524966,0.42900014,0
26779000,26744714,197388,0.008008158,-0.21679048,0.42889303,0
26843000,26815666,197388,0.009871504,-0.21592951,0.42862117,0
26911000,26882333,197388,0.012932416,-0.21625738,0.43044958,0
26987000,26953285,197388,0.0110241035,-0.21780066,0.42913622,0
27051000,27025000,197388,0.007322166,-0.21875928,0.42841786,0
27131000,27096714,197388,0.010220563,-0.21696159,0.42953113,0
27195000,27167666,197388,0.010722231,-0.21569744,0.427221,0
27263000,27234333,197388,0.010157647,-0.21517007,0.42930102,0
27339000,27305285,197388,0.009237747,-0.21837072,0.42783988,0
27403000,27377000,197388,0.00919443,-0.21616606,0.43288738,0
27483000,27448714,197388,0.00933161,-0.21630809,0.4277864,0
27547000,27519666,197388,0.011828136,-0.21619788,0.4313793,0
27623000,27591000,197388,0.010646476,-0.21709299,0.43094218,0
27691000,27663000,197388,0.010739721,-0.21651135,0.42941147,0
27767000,27734428,197388,0.009772374,-0.21526718,0.43373007,0
27835000,27806333,197388,0.008469288,-0.21624379,0.42695218,0
27911000,27877285,197388,0.008468386,-0.21566945,0.4295896,0
27975000,27949000,197388,0.010463162,-0.21585926,0.4280046,0
28055000,28020714,197388,0.008666321,-0.21561934,0.43058628,0
28119000,28091666,197388,0.009359329,-0.21648507,0.43042624,0
28187000,28158333,197388,0.00870414,-0.2160183,0.43166548,0
28263000,28229285,197388,0.0073685786,-0.21795487,0.42989367,0
28327000,28301000,197388,0.009564811,-0.21418524,0.42725825,0
28407000,28372714,197388,0.008994951,-0.2147873,0.42634806,0
28471000,28443666,197388,0.010141183,-0.21835706,0.42974222,0
28539000,28510333,197388,0.009497071,-0.21874249,0.42970106,0
28615000,28581285,197388,0.010089083,-0.21616454,0.428984,0
28679000,28653000,197388,0.008423104,-0.21553867,0.42585084,0
28759000,28724714,197388,0.007858641,-0.2164336,0.42920136,0
28823000,28795666,197388,0.010651497,-0.2166286,0.42964953,0
28891000,28862333,197388,0.0104578575,-0.21491359,0.43091306,0
28967000,28933285,197388,0.008086559,-0.21532345,0.43165022,0
29031000,29005000,197388,0.011931008,-0.21831378,0.42967415,0
29111000,29076714,197388,0.011267238,-0.21533647,0.43033093,0
29175000,29147666,197388,0.009143726,-0.21696848,0.42612684,0
29243000,29214333,197388,0.008930634,-0.21808687,0.42775702,0
29319000,29285285,197388,0.007656577,-0.21482344,0.42530423,0
29383000,29357000,197388,0.009325776,-0.21608381,0.4290933,0
29463000,29428714,197388,0.00919332,-0.21599197,0.42999366,0
29527000,29499666,197388,0.009950398,-0.21576159,0.43004465,0
29595000,29566333,197388,0.010100865,-0.21416448,0.42833823,0
29671000,29637285,197388,0.009787586,-0.21573928,0.43095356,0
29735000,29709000,197388,0.010540857,-0.21515557,0.42911658,0
29811000,29780142,197388,0.010571841,-0.2147968,0.4281424,0
29879000,29851666,197388,0.009663338,-0.21652624,0.4286918,0
29947000,29918333,197388,0.007872239,-0.21570385,0.42995864,0
30023000,29989285,197388,0.010908382,-0.2167275,0.43020415,0
30087000,30061000,197388,0.008907269,-0.21650845,0.42990813,0
30167000,30132714,197388,0.00960554,-0.2178474,0.42789757,0
30231000,30203666,197388,0.011690284,-0.21549854,0.42831028,0
30299000,30270333,197388,0.0093334,-0.2144959,0.4277078,0
30375000,30341285,197388,0.01166563,-0.21742994,0.42719895,0
30439000,30413000,197388,0.011329579,-0.21513328,0.43044895,0
30519000,30484714,197388,0.007058257,-0.21794777,0.42806956,0
30583000,30555666,197388,0.008311072,-0.21581742,0.42896473,0
30651000,30622333,197388,0.010273078,-0.21489535,0.42887753,0
30727000,30693285,197388,0.010441502,-0.21458837,0.42988205,0
30791000,30764333,197388,0.00734042,-0.21631259,0.42999646,0
30859000,30831000,197388,0.007446961,-0.21679723,0.42968392,0
30935000,30902428,197388,0.008801299,-0.21636099,0.4315874,0
31003000,30974333,197388,0.008825013,-0.21527165,0.42916617,0
31079000,31045285,197388,0.008848986,-0.21854267,0.42744857,0
31143000,31117000,197388,0.010599602,-0.2184622,0.42966455,0
31219000,31188142,197388,0.008545486,-0.21581118,0.43134743,0
31287000,31259666,197388,0.008681398,-0.21506897,0.43054244,0
31363000,31331000,197388,0.009419863,-0.21508682,0.42901725,0
31431000,31403000,197388,0.009377532,-0.21423845,0.4299332,0
31507000,31473857,197388,0.011092975,-0.21784998,0.4271814,0
31563000,31540600,197388,0.009311522,-0.21603015,0.431249,0
31651000,31612000,197388,0.009021943,-0.21541621,0.4284764,0
31707000,31683800,197388,0.00870629,-0.21711877,0.42816812,0
31795000,31755000,197388,0.009570265,-0.21660519,0.43044856,0
31847000,31826200,197388,0.007952684,-0.2143911,0.4307159,0
31935000,31898000,197388,0.009296639,-0.2132904,0.43072128,0
31991000,31969400,197388,0.011469941,-0.21400575,0.42874113,0
32079000,32041000,197388,0.012802257,-0.2146474,0.43032607,0
32135000,32112600,197388,0.008921352,-0.21672225,0.42687902,0
32223000,32184000,197388,0.010383884,-0.21573354,0.42919272,0
32279000,32255800,197388,0.008800856,-0.21653,0.43062162,0
32367000,32327000,197388,0.0113820825,-0.2186242,0.42945993,0
32419000,32398200,197388,0.007983894,-0.21714453,0.42953214,0
32507000,32470000,197388,0.011849795,-0.2159699,0.43039286,0
32563000,32541400,197388,0.008381163,-0.21734627,0.42572138,0
32651000,32613000,197388,0.006074829,-0.21681547,0.4290055,0
32707000,32684600,197388,0.0077773198,-0.21542993,0.42719802,0
32795000,32756000,197388,0.010118245,-0.21687351,0.42857316,0
32851000,32827800,197388,0.008753116,-0.2156631,0.43010098,0
32939000,32899000,197388,0.009695789,-0.21413179,0.42866635,0
32991000,32970200,197388,0.010279659,-0.21580401,0.42939684,0
33079000,33042000,197388,0.009849744,-0.21738367,0.42748925,0
33135000,33113400,197388,0.010874889,-0.21427229,0.4292105,0
33223000,33184500,197388,0.009175986,-0.21575096,0.42735025,0
33279000,33256600,197388,0.00817302,-0.21542935,0.4296983,0
33367000,33328000,197388,0.009986901,-0.21320708,0.4298037,0
33423000,33399800,197388,0.012640159,-0.2189219,0.42749926,0
33511000,33471000,197388,0.009470709,-0.21703622,0.4278913,0
33563000,33542200,197388,0.011308204,-0.2138013,0.4287985,0
33651000,33614000,197388,0.0073815454,-0.2180081,0.42985317,0
33707000,33685400,197388,0.0104414625,-0.21543017,0.42869005,0
33795000,33757000,197388,0.008297429,-0.21440646,0.4285292,0
33851000,33828600,197388,0.010431561,-0.21595655,0.4293264,0
33939000,33900000,197388,0.009947149,-0.21522304,0.43255728,0
33991000,33971000,197388,0.009292959,-0.2156096,0.4296321,0
34083000,34043000,197388,0.008170289,-0.21790439,0.4279498,0
34135000,34114200,197388,0.011493894,-0.21731365,0.42997885,0
34223000,34186000,197388,0.007843719,-0.21566021,0.42955863,0
34279000,34257400,197388,0.008930202,-0.21433114,0.42882386,0
34367000,34329000,197388,0.010452958,-0.2151736,0.42687732,0
34423000,34400600,197388,0.009631794,-0.217346,0.427991,0
34511000,34472000,197388,0.010061752,-0.2141429,0.42843854,0
34567000,34543800,197388,0.009924379,-0.21379717,0.42827758,0
34655000,34615000,197388,0.0072824857,-0.21519613,0.43012577,0
34707000,34686200,197388,0.010468766,-0.21408366,0.42640838,0
34795000,34758000,197388,0.008782881,-0.21791032,0.4285942,0
34851000,34829400,197388,0.010863334,-0.21508305,0.4289384,0
34939000,34900000,197388,0.009806143,-0.21617267,0.42593727,0
34983000,34967000,197388,0.0107200965,-0.21310325,0.43047225,0
35083000,35038555,197388,0.0098677175,-0.21250468,0.43029895,0
35127000,35109000,197388,0.012137918,-0.22055669,0.4264858,0
35215000,35176000,197388,0.0113563435,-0.2167709,0.42969656,0
35267000,35247000,197388,0.0074072867,-0.21752155,0.4301301,0
35359000,35319000,197388,0.008953208,-0.21687709,0.42819425,0
35411000,35390200,197388,0.0105027575,-0.21825497,0.4248291,0
35499000,35462000,197388,0.010138492,-0.21683815,0.43242785,0
35555000,35533400,197388,0.0076002143,-0.21473761,0.4289858,0
35643000,35605000,197388,0.011520153,-0.21434604,0.4302636,0
35699000,35675800,197388,0.011105577,-0.21525355,0.4274436,0
35787000,35748000,197388,0.010189638,-0.21598537,0.430645,0
35843000,35819800,197388,0.009433423,-0.21783026,0.43001857,0
35931000,35891000,197388,0.012346246,-0.216373,0.4271448,0
35983000,35962200,197388,0.011354255,-0.21602826,0.43208447,0
36071000,36034000,197388,0.00944276,-0.21653734,0.4277319,0
36127000,36105400,197388,0.009919109,-0.21814565,0.42816517,0
36215000,36176500,197388,0.009480475,-0.21558711,0.43018466,0
36271000,36248600,197388,0.0114764385,-0.21572812,0.4285966,0
36359000,36319500,197388,0.009470266,-0.21692066,0.43034464,0
36415000,36391800,197388,0.0093132425,-0.21543455,0.4279112,0
36503000,36463000,197388,0.010542784,-0.21592422,0.429424,0
36555000,36534200,197388,0.010338116,-0.21854566,0.42523456,0
36643000,36605500,197388,0.009262799,-0.21592402,0.42864633,0
36699000,36677400,197388,0.0076999674,-0.2167306,0.42949486,0
36787000,36749000,197388,0.009962125,-0.21556628,0.42697424,0
36843000,36820600,197388,0.014462381,-0.21724308,0.42877612,0
36931000,36892000,197388,0.0116038695,-0.21523805,0.42844307,0
36987000,36963800,197388,0.0084678745,-0.21308759,0.43045565,0
37075000,37035000,197388,0.011869961,-0.21671405,0.42794952,0
37127000,37106200,197388,0.008208001,-0.21812189,0.4283732,0
37215000,37178000,197388,0.01132637,-0.21626724,0.4265192,0
37271000,37249400,197388,0.007535574,-0.21467367,0.4289252,0
37359000,37321000,197388,0.009654341,-0.21502694,0.43134916,0
37415000,37392600,197388,0.009792191,-0.21798296,0.428648,0
37503000,37463500,197388,0.011226084,-0.21755072,0.42949256,0
37559000,37535800,197388,0.012174814,-0.21808593,0.42914352,0
37647000,37607000,197388,0.008489486,-0.21885978,0.4286508,0
37699000,37678200,197388,0.009673043,-0.21418665,0.43015143,0
37787000,37750000,197388,0.007996594,-0.2171788,0.42976883,0
37843000,37820600,197388,0.0070980513,-0.21468508,0.42922473,0
37919000,37887571,197388,0.010996555,-0.21304098,0.42913046,0
37987000,37959000,197388,0.010685785,-0.21476051,0.43009472,0
38063000,38030428,197388,0.009868352,-0.21723652,0.42759365,0
38127000,38101666,197388,0.009558713,-0.21719216,0.43028852,0
38207000,38173285,197388,0.009321679,-0.21738496,0.42824844,0
38271000,38245000,197388,0.009965838,-0.21596913,0.43110868,0
38351000,38316714,197388,0.0105440235,-0.21539849,0.427652,0
38415000,38387666,197388,0.014076544,-0.21655157,0.43013966,0
38483000,38454333,197388,0.010502983,-0.21503681,0.4287969,0
38559000,38525285,197388,0.009454506,-0.21732998,0.42920625,0
38623000,38597000,197388,0.0087554995,-0.21681629,0.42845482,0
38703000,38668714,197388,0.009493867,-0.21914841,0.4308905,0
38767000,38739666,197388,0.008058397,-0.21566491,0.42976898,0
38843000,38811000,197388,0.0077836933,-0.21562663,0.43025383,0
38911000,38883000,197388,0.00955452,-0.217078,0.4313702,0
38987000,38954428,197388,0.0090530235,-0.2181505,0.43044007,0
39055000,39026333,197388,0.009958675,-0.21940652,0.43117353,0
39131000,39097285,197388,0.011644066,-0.21262935,0.43149513,0
39195000,39168333,197388,0.010622929,-0.2150651,0.42945373,0
39263000,39235000,197388,0.009532668,-0.21542558,0.42831755,0
39339000,39306428,197388,0.00954357,-0.21875077,0.42870826,0
39407000,39378333,197388,0.011097963,-0.22017479,0.4319703,0
39483000,39449285,197388,0.010562631,-0.21628097,0.43007186,0
39547000,39520333,197388,0.0077188816,-0.2145114,0.42765152,0
39615000,39587000,197388,0.00987705,-0.21548715,0.4310125,0
39691000,39658428,197388,0.011712519,-0.21774228,0.4291239,0
39759000,39729666,197388,0.010986725,-0.21743184,0.42946932,0
39835000,39801285,197388,0.01284092,-0.2138464,0.43190104,0
39899000,39873000,197388,0.009593712,-0.21678996,0.43049645,0
39979000,39944714,197388,0.011231578,-0.2186561,0.42757744,0
40043000,40015666,197388,0.012534241,-0.21657798,0.42768273,0
40119000,40087000,197388,0.010341018,-0.2168761,0.42854297,0
40187000,40159000,197388,0.009192668,-0.21521203,0.42693302,0
40263000,40230428,197388,0.009960881,-0.21467578,0.4268666,0
40331000,40302333,197388,0.00973889,-0.21700935,0.42956972,0
40407000,40373285,197388,0.009540096,-0.21307342,0.42610714,0
40471000,40445000,197388,0.0079497425,-0.21256113,0.43429208,0
40551000,40516714,197388,0.010737548,-0.21746711,0.427533,0
40615000,40587666,197388,0.007780444,-0.21539763,0.4290489,0
40691000,40659000,197388,0.009573527,-0.21393493,0.42720425,0
40759000,40731000,197388,0.01158566,-0.21478844,0.43099937,0
40835000,40801857,197388,0.008156389,-0.21068639,0.42848498,0
40903000,40873666,197388,0.012079454,-0.21613243,0.43141648,0
40979000,40945285,197388,0.010920799,-0.2153461,0.43066716,0
41043000,41017000,197388,0.005867919,-0.21549079,0.4272182,0
41123000,41088714,197388,0.008414529,-0.21578321,0.42743602,0
41187000,41159666,197388,0.009227212,-0.21718442,0.42939875,0
41255000,41226333,197388,0.007947839,-0.2185269,0.43012473,0
41331000,41297285,197388,0.009295507,-0.21708015,0.43123657,0
41395000,41369000,197388,0.012332933,-0.21502051,0.43066162,0
41475000,41440714,197388,0.008172493,-0.21636146,0.4269287,0
41539000,41511666,197388,0.012959724,-0.2150334,0.43290347,0
41607000,41578333,197388,0.00840527,-0.21611187,0.4331929,0
41683000,41648714,197388,0.010326695,-0.21555044,0.42938498,0
41747000,41720333,197388,0.00925058,-0.21430552,0.43152583,0
41815000,41787000,197388,0.00792769,-0.21570262,0.4301303,0
41891000,41858428,197388,0.009686677,-0.21794052,0.42978075,0
41959000,41929666,197388,0.015034115,-0.21663275,0.42751464,0
42035000,42001285,197388,0.0078074457,-0.21708827,0.42883286,0
42099000,42073000,197388,0.007351817,-0.21666935,0.42798528,0
42179000,42144714,197388,0.007740325,-0.21539488,0.42747995,0
42243000,42215666,197388,0.009356461,-0.21483853,0.42560524,0
42319000,42287000,197388,0.008338818,-0.21504456,0.43006954,0
42387000,42359000,197388,0.01004332,-0.21936636,0.42994368,0
42463000,42430428,197388,0.009859073,-0.21447624,0.42855963,0
42531000,42502333,197388,0.009872614,-0.21808952,0.4305569,0
42607000,42573285,197388,0.009196695,-0.21600468,0.4290033,0
42671000,42645000,197388,0.01051935,-0.21508345,0.430646,0
42751000,42716714,197388,0.008761653,-0.21958669,0.42882514,0
42815000,42787666,197388,0.013015896,-0.21565902,0.43110824,0
42883000,42854333,197388,0.008024744,-0.21643302,0.4282137,0
42959000,42925285,197388,0.011785791,-0.21667238,0.42950037,0
43023000,42997000,197388,0.009453966,-0.21621478,0.43070513,0
43103000,43068714,197388,0.012974192,-0.21455905,0.4284244,0
43167000,43139666,197388,0.008674232,-0.21687198,0.42864186,0
43235000,43206333,197388,0.009715061,-0.21597457,0.43020973,0
43311000,43277285,197388,0.01033414,-0.21477404,0.42984226,0
43375000,43349000,197388,0.010715686,-0.21530329,0.43152866,0
43455000,43420714,197388,0.009858936,-0.21344,0.43083242,0
43519000,43491666,197388,0.009844111,-0.21682453,0.42884052,0
43587000,43558333,197388,0.0076216473,-0.21521613,0.42733383,0
43663000,43629285,197388,0.007500567,-0.21502185,0.42927557,0
43727000,43701000,197388,0.0075017456,-0.21632287,0.4290981,0
43803000,43772142,197388,0.010925039,-0.21654043,0.43020135,0
43871000,43843666,197388,0.009365164,-0.21460357,0.42768782,0
43939000,43910333,197388,0.007526785,-0.21555343,0.4297417,0
44015000,43981285,197388,0.009531179,-0.21782881,0.43077576,0
44079000,44053000,197388,0.009797499,-0.21511333,0.4304059,0
44159000,44124142,197388,0.010300066,-0.21728268,0.43081766,0
44223000,44195666,197388,0.008630207,-0.21593621,0.42999882,0
44291000,44262333,197388,0.010114673,-0.2158206,0.43052608,0
44367000,44333285,197388,0.0098745255,-0.21659613,0.430268,0
44431000,44404333,197388,0.009491637,-0.2191099,0.43067,0
44511000,44476142,197388,0.007902417,-0.2194368,0.4300388,0
44575000,44547000,197388,0.008459277,-0.2155156,0.4303696,0
44643000,44614333,197388,0.00911558,-0.21483606,0.43270642,0
44719000,44685285,197388,0.0094239805,-0.21571046,0.42880848,0
44783000,44757000,197388,0.0097295325,-0.21605724,0.43048215,0
44863000,44828714,197388,0.009465933,-0.21715899,0.43082845,0
44927000,44899666,197388,0.009974437,-0.21754998,0.42809653,0
44995000,44966333,197388,0.008663274,-0.21723007,0.4267606,0
45071000,45037285,197388,0.009748882,-0.21611992,0.4280938,0
45135000,45109000,197388,0.009602333,-0.21745789,0.4286325,0
45215000,45180714,197388,0.008941814,-0.21470182,0.4300523,0
45279000,45251666,197388,0.011595125,-0.21460137,0.43037206,0
45347000,45318333,197388,0.012035107,-0.21765122,0.43039024,0
45423000,45389285,197388,0.008396071,-0.21504755,0.4293868,0
45487000,45461000,197388,0.011489229,-0.21666156,0.42798814,0
45567000,45532714,197388,0.0076768124,-0.21574895,0.4262493,0
45631000,45603666,197388,0.011039123,-0.21412495,0.43050525,0
45699000,45670333,197388,0.010854211,-0.21625933,0.42966378,0
45775000,45741285,197388,0.0115309395,-0.2175358,0.43023708,0
45839000,45813000,197388,0.010732485,-0.21678627,0.4300608,0
45919000,45884714,197388,0.010512096,-0.21522534,0.43010572,0
45983000,45955666,197388,0.012681129,-0.2141671,0.42899188,0
46051000,46022333,197388,0.0092164725,-0.21837103,0.4283352,0
46127000,46093285,197388,0.008966128,-0.2158459,0.43126464,0
46191000,46165000,197388,0.008019945,-0.21562964,0.42872357,0
46271000,46236714,197388,0.00976866,-0.21575756,0.42796856,0
46335000,46307666,197388,0.013204088,-0.21514527,0.4273344,0
46403000,46374333,197388,0.009960285,-0.21709916,0.42959726,0
46479000,46445285,197388,0.009952042,-0.21718676,0.42883387,0
46543000,46517000,197388,0.010042153,-0.21462777,0.4292593,0
46623000,46588714,197388,0.009796132,-0.21842866,0.4309215,0
46687000,46659666,197388,0.009431836,-0.21900211,0.4275632,0
46755000,46726333,197388,0.011305796,-0.21670882,0.42790827,0
46831000,46797285,197388,0.011074375,-0.21674219,0.42931747,0
46895000,46869000,197388,0.010127135,-0.21893954,0.42929566,0
46975000,46940714,197388,0.010176902,-0.21540464,0.43122143,0
47039000,47011666,197388,0.0104898615,-0.21571022,0.42929897,0
47107000,47078333,197388,0.0118684415,-0.2158343,0.4271803,0
47183000,47149285,197388,0.009653462,-0.21712096,0.43111074,0
47247000,47220333,197388,0.010433262,-0.21657619,0.42658246,0
47315000,47287000,197388,0.010644516,-0.21583974,0.4277951,0
47391000,47358428,197388,0.00795473,-0.21316047,0.43016624,0
47459000,47430333,197388,0.009121946,-0.21381724,0.43113816,0
47535000,47501285,197388,0.011671976,-0.21598971,0.42927086,0
47599000,47573000,197388,0.010107907,-0.21536177,0.4260121,0
47675000,47644142,197388,0.008864159,-0.21613146,0.430072,0
47743000,47715666,197388,0.010241596,-0.21620825,0.4283697,0
47811000,47782333,197388,0.009316988,-0.2180633,0.42875227,0
47887000,47852714,197388,0.010497895,-0.21504636,0.42644966,0
47943000,47919800,197388,0.0068171816,-0.2154692,0.4301519,0
48031000,47991000,197388,0.011000318,-0.21652205,0.4311716,0
48083000,48062200,197388,0.010873984,-0.21694298,0.42998153,0
48171000,48134000,197388,0.011348603,-0.215302,0.4287476,0
48227000,48205400,197388,0.0083060535,-0.21815424,0.4312965,0
48315000,48277000,197388,0.010528114,-0.2167861,0.4291762,0
48371000,48348600,197388,0.010473979,-0.2148741,0.4301342,0
48459000,48420000,197388,0.009209847,-0.21704108,0.4299947,0
48515000,48491800,197388,0.008343901,-0.2148575,0.42777824,0
48603000,48563000,197388,0.009892866,-0.2186088,0.4297578,0
48655000,48634200,197388,0.008948964,-0.2164899,0.43202835,0
48743000,48706000,197388,0.009894806,-0.21449973,0.42942926,0
48799000,48777400,197388,0.0137532195,-0.21516445,0.4306759,0
48887000,48849000,197388,0.009493066,-0.21543583,0.42810827,0
48943000,48920600,197388,0.00875845,-0.2130581,0.42797682,0
49031000,48991500,197388,0.009668486,-0.21701656,0.42815354,0
49087000,49063800,197388,0.010039768,-0.21592982,0.4280222,0
49175000,49135000,197388,0.01138687,-0.21708778,0.42833135,0
49227000,49206200,197388,0.012624991,-0.2143542,0.42861667,0
49315000,49278000,197388,0.009872322,-0.21682182,0.42818996,0
49371000,49349400,197388,0.007285081,-0.2152539,0.42959914,0
49459000,49421000,197388,0.007867462,-0.21769916,0.42936924,0
49515000,49492600,197388,0.008522257,-0.2151423,0.42746472,0
49603000,49564000,197388,0.012770834,-0.21616887,0.4304188,0
49655000,49635000,197388,0.008169625,-0.21629801,0.43060413,0
49747000,49707000,197388,0.008613486,-0.21594295,0.42946836,0
49799000,49778200,197388,0.011449298,-0.21722174,0.42834058,0
49887000,49850000,197388,0.008517607,-0.21739002,0.4284796,0
49943000,49921400,197388,0.0092402855,-0.21693905,0.42871967,0
50031000,49993000,197388,0.010618052,-0.2188275,0.43220183,0
50087000,50064600,197388,0.0077598887,-0.21780048,0.42977095,0
50175000,50135500,197388,0.008308915,-0.2160382,0.43056536,0
50231000,50207800,197388,0.008055829,-0.21334957,0.429279,0
50319000,50279000,197388,0.011585829,-0.21475664,0.4309515,0
50371000,50349400,197388,0.008004537,-0.21646659,0.431773,0
50451000,50416714,197388,0.010038686,-0.21430542,0.428837,0
50515000,50487666,197388,0.00854875,-0.21451764,0.4279134,0
50583000,50554333,197388,0.00905575,-0.21838444,0.43300232,0
50659000,50625285,197388,0.009448361,-0.21531144,0.42727283,0
50723000,50697000,197388,0.0117382,-0.21439175,0.42590833,0
50803000,50768714,197388,0.010950533,-0.21651174,0.43098462,0
50867000,50839666,197388,0.011807395,-0.21185039,0.42958176,0
50935000,50906333,197388,0.010300338,-0.21912746,0.4307511,0
51011000,50977285,197388,0.010785163,-0.21606751,0.42767242,0
51075000,51049000,197388,0.008733662,-0.21691757,0.42746016,0
51155000,51120142,197388,0.008023204,-0.21710365,0.4294198,0
51219000,51191666,197388,0.0071377177,-0.21744953,0.4300577,0
51287000,51258333,197388,0.009933713,-0.2160316,0.42918298,0
51363000,51329285,197388,0.008703442,-0.21425287,0.42758623,0
51427000,51401000,197388,0.007830255,-0.21583521,0.4289461,0
51507000,51472142,197388,0.013531404,-0.21687776,0.42882785,0
51571000,51543666,197388,0.0071926634,-0.21663767,0.4279688,0
51639000,51610333,197388,0.008698255,-0.21597528,0.42755672,0
51715000,51681285,197388,0.010276737,-0.21698838,0.42690623,0
51779000,51753000,197388,0.010698758,-0.21910468,0.42827353,0
51859000,51824714,197388,0.010150044,-0.2152721,0.42967552,0
51923000,51895666,197388,0.010970733,-0.21506202,0.4285617,0
51991000,51962333,197388,0.010759298,-0.2164152,0.43042606,0
52067000,52033285,197388,0.011149665,-0.21640714,0.42846635,0
52131000,52105000,197388,0.010948019,-0.2171483,0.42855,0
52211000,52176142,197388,0.009851593,-0.21348916,0.4317844,0
52275000,52247666,197388,0.011063753,-0.21960954,0.43131346,0
52351000,52319000,197388,0.011870271,-0.21621661,0.42891297,0
52419000,52391000,197388,0.008211446,-0.21435723,0.4296906,0
52495000,52462428,197388,0.010422799,-0.217543,0.42865545,0
52563000,52534333,197388,0.008987827,-0.21713375,0.42914027,0
52639000,52605285,197388,0.012625716,-0.21512309,0.4266264,0
52703000,52677000,197388,0.010310275,-0.21634345,0.42870173,0
52783000,52748714,197388,0.009809325,-0.21923809,0.43087974,0
52847000,52819666,197388,0.008239239,-0.21734828,0.43230343,0
52915000,52886333,197388,0.008148717,-0.2179907,0.4288602,0
52991000,52957285,197388,0.010885451,-0.21527097,0.42691308,0
53055000,53029000,197388,0.0073517384,-0.21786234,0.42815846,0
53135000,53100142,197388,0.008744887,-0.21782008,0.43040442,0
53199000,53171666,197388,0.009797931,-0.21786845,0.42794323,0
53275000,53243000,197388,0.010924736,-0.21675983,0.43009463,0
53343000,53315000,197388,0.009373952,-0.21820027,0.42604107,0
53419000,53386428,197388,0.011462104,-0.21446046,0.42833355,0
53487000,53458333,197388,0.008445488,-0.21438742,0.4315661,0
53563000,53529285,197388,0.011045275,-0.21615553,0.4301153,0
53627000,53601000,197388,0.009113551,-0.21521485,0.43005034,0
53707000,53672714,197388,0.012888167,-0.21745983,0.42969447,0
53771000,53743666,197388,0.009587484,-0.21459997,0.4295817,0
53847000,53815000,197388,0.0072405785,-0.21731624,0.42962876,0
53915000,53887000,197388,0.008379944,-0.2136724,0.4327913,0
53991000,53958428,197388,0.007924224,-0.214654,0.4275177,0
54059000,54030333,197388,0.008468467,-0.21714073,0.42983624,0
54135000,54101285,197388,0.011857269,-0.21561205,0.42930347,0
54199000,54173000,197388,0.0073070107,-0.21827942,0.42794532,0
54279000,54244714,197388,0.01008377,-0.2163147,0.43070614,0
