timestamp,unallocated_torque[0],unallocated_torque[1],unallocated_torque[2],unallocated_thrust[0],unallocated_thrust[1],unallocated_thrust[2],handled_motor_failure_mask,torque_setpoint_achieved,thrust_setpoint_achieved,actuator_saturation[0],actuator_saturation[1],actuator_saturation[2],actuator_saturation[3],actuator_saturation[4],actuator_saturation[5],actuator_saturation[6],actuator_saturation[7],actuator_saturation[8],actuator_saturation[9],actuator_saturation[10],actuator_saturation[11],actuator_saturation[12],actuator_saturation[13],actuator_saturation[14],actuator_saturation[15]
4435000,-0.006826291,-0.00382195,0.0007128761,0.0,0.0,1.1641532e-10,0,0,1,-2,-2,-2,-2,2,2,2,2,2,2,2,2,2,2,2,2
4443000,0.0007927173,0.0066898847,0.0008343403,0.0,0.0,0.0,0,0,1,-2,-2,-2,-2,2,2,2,2,2,2,2,2,2,2,2,2
4635000,0.0139282085,0.0016170854,0.00034138467,0.0,0.0,1.7640486e-10,0,0,1,-2,-2,-2,-2,2,2,2,2,2,2,2,2,2,2,2,2
4835000,0.0034279032,0.0045680273,-0.0007626845,0.0,0.0,7.9590064e-11,0,0,1,-2,-2,-2,-2,2,2,2,2,2,2,2,2,2,2,2,2
5035000,-0.007674246,0.012439559,0.0014205906,0.0,0.0,0.0,0,0,1,-2,-2,-2,-2,2,2,2,2,2,2,2,2,2,2,2,2
5235000,-0.00041735516,0.00071607204,0.0015036175,0.0,0.0,2.910383e-11,0,0,1,-2,-2,-2,-2,2,2,2,2,2,2,2,2,2,2,2,2
5427000,0.00017509861,0.0012678592,-0.0016099997,0.0,0.0,-1.1641532e-10,0,0,1,0,-2,0,-2,2,2,2,2,2,2,2,2,2,2,2,2
5635000,0.004931675,-0.003822504,-0.0005736009,0.0,0.0,0.0,0,0,1,-2,0,-2,0,2,2,2,2,2,2,2,2,2,2,2,2
5835000,0.0006499742,0.0038675265,-0.0002112245,0.0,0.0,-1.1641532e-10,0,0,1,0,-2,0,-2,2,2,2,2,2,2,2,2,2,2,2,2
6035000,-0.01626972,0.0033304072,-0.0004427468,0.0,0.0,1.1641532e-10,0,0,1,0,-2,0,-2,2,2,2,2,2,2,2,2,2,2,2,2
6235000,-0.0044714883,0.004442621,-0.0011056077,0.0,0.0,1.1641532e-10,0,0,1,0,-2,0,-2,2,2,2,2,2,2,2,2,2,2,2,2
6435000,-0.0033346924,6.9849193e-10,0.03726687,0.0,0.0,1.1641532e-10,0,0,1,0,0,0,-2,2,2,2,2,2,2,2,2,2,2,2,2
6635000,1.3096724e-10,-5.820766e-11,0.003931608,0.0,0.0,0.0,0,0,1,0,0,-2,0,2,2,2,2,2,2,2,2,2,2,2,2
6835000,-0.00051314966,-0.008515672,-0.0013986931,0.0,0.0,-2.3283064e-10,0,0,1,-2,0,-2,0,2,2,2,2,2,2,2,2,2,2,2,2
7035000,0.009814396,0.005255591,-0.000593552,0.0,0.0,-1.1641532e-10,0,0,1,0,-2,0,-2,2,2,2,2,2,2,2,2,2,2,2,2
7235000,0.00135174,-0.00019006734,-0.001313889,0.0,0.0,-1.1641532e-10,0,0,1,-2,0,-2,0,2,2,2,2,2,2,2,2,2,2,2,2
7435000,0.0036642186,0.0027710362,-0.0001335057,0.0,0.0,-1.1641532e-10,0,0,1,0,-2,0,-2,2,2,2,2,2,2,2,2,2,2,2,2
7635000,0.00030662285,0.0061841845,-0.0012255313,0.0,0.0,1.1641532e-10,0,0,1,0,-2,0,-2,2,2,2,2,2,2,2,2,2,2,2,2
7835000,-0.0039607976,0.0060177576,-0.00068153697,0.0,0.0,-1.1641532e-10,0,0,1,0,-2,0,-2,2,2,2,2,2,2,2,2,2,2,2,2
8035000,0.011283716,-1.7462298e-10,2.764864e-10,0.0,0.0,-4.656613e-10,0,0,1,0,0,0,0,2,2,2,2,2,2,2,2,2,2,2,2
8235000,-0.0029448178,-0.0014090489,-0.0012572883,0.0,0.0,-1.1641532e-10,0,0,1,-2,0,-2,0,2,2,2,2,2,2,2,2,2,2,2,2
8435000,0.0029180192,0.0033769647,-0.00032993613,0.0,0.0,-1.1641532e-10,0,0,1,0,-2,0,-2,2,2,2,2,2,2,2,2,2,2,2,2
8635000,0.0027885577,0.005694816,-0.0009736005,0.0,0.0,-1.1641532e-10,0,0,1,0,-2,0,-2,2,2,2,2,2,2,2,2,2,2,2,2
8835000,0.001348933,0.017979605,-0.00016750065,0.0,0.0,1.1641532e-10,0,0,1,0,-2,0,-2,2,2,2,2,2,2,2,2,2,2,2,2
9035000,0.008391436,0.006060521,-5.4881006e-05,0.0,0.0,-1.1641532e-10,0,0,1,0,-2,0,-2,2,2,2,2,2,2,2,2,2,2,2,2
9235000,0.0072491365,0.00079481665,-0.0005908748,0.0,0.0,1.1641532e-10,0,0,1,0,-2,0,-2,2,2,2,2,2,2,2,2,2,2,2,2
9435000,0.009039494,0.0085454695,0.00012089813,0.0,0.0,3.4924597e-10,0,0,1,0,-2,0,-2,2,2,2,2,2,2,2,2,2,2,2,2
9635000,0.015554977,0.0053304727,0.0011243179,0.0,0.0,1.1641532e-10,0,0,1,0,-2,0,-2,2,2,2,2,2,2,2,2,2,2,2,2
9835000,0.0026647307,0.0061158882,-0.001783545,0.0,0.0,-1.1641532e-10,0,0,1,0,-2,0,-2,2,2,2,2,2,2,2,2,2,2,2,2
10035000,0.0012993672,0.001902874,-0.0017116324,0.0,0.0,0.0,0,0,1,0,-2,0,-2,2,2,2,2,2,2,2,2,2,2,2,2
10235000,-0.0006346082,0.00996962,-0.00037914573,0.0,0.0,-1.1641532e-10,0,0,1,0,-2,0,-2,2,2,2,2,2,2,2,2,2,2,2,2
10435000,0.004085879,0.00039596925,-1.8351093e-05,0.0,0.0,0.0,0,0,1,0,-2,0,-2,2,2,2,2,2,2,2,2,2,2,2,2
10635000,0.005391123,0.0036543116,0.00037163304,0.0,0.0,-1.1641532e-10,0,0,1,0,-2,0,-2,2,2,2,2,2,2,2,2,2,2,2,2
10835000,0.0034875234,0.015093668,-0.00029733,0.0,0.0,1.1641532e-10,0,0,1,0,-2,0,-2,2,2,2,2,2,2,2,2,2,2,2,2
11035000,0.0066985264,0.0099706715,-0.0022233883,0.0,0.0,1.1641532e-10,0,0,1,0,-2,0,-2,2,2,2,2,2,2,2,2,2,2,2,2
11235000,-0.00091735675,0.004227849,-0.0017120629,0.0,0.0,-1.1641532e-10,0,0,1,0,-2,0,-2,2,2,2,2,2,2,2,2,2,2,2,2
11435000,-0.0011316584,0.009549659,0.0009332823,0.0,0.0,-1.1641532e-10,0,0,1,0,-2,0,-2,2,2,2,2,2,2,2,2,2,2,2,2
11635000,-0.0039493996,0.0035293507,-0.0011394606,0.0,0.0,1.1641532e-10,0,0,1,0,-2,0,-2,2,2,2,2,2,2,2,2,2,2,2,2
11835000,0.0032804485,0.007734025,0.00039661588,0.0,0.0,-1.1641532e-10,0,0,1,0,-2,0,-2,2,2,2,2,2,2,2,2,2,2,2,2
12035000,0.0062295087,0.01055096,-0.00012193761,0.0,0.0,1.1641532e-10,0,0,1,0,-2,0,-2,2,2,2,2,2,2,2,2,2,2,2,2
12235000,0.0016360991,0.0015873887,-0.0009149877,0.0,0.0,0.0,0,0,1,0,-2,0,-2,2,2,2,2,2,2,2,2,2,2,2,2
12435000,0.0078800805,0.006218304,-0.0012158703,0.0,0.0,-1.1641532e-10,0,0,1,0,-2,0,-2,2,2,2,2,2,2,2,2,2,2,2,2
12635000,-0.0018089251,0.0011964994,-0.0008221123,0.0,0.0,0.0,0,0,1,0,-2,0,-2,2,2,2,2,2,2,2,2,2,2,2,2
12835000,0.00023970404,0.0031426495,0.00074068934,0.0,0.0,-1.1641532e-10,0,0,1,0,-2,0,-2,2,2,2,2,2,2,2,2,2,2,2,2
13035000,0.003466777,0.0,-0.0001420837,0.0,0.0,-1.1641532e-10,0,0,1,-2,0,0,0,2,2,2,2,2,2,2,2,2,2,2,2
13235000,-0.006131474,-0.0028462156,-0.0010043435,0.0,0.0,-1.1641532e-10,0,0,1,-2,0,-2,0,2,2,2,2,2,2,2,2,2,2,2,2
13435000,-0.006222779,0.0006263547,0.0011096986,0.0,0.0,-1.1641532e-10,0,0,1,0,-2,0,-2,2,2,2,2,2,2,2,2,2,2,2,2
13635000,1.7462298e-10,0.0,7.2759576e-11,0.0,0.0,-1.1641532e-10,0,1,1,0,0,0,0,2,2,2,2,2,2,2,2,2,2,2,2
13835000,-0.0054429206,0.008217258,-2.2937977e-05,0.0,0.0,3.4924597e-10,0,0,1,0,-2,0,-2,2,2,2,2,2,2,2,2,2,2,2,2
14035000,0.0028971971,0.0016612934,-0.00024259834,0.0,0.0,-1.1641532e-10,0,0,1,0,-2,0,-2,2,2,2,2,2,2,2,2,2,2,2,2
14235000,-0.0029773437,0.0013917289,-0.0022140963,0.0,0.0,0.0,0,0,1,0,-2,0,-2,2,2,2,2,2,2,2,2,2,2,2,2
14435000,-0.0068294597,-0.0024559554,-0.0007783562,0.0,0.0,1.1641532e-10,0,0,1,-2,0,-2,0,2,2,2,2,2,2,2,2,2,2,2,2
14635000,-0.011302931,-0.0029655213,-0.0005144242,0.0,0.0,-1.1641532e-10,0,0,1,-2,0,-2,0,2,2,2,2,2,2,2,2,2,2,2,2
14835000,-0.008792932,-0.0014408344,-0.00046211117,0.0,0.0,0.0,0,0,1,-2,0,-2,0,2,2,2,2,2,2,2,2,2,2,2,2
15035000,-0.0008181939,-0.0012176847,-0.00122916,0.0,0.0,-1.1641532e-10,0,0,1,-2,0,-2,0,2,2,2,2,2,2,2,2,2,2,2,2
15235000,-9.043951e-05,0.008928374,-0.000336988,0.0,0.0,1.1641532e-10,0,0,1,0,-2,0,-2,2,2,2,2,2,2,2,2,2,2,2,2
15435000,-0.013599209,0.004199707,-0.00030041358,0.0,0.0,3.4924597e-10,0,0,1,0,-2,0,-2,2,2,2,2,2,2,2,2,2,2,2,2
15635000,-1.1641532e-10,-1.3096724e-10,-0.001072885,0.0,0.0,0.0,0,0,1,-2,0,0,0,2,2,2,2,2,2,2,2,2,2,2,2
15835000,-4.9133785e-05,2.910383e-11,0.0006657481,0.0,0.0,-1.1641532e-10,0,1,1,0,0,-2,0,2,2,2,2,2,2,2,2,2,2,2,2
16035000,-0.0014612029,0.0084709115,0.00034354063,0.0,0.0,-2.3283064e-10,0,0,1,0,-2,0,-2,2,2,2,2,2,2,2,2,2,2,2,2
16235000,-0.011175509,0.0026636766,0.00012769771,0.0,0.0,0.0,0,0,1,0,-2,0,-2,2,2,2,2,2,2,2,2,2,2,2,2
16435000,-0.002035762,0.008017453,-0.001724165,0.0,0.0,-1.1641532e-10,0,0,1,0,-2,0,-2,2,2,2,2,2,2,2,2,2,2,2,2
16635000,0.005828264,0.010539383,0.000288552,0.0,0.0,0.0,0,0,1,0,-2,0,-2,2,2,2,2,2,2,2,2,2,2,2,2
16835000,-0.0022005043,-0.0048719402,0.00044196454,0.0,0.0,2.3283064e-10,0,0,1,-2,0,-2,0,2,2,2,2,2,2,2,2,2,2,2,2
17035000,-0.0045232926,0.004736254,4.8880033e-06,0.0,0.0,-1.1641532e-10,0,0,1,0,-2,0,-2,2,2,2,2,2,2,2,2,2,2,2,2
17227000,0.00047716603,0.0036824315,-0.000566006,0.0,0.0,-1.1641532e-10,0,0,1,0,-2,0,-2,2,2,2,2,2,2,2,2,2,2,2,2
17435000,-0.012888338,-0.006938455,-0.00032336128,0.0,0.0,1.1641532e-10,0,0,1,-2,0,-2,0,2,2,2,2,2,2,2,2,2,2,2,2
17635000,0.004492602,-0.0033790702,-0.0006241299,0.0,0.0,1.1641532e-10,0,0,1,-2,0,-2,0,2,2,2,2,2,2,2,2,2,2,2,2
17835000,0.00018617246,-0.005275671,-0.00043416754,0.0,0.0,0.0,0,0,1,-2,0,-2,0,2,2,2,2,2,2,2,2,2,2,2,2
18035000,0.005259963,0.0005907698,-0.00072207686,0.0,0.0,-1.1641532e-10,0,0,1,0,-2,0,-2,2,2,2,2,2,2,2,2,2,2,2,2
18235000,0.001331674,-0.0012099158,-0.0010159796,0.0,0.0,-1.1641532e-10,0,0,1,-2,0,-2,0,2,2,2,2,2,2,2,2,2,2,2,2
18435000,-0.0083850715,0.0055310954,0.00043533172,0.0,0.0,1.1641532e-10,0,0,1,0,-2,0,-2,2,2,2,2,2,2,2,2,2,2,2,2
18635000,0.0050132833,-5.820766e-11,5.820766e-11,0.0,0.0,-1.1641532e-10,0,0,1,0,0,0,0,2,2,2,2,2,2,2,2,2,2,2,2
18835000,0.0070909974,-0.007350824,0.0004999882,0.0,0.0,3.4924597e-10,0,0,1,-2,0,-2,0,2,2,2,2,2,2,2,2,2,2,2,2
19035000,0.0014880636,-0.00026421074,-0.0009773388,0.0,0.0,-1.1641532e-10,0,0,1,-2,0,-2,0,2,2,2,2,2,2,2,2,2,2,2,2
19235000,0.00084360514,0.00017730752,-0.001364808,0.0,0.0,-1.1641532e-10,0,0,1,0,-2,0,-2,2,2,2,2,2,2,2,2,2,2,2,2
19435000,0.0030726711,0.007462737,1.5782727e-05,0.0,0.0,-2.3283064e-10,0,0,1,0,-2,0,-2,2,2,2,2,2,2,2,2,2,2,2,2
19635000,-0.0013145383,0.0013745944,-0.00028217252,0.0,0.0,1.1641532e-10,0,0,1,0,-2,0,-2,2,2,2,2,2,2,2,2,2,2,2,2
19835000,0.0061102984,0.0041687908,-0.00040729594,0.0,0.0,-1.1641532e-10,0,0,1,0,-2,0,-2,2,2,2,2,2,2,2,2,2,2,2,2
20035000,0.0010324878,-0.0032364272,0.00036000888,0.0,0.0,-1.1641532e-10,0,0,1,-2,0,-2,0,2,2,2,2,2,2,2,2,2,2,2,2
20235000,0.012451475,0.0061467225,-0.00091945496,0.0,0.0,-1.1641532e-10,0,0,1,0,-2,0,-2,2,2,2,2,2,2,2,2,2,2,2,2
20435000,0.0,5.820766e-11,-3.9284496e-06,0.0,0.0,0.0,0,1,1,-2,0,0,0,2,2,2,2,2,2,2,2,2,2,2,2
20627000,-0.009940166,-0.00014202378,0.0004095066,0.0,0.0,1.1641532e-10,0,0,1,-2,0,-2,0,2,2,2,2,2,2,2,2,2,2,2,2
20835000,0.0069213365,0.00787697,-0.0007516975,0.0,0.0,-1.1641532e-10,0,0,1,0,-2,0,-2,2,2,2,2,2,2,2,2,2,2,2,2
21035000,0.00988903,0.0050265184,3.7404036e-05,0.0,0.0,-1.1641532e-10,0,0,1,0,-2,0,-2,2,2,2,2,2,2,2,2,2,2,2,2
21235000,0.005645811,0.012993618,-0.00068149035,0.0,0.0,1.1641532e-10,0,0,1,0,-2,0,-2,2,2,2,2,2,2,2,2,2,2,2,2
21435000,0.002316814,0.0022629397,-0.0018769652,0.0,0.0,-2.3283064e-10,0,0,1,0,-2,0,-2,2,2,2,2,2,2,2,2,2,2,2,2
21635000,0.010619019,0.0022189966,0.0005433066,0.0,0.0,0.0,0,0,1,0,-2,0,-2,2,2,2,2,2,2,2,2,2,2,2,2
21835000,0.012484328,0.009503065,-0.00022952097,0.0,0.0,-2.3283064e-10,0,0,1,0,-2,0,-2,2,2,2,2,2,2,2,2,2,2,2,2
22035000,0.0072832378,0.0054334756,-0.0002939566,0.0,0.0,-1.1641532e-10,0,0,1,0,-2,0,-2,2,2,2,2,2,2,2,2,2,2,2,2
22235000,0.0077131777,0.012766627,-0.00048131196,0.0,0.0,1.1641532e-10,0,0,1,0,-2,0,-2,2,2,2,2,2,2,2,2,2,2,2,2
22435000,-0.0028342963,0.0014961498,0.00079099904,0.0,0.0,-2.3283064e-10,0,0,1,0,-2,0,-2,2,2,2,2,2,2,2,2,2,2,2,2
22635000,0.0076814354,0.00679898,4.32245e-05,0.0,0.0,-1.1641532e-10,0,0,1,0,-2,0,-2,2,2,2,2,2,2,2,2,2,2,2,2
22835000,0.016307065,-0.0021628765,-0.0008808296,0.0,0.0,2.3283064e-10,0,0,1,-2,0,-2,0,2,2,2,2,2,2,2,2,2,2,2,2
23035000,-0.0011448184,5.820766e-11,0.0005620617,0.0,0.0,0.0,0,0,1,0,0,-2,0,2,2,2,2,2,2,2,2,2,2,2,2
23235000,0.004288034,0.00051570754,-0.00057481555,0.0,0.0,-1.1641532e-10,0,0,1,0,-2,0,-2,2,2,2,2,2,2,2,2,2,2,2,2
23435000,-0.0008994987,0.0074021616,0.00013562432,0.0,0.0,1.1641532e-10,0,0,1,0,-2,0,-2,2,2,2,2,2,2,2,2,2,2,2,2
23635000,0.0038794917,0.007849265,-0.00067812,0.0,0.0,-1.1641532e-10,0,0,1,0,-2,0,-2,2,2,2,2,2,2,2,2,2,2,2,2
23835000,0.008629364,0.012172258,-0.00079586875,0.0,0.0,1.1641532e-10,0,0,1,0,-2,0,-2,2,2,2,2,2,2,2,2,2,2,2,2
24035000,0.0014888806,0.0013392081,0.00059443247,0.0,0.0,-1.1641532e-10,0,0,1,0,-2,0,-2,2,2,2,2,2,2,2,2,2,2,2,2
24235000,-0.00087990065,0.010817415,-0.00048773809,0.0,0.0,3.4924597e-10,0,0,1,0,-2,0,-2,2,2,2,2,2,2,2,2,2,2,2,2
24435000,-0.0015308271,-0.0018411438,-0.0010727007,0.0,0.0,0.0,0,0,1,-2,0,-2,0,2,2,2,2,2,2,2,2,2,2,2,2
24635000,0.0024305044,0.0071574473,0.00035764402,0.0,0.0,1.1641532e-10,0,0,1,0,-2,0,-2,2,2,2,2,2,2,2,2,2,2,2,2
24835000,0.0023086583,0.013394515,-7.287658e-05,0.0,0.0,1.1641532e-10,0,0,1,0,-2,0,-2,2,2,2,2,2,2,2,2,2,2,2,2
25035000,-9.458745e-11,0.0,-0.0006245438,0.0,0.0,-1.1641532e-10,0,1,1,0,-2,0,0,2,2,2,2,2,2,2,2,2,2,2,2
25235000,0.004830798,1.1641532e-10,-0.00010070042,0.0,0.0,-1.1641532e-10,0,0,1,-2,0,0,0,2,2,2,2,2,2,2,2,2,2,2,2
25435000,0.0010149924,0.00787731,0.00013290341,0.0,0.0,1.1641532e-10,0,0,1,0,-2,0,-2,2,2,2,2,2,2,2,2,2,2,2,2
25635000,-0.0013067008,0.0005622939,-0.00029128572,0.0,0.0,-1.1641532e-10,0,0,1,0,-2,0,-2,2,2,2,2,2,2,2,2,2,2,2,2
25835000,0.011365619,0.0054806443,0.00039632863,0.0,0.0,-1.1641532e-10,0,0,1,0,-2,0,-2,2,2,2,2,2,2,2,2,2,2,2,2
26035000,0.0010517027,-0.0069186734,-0.00014139921,0.0,0.0,-2.3283064e-10,0,0,1,-2,0,-2,0,2,2,2,2,2,2,2,2,2,2,2,2
26235000,0.0070888684,0.01284819,0.0006420966,0.0,0.0,3.4924597e-10,0,0,1,0,-2,0,-2,2,2,2,2,2,2,2,2,2,2,2,2
26435000,0.0075323246,0.0024241158,-0.00088570785,0.0,0.0,-1.1641532e-10,0,0,1,0,-2,0,-2,2,2,2,2,2,2,2,2,2,2,2,2
26635000,0.00904969,0.005189275,-0.00043611886,0.0,0.0,1.1641532e-10,0,0,1,0,-2,0,-2,2,2,2,2,2,2,2,2,2,2,2,2
26835000,-0.0041227974,0.0018269799,-0.001130862,0.0,0.0,-1.1641532e-10,0,0,1,0,-2,0,-2,2,2,2,2,2,2,2,2,2,2,2,2
27027000,0.0024539041,0.0023394316,0.0008778747,0.0,0.0,1.1641532e-10,0,0,1,0,-2,0,-2,2,2,2,2,2,2,2,2,2,2,2,2
27235000,0.001662059,0.001452269,-0.0005612602,0.0,0.0,0.0,0,0,1,0,-2,0,-2,2,2,2,2,2,2,2,2,2,2,2,2
27435000,0.0072638276,0.000763403,0.0018691742,0.0,0.0,-1.1641532e-10,0,0,1,0,-2,0,-2,2,2,2,2,2,2,2,2,2,2,2,2
27635000,-0.0042293766,-0.0024926811,-0.0004675471,0.0,0.0,0.0,0,0,1,-2,0,-2,0,2,2,2,2,2,2,2,2,2,2,2,2
27835000,0.0049717417,-0.0016907785,0.0015881486,0.0,0.0,0.0,0,0,1,-2,0,-2,0,2,2,2,2,2,2,2,2,2,2,2,2
28035000,0.0004957919,0.0061307973,-0.0003219844,0.0,0.0,1.1641532e-10,0,0,1,0,-2,0,-2,2,2,2,2,2,2,2,2,2,2,2,2
28235000,0.008117806,0.004405214,0.00035778355,0.0,0.0,0.0,0,0,1,0,-2,0,-2,2,2,2,2,2,2,2,2,2,2,2,2
28435000,-0.00034727922,-0.0054507367,0.0013747007,0.0,0.0,-2.3283064e-10,0,0,1,-2,0,-2,0,2,2,2,2,2,2,2,2,2,2,2,2
28635000,-0.006773801,0.0007589725,-0.00028918774,0.0,0.0,-1.1641532e-10,0,0,1,0,-2,0,-2,2,2,2,2,2,2,2,2,2,2,2,2
28835000,0.0028013042,0.009549851,0.0001244503,0.0,0.0,-1.1641532e-10,0,0,1,0,-2,0,-2,2,2,2,2,2,2,2,2,2,2,2,2
29035000,-0.018088033,0.0029744806,-0.0005258104,0.0,0.0,-1.1641532e-10,0,0,1,0,-2,0,-2,2,2,2,2,2,2,2,2,2,2,2,2
29227000,-0.0065913843,0.015151989,0.00076130213,0.0,0.0,1.1641532e-10,0,0,1,0,-2,0,-2,2,2,2,2,2,2,2,2,2,2,2,2
29435000,-0.0035116225,0.0035253558,-0.0012545025,0.0,0.0,-1.1641532e-10,0,0,1,0,-2,0,-2,2,2,2,2,2,2,2,2,2,2,2,2
29627000,-0.0035486238,0.0017178308,6.9708917e-06,0.0,0.0,-1.1641532e-10,0,0,1,0,-2,0,-2,2,2,2,2,2,2,2,2,2,2,2,2
29835000,0.00069013727,0.0017631848,-0.0018207469,0.0,0.0,-1.1641532e-10,0,0,1,0,-2,0,-2,2,2,2,2,2,2,2,2,2,2,2,2
30035000,0.002963985,0.0037464155,0.0015593487,0.0,0.0,0.0,0,0,1,0,-2,0,-2,2,2,2,2,2,2,2,2,2,2,2,2
30235000,0.00950707,0.009482638,-5.31757e-05,0.0,0.0,1.1641532e-10,0,0,1,0,-2,0,-2,2,2,2,2,2,2,2,2,2,2,2,2
30435000,-0.0037279883,0.0047211084,-0.00096145074,0.0,0.0,1.1641532e-10,0,0,1,0,-2,0,-2,2,2,2,2,2,2,2,2,2,2,2,2
30635000,-0.0015454692,0.005431504,0.00057149923,0.0,0.0,3.4924597e-10,0,0,1,0,-2,0,-2,2,2,2,2,2,2,2,2,2,2,2,2
30835000,-0.0022804865,-0.006122132,-8.6024535e-05,0.0,0.0,-1.1641532e-10,0,0,1,-2,0,-2,0,2,2,2,2,2,2,2,2,2,2,2,2
31035000,-0.003169764,0.0073651373,0.0003253243,0.0,0.0,0.0,0,0,1,0,-2,0,-2,2,2,2,2,2,2,2,2,2,2,2,2
31235000,-0.0064275763,0.0031479825,-0.0010954527,0.0,0.0,1.1641532e-10,0,0,1,0,-2,0,-2,2,2,2,2,2,2,2,2,2,2,2,2
31435000,-0.00023431727,-0.00096697477,0.00059107726,0.0,0.0,-1.1641532e-10,0,0,1,-2,0,-2,0,2,2,2,2,2,2,2,2,2,2,2,2
31635000,-0.0065072877,0.010762197,0.00051227584,0.0,0.0,-2.3283064e-10,0,0,1,0,-2,0,-2,2,2,2,2,2,2,2,2,2,2,2,2
31835000,-0.0054696235,0.003647656,-2.0844069e-05,0.0,0.0,-1.1641532e-10,0,0,1,0,-2,0,-2,2,2,2,2,2,2,2,2,2,2,2,2
32035000,-0.0073780417,-0.001733439,0.0005071453,0.0,0.0,-1.1641532e-10,0,0,1,-2,0,-2,0,2,2,2,2,2,2,2,2,2,2,2,2
32235000,0.0031821122,0.006946264,-0.0009248411,0.0,0.0,1.1641532e-10,0,0,1,0,-2,0,-2,2,2,2,2,2,2,2,2,2,2,2,2
32435000,-0.0062828166,0.009080495,0.0005385467,0.0,0.0,1.1641532e-10,0,0,1,0,-2,0,-2,2,2,2,2,2,2,2,2,2,2,2,2
32635000,-0.003515507,0.005300748,-0.0004850949,0.0,0.0,1.1641532e-10,0,0,1,0,-2,0,-2,2,2,2,2,2,2,2,2,2,2,2,2
32835000,-0.006707115,0.0042334963,0.00015089675,0.0,0.0,-1.1641532e-10,0,0,1,0,-2,0,-2,2,2,2,2,2,2,2,2,2,2,2,2
33035000,0.001104643,-0.00081588747,0.00075924315,0.0,0.0,-1.1641532e-10,0,0,1,-2,0,-2,0,2,2,2,2,2,2,2,2,2,2,2,2
33235000,-0.010554058,0.00963911,0.0001602551,0.0,0.0,1.1641532e-10,0,0,1,0,-2,0,-2,2,2,2,2,2,2,2,2,2,2,2,2
33435000,-0.008388659,0.005971535,-0.0008147686,0.0,0.0,-1.1641532e-10,0,0,1,0,-2,0,-2,2,2,2,2,2,2,2,2,2,2,2,2
33635000,0.0069976,0.0012930983,0.00057858904,0.0,0.0,-1.1641532e-10,0,0,1,0,-2,0,-2,2,2,2,2,2,2,2,2,2,2,2,2
33835000,-0.005331743,-1.1641532e-10,0.0007290986,0.0,0.0,-1.1641532e-10,0,0,1,0,0,0,-2,2,2,2,2,2,2,2,2,2,2,2,2
34035000,-0.004158568,0.0013739148,5.5163575e-05,0.0,0.0,-1.1641532e-10,0,0,1,0,-2,0,-2,2,2,2,2,2,2,2,2,2,2,2,2
34235000,0.0020121108,2.910383e-11,-2.910383e-11,0.0,0.0,-1.1641532e-10,0,0,1,0,0,0,0,2,2,2,2,2,2,2,2,2,2,2,2
34435000,0.0011044411,0.0016711669,0.0008201833,0.0,0.0,0.0,0,0,1,0,-2,0,-2,2,2,2,2,2,2,2,2,2,2,2,2
34635000,0.0017310749,0.0023013637,0.0011865782,0.0,0.0,-1.1641532e-10,0,0,1,0,-2,0,-2,2,2,2,2,2,2,2,2,2,2,2,2
34835000,-0.005087109,0.0010444674,-0.0015599902,0.0,0.0,0.0,0,0,1,0,-2,0,-2,2,2,2,2,2,2,2,2,2,2,2,2
35035000,0.0033724578,0.0047507826,-0.0013966338,0.0,0.0,-2.3283064e-10,0,0,1,0,-2,0,-2,2,2,2,2,2,2,2,2,2,2,2,2
35235000,0.0018343774,0.003898058,0.00033975064,0.0,0.0,0.0,0,0,1,0,-2,0,-2,2,2,2,2,2,2,2,2,2,2,2,2
35435000,0.0066351215,-0.0019739596,0.0018068322,0.0,0.0,1.1641532e-10,0,0,1,-2,0,-2,0,2,2,2,2,2,2,2,2,2,2,2,2
35635000,0.008470546,-0.0014554466,0.00029490035,0.0,0.0,0.0,0,0,1,-2,0,-2,0,2,2,2,2,2,2,2,2,2,2,2,2
35835000,0.0031423897,0.0048577003,-8.837293e-05,0.0,0.0,3.4924597e-10,0,0,1,0,-2,0,-2,2,2,2,2,2,2,2,2,2,2,2,2
36035000,-0.0024223384,-1.1641532e-10,-0.0009776886,0.0,0.0,-1.1641532e-10,0,0,1,0,-2,0,0,2,2,2,2,2,2,2,2,2,2,2,2
36227000,0.0035490775,-0.0058954023,0.00056770456,0.0,0.0,-1.1641532e-10,0,0,1,-2,0,-2,0,2,2,2,2,2,2,2,2,2,2,2,2
36435000,0.007962069,-2.3283064e-10,-0.00039182563,0.0,0.0,-1.1641532e-10,0,0,1,0,-2,0,0,2,2,2,2,2,2,2,2,2,2,2,2
36635000,0.010423977,0.0035482293,0.0026270796,0.0,0.0,-1.1641532e-10,0,0,1,0,-2,0,-2,2,2,2,2,2,2,2,2,2,2,2,2
36835000,-0.0016675477,-0.00066223624,0.0001094476,0.0,0.0,-2.3283064e-10,0,0,1,-2,0,-2,0,2,2,2,2,2,2,2,2,2,2,2,2
37035000,0.00033312407,0.004935377,-0.000525784,0.0,0.0,0.0,0,0,1,0,-2,0,-2,2,2,2,2,2,2,2,2,2,2,2,2
37235000,0.009242335,0.011465025,-0.0020203239,0.0,0.0,1.1641532e-10,0,0,1,0,-2,0,-2,2,2,2,2,2,2,2,2,2,2,2,2
37435000,0.0033607886,0.0018429377,-0.0005042018,0.0,0.0,-1.1641532e-10,0,0,1,0,-2,0,-2,2,2,2,2,2,2,2,2,2,2,2,2
37635000,0.0046417606,0.0019086786,0.0002947725,0.0,0.0,-1.1641532e-10,0,0,1,0,-2,0,-2,2,2,2,2,2,2,2,2,2,2,2,2
37835000,0.013303726,0.0036606567,0.00054029544,0.0,0.0,-1.1641532e-10,0,0,1,0,-2,0,-2,2,2,2,2,2,2,2,2,2,2,2,2
38035000,0.0078095193,0.001547168,-0.00019810074,0.0,0.0,-1.1641532e-10,0,0,1,0,-2,0,-2,2,2,2,2,2,2,2,2,2,2,2,2
38235000,0.0071212123,0.004449187,-0.00021989772,0.0,0.0,-1.1641532e-10,0,0,1,0,-2,0,-2,2,2,2,2,2,2,2,2,2,2,2,2
38427000,0.009666138,8.731149e-11,2.910383e-10,0.0,0.0,-3.4924597e-10,0,0,1,0,0,0,0,2,2,2,2,2,2,2,2,2,2,2,2
38635000,0.009957193,0.0036350775,0.00087544386,0.0,0.0,-1.1641532e-10,0,0,1,0,-2,0,-2,2,2,2,2,2,2,2,2,2,2,2,2
38835000,0.006466989,0.0047321613,0.00040952666,0.0,0.0,1.1641532e-10,0,0,1,0,-2,0,-2,2,2,2,2,2,2,2,2,2,2,2,2
39035000,0.004280825,-0.0030330587,-0.00071178435,0.0,0.0,0.0,0,0,1,-2,0,-2,0,2,2,2,2,2,2,2,2,2,2,2,2
39235000,0.008521492,3.4924597e-10,0.0011774029,0.0,0.0,0.0,0,0,1,0,0,0,-2,2,2,2,2,2,2,2,2,2,2,2,2
39435000,0.015365173,0.006854059,0.0020505057,0.0,0.0,-2.3283064e-10,0,0,1,0,-2,0,-2,2,2,2,2,2,2,2,2,2,2,2,2
39635000,0.006355535,0.0011672684,0.0006232618,0.0,0.0,1.1641532e-10,0,0,1,0,-2,0,-2,2,2,2,2,2,2,2,2,2,2,2,2
39835000,-0.0014858629,-0.0045356234,0.0018297791,0.0,0.0,-1.1641532e-10,0,0,1,-2,0,-2,0,2,2,2,2,2,2,2,2,2,2,2,2
40035000,0.012675717,-0.002678266,-0.0008167523,0.0,0.0,-1.1641532e-10,0,0,1,-2,0,-2,0,2,2,2,2,2,2,2,2,2,2,2,2
40235000,0.00719784,1.4551915e-10,0.0001380078,0.0,0.0,-1.1641532e-10,0,0,1,0,0,0,-2,2,2,2,2,2,2,2,2,2,2,2,2
40435000,0.002418735,0.00088385004,-0.00025598495,0.0,0.0,-1.1641532e-10,0,0,1,0,-2,0,-2,2,2,2,2,2,2,2,2,2,2,2,2
40635000,0.0018892793,2.7284841e-11,0.0005657085,0.0,0.0,-1.1641532e-10,0,0,1,0,0,0,-2,2,2,2,2,2,2,2,2,2,2,2,2
40835000,0.010622975,-0.011562667,-0.00071562466,0.0,0.0,1.1641532e-10,0,0,1,-2,0,-2,0,2,2,2,2,2,2,2,2,2,2,2,2
41035000,0.00991033,-0.0033963388,-0.00090005493,0.0,0.0,1.1641532e-10,0,0,1,-2,0,-2,0,2,2,2,2,2,2,2,2,2,2,2,2
41235000,0.01021742,-0.008541081,-0.0007464407,0.0,0.0,1.1641532e-10,0,0,1,-2,0,-2,0,2,2,2,2,2,2,2,2,2,2,2,2
41435000,0.0042954953,-0.0027661156,-0.0005424629,0.0,0.0,1.1641532e-10,0,0,1,-2,0,-2,0,2,2,2,2,2,2,2,2,2,2,2,2
41635000,-0.006293022,3.654766e-05,-0.0005427569,0.0,0.0,0.0,0,0,1,0,-2,0,-2,2,2,2,2,2,2,2,2,2,2,2,2
41835000,-0.012847517,-0.0056099514,-3.8214646e-05,0.0,0.0,1.1641532e-10,0,0,1,-2,0,-2,0,2,2,2,2,2,2,2,2,2,2,2,2
42035000,0.0013551635,0.0027917211,-6.6079156e-05,0.0,0.0,-1.1641532e-10,0,0,1,0,-2,0,-2,2,2,2,2,2,2,2,2,2,2,2,2
42235000,-0.0034825236,0.007983617,-0.0008941529,0.0,0.0,3.4924597e-10,0,0,1,0,-2,0,-2,2,2,2,2,2,2,2,2,2,2,2,2
42435000,0.0050519854,-0.0010995211,0.0013747896,0.0,0.0,0.0,0,0,1,-2,0,-2,0,2,2,2,2,2,2,2,2,2,2,2,2
42627000,0.005270246,0.008879849,0.00031055504,0.0,0.0,3.4924597e-10,0,0,1,0,-2,0,-2,2,2,2,2,2,2,2,2,2,2,2,2
42835000,0.0015697454,1.1641532e-10,0.0003731243,0.0,0.0,0.0,0,0,1,0,0,-2,0,2,2,2,2,2,2,2,2,2,2,2,2
43035000,0.0100346105,0.0026428956,-0.00010078532,0.0,0.0,1.1641532e-10,0,0,1,0,-2,0,-2,2,2,2,2,2,2,2,2,2,2,2,2
43235000,0.0027969428,0.006171939,0.00033614578,0.0,0.0,1.1641532e-10,0,0,1,0,-2,0,-2,2,2,2,2,2,2,2,2,2,2,2,2
43435000,0.0040228833,-0.00023434695,-0.00048226098,0.0,0.0,0.0,0,0,1,-2,0,-2,0,2,2,2,2,2,2,2,2,2,2,2,2
43635000,0.0008142455,0.0,0.00030910637,0.0,0.0,-1.1641532e-10,0,1,1,0,0,-2,0,2,2,2,2,2,2,2,2,2,2,2,2
43835000,0.00089672103,0.0021826355,-0.0012971184,0.0,0.0,1.1641532e-10,0,0,1,0,-2,0,-2,2,2,2,2,2,2,2,2,2,2,2,2
44035000,-0.002837842,-0.00039030367,-0.0014381591,0.0,0.0,-1.1641532e-10,0,0,1,-2,0,-2,0,2,2,2,2,2,2,2,2,2,2,2,2
44235000,3.4924597e-10,-5.820766e-11,0.0004564136,0.0,0.0,-1.1641532e-10,0,1,1,0,0,-2,0,2,2,2,2,2,2,2,2,2,2,2,2
44435000,0.008977165,-4.110916e-10,-0.00089531555,0.0,0.0,-1.1641532e-10,0,0,1,-2,0,0,0,2,2,2,2,2,2,2,2,2,2,2,2
44635000,8.731149e-11,0.0,0.0009096314,0.0,0.0,0.0,0,1,1,0,0,0,-2,2,2,2,2,2,2,2,2,2,2,2,2
44835000,-0.015030176,0.005452631,0.0014100632,0.0,0.0,1.1641532e-10,0,0,1,0,-2,0,-2,2,2,2,2,2,2,2,2,2,2,2,2
45027000,-0.0050314893,0.0027829662,0.00037168458,0.0,0.0,-1.1641532e-10,0,0,1,0,-2,0,-2,2,2,2,2,2,2,2,2,2,2,2,2
45235000,-0.0029412934,-0.0012153606,-0.00012760595,0.0,0.0,-1.1641532e-10,0,0,1,-2,0,-2,0,2,2,2,2,2,2,2,2,2,2,2,2
45435000,-0.0029415651,0.013231928,-0.0004255468,0.0,0.0,1.1641532e-10,0,0,1,0,-2,0,-2,2,2,2,2,2,2,2,2,2,2,2,2
45635000,-0.004903522,-0.0007730066,0.00020818747,0.0,0.0,-1.1641532e-10,0,0,1,-2,0,-2,0,2,2,2,2,2,2,2,2,2,2,2,2
45835000,-0.0023717005,-0.004908951,0.00018279745,0.0,0.0,0.0,0,0,1,-2,0,-2,0,2,2,2,2,2,2,2,2,2,2,2,2
46035000,-0.005147042,0.0013715249,-0.00064913,0.0,0.0,0.0,0,0,1,0,-2,0,-2,2,2,2,2,2,2,2,2,2,2,2,2
46235000,5.820766e-11,5.820766e-11,0.0007106369,0.0,0.0,-1.1641532e-10,0,1,1,0,0,-2,0,2,2,2,2,2,2,2,2,2,2,2,2
46435000,0.0070522362,0.0045754565,0.0003186249,0.0,0.0,3.4924597e-10,0,0,1,0,-2,0,-2,2,2,2,2,2,2,2,2,2,2,2,2
46635000,-0.013113254,0.006139578,-0.0010833546,0.0,0.0,1.1641532e-10,0,0,1,0,-2,0,-2,2,2,2,2,2,2,2,2,2,2,2,2
46835000,-0.0071133533,0.0031037198,-0.00069096516,0.0,0.0,-1.1641532e-10,0,0,1,0,-2,0,-2,2,2,2,2,2,2,2,2,2,2,2,2
47035000,-0.00228118,0.009016445,0.0014340675,0.0,0.0,-1.1641532e-10,0,0,1,0,-2,0,-2,2,2,2,2,2,2,2,2,2,2,2,2
47235000,-0.010195578,-0.00447059,0.001931322,0.0,0.0,1.1641532e-10,0,0,1,-2,0,-2,0,2,2,2,2,2,2,2,2,2,2,2,2
47435000,-0.00878064,0.016688613,0.0016484534,0.0,0.0,8.1490725e-10,0,0,1,0,-2,0,-2,2,2,2,2,2,2,2,2,2,2,2,2
47635000,-0.001366743,0.009186086,0.0012118864,0.0,0.0,-1.1641532e-10,0,0,1,0,-2,0,-2,2,2,2,2,2,2,2,2,2,2,2,2
47835000,-0.004708337,0.012159615,0.0006290685,0.0,0.0,3.4924597e-10,0,0,1,0,-2,0,-2,2,2,2,2,2,2,2,2,2,2,2,2
48035000,-0.0028045112,-0.0008678073,-0.00081167795,0.0,0.0,-2.3283064e-10,0,0,1,-2,0,-2,0,2,2,2,2,2,2,2,2,2,2,2,2
48235000,0.0015618112,0.008302556,-0.00022113166,0.0,0.0,-3.4924597e-10,0,0,1,0,-2,0,-2,2,2,2,2,2,2,2,2,2,2,2,2
48435000,-0.0036818627,-0.0012622213,-0.00010930511,0.0,0.0,-1.1641532e-10,0,0,1,-2,0,-2,0,2,2,2,2,2,2,2,2,2,2,2,2
48635000,-0.0063680313,0.006344174,-0.0012035961,0.0,0.0,1.1641532e-10,0,0,1,0,-2,0,-2,2,2,2,2,2,2,2,2,2,2,2,2
48827000,-0.0044831885,0.00079620327,0.0015044867,0.0,0.0,0.0,0,0,1,0,-2,0,-2,2,2,2,2,2,2,2,2,2,2,2,2
49035000,-0.010432356,0.0031709985,0.0014192407,0.0,0.0,-1.1641532e-10,0,0,1,0,-2,0,-2,2,2,2,2,2,2,2,2,2,2,2,2
49227000,-0.004220211,0.007006265,-0.0014181825,0.0,0.0,-2.3283064e-10,0,0,1,0,-2,0,-2,2,2,2,2,2,2,2,2,2,2,2,2
49435000,-0.0033618112,0.00869371,-0.0010453614,0.0,0.0,-1.1641532e-10,0,0,1,0,-2,0,-2,2,2,2,2,2,2,2,2,2,2,2,2
49635000,-0.012311353,0.0052625616,0.0007715126,0.0,0.0,1.1641532e-10,0,0,1,0,-2,0,-2,2,2,2,2,2,2,2,2,2,2,2,2
49835000,-0.019411515,0.0035194028,0.0016951628,0.0,0.0,1.1641532e-10,0,0,1,0,-2,0,-2,2,2,2,2,2,2,2,2,2,2,2,2
50035000,-0.01303202,0.0081930775,-0.000271946,0.0,0.0,1.1641532e-10,0,0,1,0,-2,0,-2,2,2,2,2,2,2,2,2,2,2,2,2
50235000,-0.0033237855,-0.001354508,5.516067e-05,0.0,0.0,1.1641532e-10,0,0,1,-2,0,-2,0,2,2,2,2,2,2,2,2,2,2,2,2
50435000,-0.002578128,0.0052136797,-0.0010425166,0.0,0.0,-1.1641532e-10,0,0,1,0,-2,0,-2,2,2,2,2,2,2,2,2,2,2,2,2
50635000,0.002449351,0.01083605,0.0011774272,0.0,0.0,-1.1641532e-10,0,0,1,0,-2,0,-2,2,2,2,2,2,2,2,2,2,2,2,2
50835000,-0.005306619,0.003005196,1.6322276e-05,0.0,0.0,-1.1641532e-10,0,0,1,0,-2,0,-2,2,2,2,2,2,2,2,2,2,2,2,2
51035000,-0.006423608,0.0065672533,-4.9124836e-05,0.0,0.0,-1.1641532e-10,0,0,1,0,-2,0,-2,2,2,2,2,2,2,2,2,2,2,2,2
51235000,-0.0025020351,0.0135436775,0.0002470415,0.0,0.0,1.1641532e-10,0,0,1,0,-2,0,-2,2,2,2,2,2,2,2,2,2,2,2,2
51435000,-0.009007216,-4.656613e-10,-0.0005968661,0.0,0.0,-1.1641532e-10,0,0,1,0,-2,0,0,2,2,2,2,2,2,2,2,2,2,2,2
51635000,-0.00036791814,0.0019587793,0.00031951786,0.0,0.0,0.0,0,0,1,0,-2,0,-2,2,2,2,2,2,2,2,2,2,2,2,2
51835000,-0.0020051482,0.0011107365,-0.00061687,0.0,0.0,-2.3283064e-10,0,0,1,0,-2,0,-2,2,2,2,2,2,2,2,2,2,2,2,2
52035000,-0.0008883532,0.006867586,-0.00043352478,0.0,0.0,1.1641532e-10,0,0,1,0,-2,0,-2,2,2,2,2,2,2,2,2,2,2,2,2
52235000,0.0016037633,0.01165507,-0.0003329469,0.0,0.0,1.1641532e-10,0,0,1,0,-2,0,-2,2,2,2,2,2,2,2,2,2,2,2,2
52435000,-0.008803437,0.009937943,-0.00025393828,0.0,0.0,1.1641532e-10,0,0,1,0,-2,0,-2,2,2,2,2,2,2,2,2,2,2,2,2
52635000,-0.009502685,0.010338009,-0.000228076,0.0,0.0,3.4924597e-10,0,0,1,0,-2,0,-2,2,2,2,2,2,2,2,2,2,2,2,2
52835000,-0.0048188125,0.0044247652,0.0016088266,0.0,0.0,0.0,0,0,1,0,-2,0,-2,2,2,2,2,2,2,2,2,2,2,2,2
53035000,-0.0018883469,0.0135845775,-0.00019614979,0.0,0.0,1.1641532e-10,0,0,1,0,-2,0,-2,2,2,2,2,2,2,2,2,2,2,2,2
53235000,-0.0035919775,0.0069142557,-0.0015901163,0.0,0.0,1.1641532e-10,0,0,1,0,-2,0,-2,2,2,2,2,2,2,2,2,2,2,2,2
53435000,-0.010410836,0.009809535,-2.4626046e-05,0.0,0.0,-1.1641532e-10,0,0,1,0,-2,0,-2,2,2,2,2,2,2,2,2,2,2,2,2
53635000,-0.0055494737,0.01699431,0.0012003536,0.0,0.0,1.1641532e-10,0,0,1,0,-2,0,-2,2,2,2,2,2,2,2,2,2,2,2,2
53827000,-0.0048881345,0.010250117,0.00018504616,0.0,0.0,4.656613e-10,0,0,1,0,-2,0,-2,2,2,2,2,2,2,2,2,2,2,2,2
54035000,0.0019798132,0.004135157,-0.00088386313,0.0,0.0,-1.1641532e-10,0,0,1,0,-2,0,-2,2,2,2,2,2,2,2,2,2,2,2,2
54227000,-0.0031608776,0.013510484,-0.0010142244,0.0,0.0,1.1641532e-10,0,0,1,0,-2,0,-2,2,2,2,2,2,2,2,2,2,2,2,2
