timestamp,timestamp_sample,time_last_fuse,device_id,observation[0],observation[1],observation[2],observation_variance[0],observation_variance[1],observation_variance[2],innovation[0],innovation[1],innovation[2],innovation_filtered[0],innovation_filtered[1],innovation_filtered[2],innovation_variance[0],innovation_variance[1],innovation_variance[2],test_ratio[0],test_ratio[1],test_ratio[2],test_ratio_filtered[0],test_ratio_filtered[1],test_ratio_filtered[2],estimator_instance,innovation_rejected,fused
4435000,4283000,4283000,0,0.004172811,0.018750696,-0.99981546,1.0,1.0,1.0,-0.009807074,-0.0010090657,-1.1205673e-05,-0.0013401844,0.0017921125,3.6079113e-05,1.0102823,1.0102793,1.0000036,0.0015231974,1.6125656e-05,2.0090667e-09,-1.3636982e-06,5.2345593e-05,2.1336263e-08,0,0,1
4443000,4291000,4291000,0,0.0005277114,-0.021306472,-0.99977285,1.0,1.0,1.0,-0.0062710536,0.03907919,-5.275011e-05,-0.0014178358,0.0023793106,3.4680226e-05,1.0103098,1.0103068,1.0000036,0.0006227969,0.02418565,4.4521027e-08,-1.1150048e-05,0.00043239762,2.029914e-08,0,0,1
4451000,4299000,4299000,0,-0.010295787,-0.0041291225,-0.9999384,1.0,1.0,1.0,0.004483746,0.021982962,0.00011461973,-0.0013248975,0.0026880295,3.5939116e-05,1.0103385,1.0103357,1.0000037,0.00031837213,0.007652912,2.1020215e-07,-5.960722e-06,0.0005461065,2.3289738e-08,0,0,1
4459000,4307000,4307000,0,-0.0015109115,-0.016581254,-0.9998614,1.0,1.0,1.0,-0.004242511,0.034392472,3.6656857e-05,-0.0013708442,0.0031873123,3.595042e-05,1.0103687,1.0103657,1.0000037,0.00028502705,0.018731311,2.1499522e-08,-1.0355467e-05,0.00083248765,2.3261546e-08,0,0,1
4467000,4315000,4315000,0,-0.00061734166,0.016195806,-0.9998686,1.0,1.0,1.0,-0.0051325173,0.0014323089,4.0590763e-05,-0.0014300832,0.0031596744,3.6023495e-05,1.0104,1.0103972,1.0000036,0.0004171454,3.2486372e-05,2.6361667e-08,-1.6761607e-05,0.0008198892,2.3310367e-08,0,0,1
4475000,4323000,4323000,0,0.0007156758,-0.0049515674,-0.9999875,1.0,1.0,1.0,-0.006472222,0.022350572,0.00015544891,-0.0015094869,0.0034618932,3.790421e-05,1.0104327,1.01043,1.0000036,0.00066331436,0.007910266,3.8662844e-07,-2.694354e-05,0.00093154865,2.9031911e-08,0,0,1
4483000,4331000,4331000,0,0.0067135296,0.001383561,-0.9999765,1.0,1.0,1.0,-0.012551194,0.015920237,0.00014328957,-0.0016833721,0.0036580875,3.9563824e-05,1.0104667,1.0104638,1.0000035,0.0024944113,0.0040132687,3.2850926e-07,-6.58013e-05,0.0009800796,3.374809e-08,0,0,1
4491000,4339000,4339000,0,-0.017120251,0.014545834,-0.99974763,1.0,1.0,1.0,0.011197264,0.0027486812,-8.523464e-05,-0.0014805275,0.003643766,3.7598493e-05,1.0105019,1.0104991,1.0000035,0.0019852114,0.000119627985,1.162387e-07,-3.3501892e-05,0.00096652925,3.1386094e-08,0,0,1
4507000,4355000,4355000,0,-0.013546383,0.007645701,-0.99987906,1.0,1.0,1.0,0.0074441046,0.009564851,4.5835972e-05,-0.0013524411,0.0040720254,3.911237e-05,1.0105761,1.0105734,1.0000035,0.00087735604,0.0014484669,3.3614864e-08,-1.9919014e-05,0.0011156981,3.4928288e-08,0,0,1
4515000,4363000,4363000,0,-0.0020827453,0.0021298083,-0.9999955,1.0,1.0,1.0,-0.0039737895,0.015050901,0.00016152859,-0.0013937223,0.0042449213,4.1040184e-05,1.0106151,1.0106124,1.0000035,0.00025000225,0.0035864136,4.174623e-07,-2.3542372e-05,0.001154607,4.0952447e-08,0,0,1
4523000,4371000,4371000,0,0.011376463,-0.0039263214,-0.9999276,1.0,1.0,1.0,-0.017567154,0.020970635,9.191036e-05,-0.001648422,0.0045083184,4.184129e-05,1.0106554,1.0106528,1.0000035,0.0048856204,0.006962115,1.3515977e-07,-0.00010011053,0.0012460639,4.2436028e-08,0,0,1
4531000,4379000,4379000,0,-0.017789558,-0.003383655,-0.999836,1.0,1.0,1.0,0.011720698,0.020262253,-3.0994415e-06,-0.0014378846,0.004756412,4.113356e-05,1.0106971,1.0106944,1.0000035,0.0021747327,0.006499435,1.5370408e-10,-6.428623e-05,0.001328794,4.1765322e-08,0,0,1
4547000,4395000,4395000,0,0.0025597387,-0.007234609,-0.9999705,1.0,1.0,1.0,-0.008711295,0.02394391,0.00012898445,-0.0017530553,0.0054144533,4.28985e-05,1.0107841,1.0107815,1.0000033,0.0012012324,0.009075129,2.6619094e-07,-0.00013194382,0.0016186733,4.572414e-08,0,0,1
4555000,4403000,4403000,0,0.010279092,-0.02374717,-0.9996652,1.0,1.0,1.0,-0.016525798,0.040357288,-0.00017732382,-0.0019856968,0.005964734,3.9430433e-05,1.0108296,1.010827,1.0000033,0.0043228175,0.02578025,5.030981e-07,-0.00019794183,0.0019991705,3.708127e-08,0,0,1
4563000,4411000,4411000,0,-0.010867224,-0.009709009,-0.99989384,1.0,1.0,1.0,0.004829517,0.02617902,4.774332e-05,-0.0018783706,0.0062830695,3.9561346e-05,1.0108763,1.0108738,1.0000033,0.00036917254,0.010847503,3.6470674e-08,-0.0001890109,0.0021385143,3.7071654e-08,0,0,1
4571000,4419000,4419000,0,-0.008681302,-0.00010562065,-0.9999623,1.0,1.0,1.0,0.0028725225,0.016464457,0.0001128912,-0.0018035534,0.0064434065,4.0716146e-05,1.0109243,1.0109218,1.0000033,0.0001305955,0.0042903945,2.0391008e-07,-0.00018397773,0.002172402,3.969903e-08,0,0,1
4587000,4435000,4435000,0,0.022353567,-0.0107054375,-0.9996928,1.0,1.0,1.0,-0.02787393,0.026896233,-0.00016075373,-0.0022922687,0.0070520933,3.8665803e-05,1.0110242,1.0110217,1.0000032,0.012295744,0.011448337,4.1346684e-07,-0.0003833596,0.0024373098,3.51212e-08,0,0,1
4595000,4443000,4443000,0,0.013714507,-0.004613324,-0.99989533,1.0,1.0,1.0,-0.019295204,0.020727199,4.0650368e-05,-0.0025600314,0.007267449,3.8697057e-05,1.0110761,1.0110736,1.0000032,0.005891622,0.006798583,2.6439153e-08,-0.0004701039,0.0025059914,3.4984474e-08,0,0,1
4603000,4451000,4451000,0,0.014860325,-0.0015455778,-0.9998884,1.0,1.0,1.0,-0.02044355,0.017864881,3.707409e-05,-0.0028416617,0.007434338,3.86715e-05,1.0111293,1.0111266,1.0000033,0.006613417,0.005050271,2.1991736e-08,-0.000566849,0.0025460587,3.4779863e-08,0,0,1
4611000,4459000,4459000,0,0.016155016,0.012939467,-0.9997858,1.0,1.0,1.0,-0.02172521,0.0034363484,-6.4611435e-05,-0.0031390404,0.007371377,3.7044996e-05,1.0111836,1.011181,1.0000033,0.007468234,0.00018684671,6.679398e-08,-0.00067553227,0.0025089057,3.3180275e-08,0,0,1
4627000,4475000,4475000,0,-0.015337944,-0.019595558,-0.9996903,1.0,1.0,1.0,0.010082589,0.03599716,-0.00016140938,-0.0033694806,0.007770322,2.9182556e-05,1.0112963,1.0112936,1.0000035,0.0016083692,0.020501195,4.1684635e-07,-0.00087150093,0.0027573358,7.689632e-09,0,0,1
4635000,4483000,4483000,0,0.008444765,-6.314626e-05,-0.99996436,1.0,1.0,1.0,-0.013501614,0.016614718,0.0001142025,-0.0035290418,0.007909603,3.0521453e-05,1.0113546,1.011352,1.0000033,0.0028839514,0.004367206,2.0867468e-07,-0.0009031931,0.002782688,1.0854751e-08,0,0,1
4643000,4491000,4491000,0,-0.0013175514,-0.011684009,-0.99993086,1.0,1.0,1.0,-0.0035739294,0.028216612,7.9512596e-05,-0.0035297486,0.008229399,3.1292966e-05,1.0114138,1.011411,1.0000033,0.00020206126,0.012595112,1.01155706e-07,-0.0008921516,0.0029372144,1.2276813e-08,0,0,1
4651000,4499000,4499000,0,0.004771253,-0.011802544,-0.99991894,1.0,1.0,1.0,-0.009558991,0.028571416,7.098913e-05,-0.0036246972,0.008549746,3.19181e-05,1.0114746,1.0114717,1.0000035,0.0014454033,0.012913077,8.063103e-08,-0.00090086425,0.0030943146,1.3353258e-08,0,0,1
4667000,4515000,4515000,0,0.025512597,0.020799732,-0.99945813,1.0,1.0,1.0,-0.0304894,-0.004156893,-0.00039106607,-0.004051268,0.008548142,2.6942545e-05,1.0116,1.0115972,1.0000035,0.014703101,0.0002733066,2.4469143e-06,-0.0011078945,0.0031051394,-2.0690873e-08,0,0,1
4675000,4523000,4523000,0,0.0063615795,-0.0055260374,-0.9999645,1.0,1.0,1.0,-0.011395314,0.022298353,0.00011783838,-0.0041669225,0.008764681,2.8373976e-05,1.0116647,1.0116618,1.0000036,0.0020536948,0.007863759,2.2217336e-07,-0.001122789,0.0031800782,-1.686624e-08,0,0,1
4683000,4531000,4531000,0,-0.025467379,-0.008450763,-0.99963987,1.0,1.0,1.0,0.020540839,0.025185369,-0.00020802021,-0.0037778239,0.009023275,2.4651232e-05,1.0117307,1.0117277,1.0000036,0.0066725435,0.010031202,6.92356e-07,-0.0010000279,0.0032879699,-2.7503875e-08,0,0,1
4691000,4539000,4539000,0,0.0006948702,-0.007640297,-0.99997056,1.0,1.0,1.0,-0.005576272,0.024284614,0.00012099743,-0.0038061459,0.009263611,2.6168495e-05,1.0117978,1.0117948,1.0000035,0.0004917158,0.009325883,2.3424523e-07,-0.0009920229,0.003383055,-2.338184e-08,0,0,1
4707000,4555000,4555000,0,0.00047634143,-0.017546203,-0.9998459,1.0,1.0,1.0,-0.004891851,0.034016266,-8.761883e-06,-0.0035666407,0.009884621,2.4740697e-05,1.0119362,1.0119332,1.0000035,0.00037836703,0.01829538,1.2283252e-09,-0.000927147,0.0037087556,-2.2900613e-08,0,0,1
4715000,4563000,4563000,0,0.007266649,-0.037975233,-0.9992523,1.0,1.0,1.0,-0.011697667,0.054261155,-0.00060528517,-0.0036946884,0.010583464,1.481903e-05,1.0120072,1.0120043,1.0000035,0.0021633902,0.046549574,5.8619016e-06,-0.00094661536,0.004383414,-1.14853385e-07,0,0,1
4723000,4571000,4571000,0,0.0010205843,-0.0008512637,-0.9999991,1.0,1.0,1.0,-0.005545673,0.017196449,0.00014293194,-0.003723838,0.0106876055,1.6836557e-05,1.0120795,1.0120766,1.0000035,0.00048619875,0.004675027,3.268715e-07,-0.0009393647,0.0043880064,-1.0789709e-07,0,0,1
4731000,4579000,4579000,0,-0.012427161,0.013384496,-0.9998332,1.0,1.0,1.0,0.00786107,0.0028873486,-2.3961067e-05,-0.0035413983,0.010564767,1.6194075e-05,1.0121531,1.0121502,1.0000035,0.0009768708,0.00013178728,9.186092e-09,-0.0009091878,0.004320979,-1.0634258e-07,0,0,1
4747000,4595000,4595000,0,0.018037815,0.016388705,-0.999703,1.0,1.0,1.0,-0.022443391,-0.00027582608,-0.00015759468,-0.003911769,0.010169118,1.2144705e-05,1.0123042,1.0123013,1.0000035,0.007961336,1.2024882e-06,3.9737597e-07,-0.0010227549,0.0041821213,-1.10440666e-07,0,0,1
4755000,4603000,4603000,0,0.009369445,0.012658375,-0.999876,1.0,1.0,1.0,-0.013618192,0.0035387194,1.6212463e-05,-0.004064626,0.010064702,1.2208764e-05,1.0123817,1.0123787,1.0000035,0.0029309918,0.00019791069,4.205489e-09,-0.0010528059,0.0041193776,-1.0863521e-07,0,0,1
4763000,4611000,4611000,0,-0.006077792,-0.005170462,-0.99996823,1.0,1.0,1.0,0.0017109192,0.02143099,0.00010997057,-0.0039736726,0.010243698,1.374832e-05,1.0124605,1.0124574,1.0000036,4.6259494e-05,0.007258179,1.9349572e-07,-0.0010354978,0.0041688075,-1.0387725e-07,0,0,1
4771000,4619000,4619000,0,-0.0026432313,0.00039337343,-0.9999965,1.0,1.0,1.0,-0.0018540337,0.015814833,0.00013804436,-0.0039402926,0.010331432,1.5705738e-05,1.0125405,1.0125375,1.0000036,5.4317883e-05,0.0039521926,3.0489883e-07,-0.0010200461,0.004165396,-9.743983e-08,0,0,1
4787000,4635000,4635000,0,0.012632451,-0.0047549214,-0.99990886,1.0,1.0,1.0,-0.017198786,0.021180164,5.4240227e-05,-0.004137506,0.010782627,1.707062e-05,1.0127043,1.0127012,1.0000037,0.0046733995,0.007087569,4.707186e-08,-0.0010642655,0.0043446417,-9.261842e-08,0,0,1
4795000,4643000,4643000,0,-0.0037833708,0.018951833,-0.9998133,1.0,1.0,1.0,-0.0008313982,-0.002426317,-3.9458275e-05,-0.004085441,0.010574613,1.6180402e-05,1.0127882,1.012785,1.0000037,1.0919921e-05,9.300318e-05,2.4911195e-08,-0.0010476774,0.0042747576,-9.155217e-08,0,0,1
4803000,4651000,4651000,0,0.006215506,-0.0003739012,-0.99998057,1.0,1.0,1.0,-0.010795413,0.01685839,0.00012689829,-0.00419111,0.0106735695,1.792399e-05,1.0128733,1.0128701,1.0000037,0.0018409558,0.0044895047,2.5764984e-07,-0.0010601699,0.004278139,-8.605292e-08,0,0,1
4811000,4659000,4659000,0,-0.012045564,-0.012761485,-0.9998459,1.0,1.0,1.0,0.0073991367,0.029268973,-7.033348e-06,-0.0040085865,0.010966411,1.7530961e-05,1.0129597,1.0129565,1.0000038,0.00086474867,0.013531444,7.9148477e-10,-0.0010298563,0.0044238605,-8.471022e-08,0,0,1
4827000,4675000,4675000,0,-0.0010637187,0.018487127,-0.9998285,1.0,1.0,1.0,-0.0034090246,-0.0020392723,-2.6226044e-05,-0.0038820724,0.010734417,1.792362e-05,1.0131364,1.0131332,1.0000038,0.00018353223,6.567558e-05,1.1004844e-08,-0.00099749,0.0043053674,-8.034552e-08,0,0,1
4835000,4683000,4683000,0,0.0031580094,-0.0024318884,-0.999992,1.0,1.0,1.0,-0.0073857326,0.01870777,0.0001333952,-0.003937248,0.010859981,1.9742069e-05,1.0132266,1.0132234,1.0000037,0.0008613915,0.0055266107,2.847074e-07,-0.0009953467,0.0043245996,-7.4596656e-08,0,0,1
4843000,4691000,4691000,0,-0.0053396267,-0.0051050354,-0.99997276,1.0,1.0,1.0,0.0011870936,0.021366963,0.00011354685,-0.0038565497,0.011025446,2.121931e-05,1.0133182,1.013315,1.0000038,2.2250719e-05,0.007208769,2.062854e-07,-0.0009793215,0.00437002,-7.0173314e-08,0,0,1
4851000,4699000,4699000,0,-0.011237995,0.00038092004,-0.99993676,1.0,1.0,1.0,0.0070731756,0.015818775,7.671118e-05,-0.003684428,0.011100931,2.2093198e-05,1.013339,1.0133358,1.0000037,0.00078993995,0.0039510475,9.415333e-08,-0.00095145917,0.004363422,-6.7585496e-08,0,0,1
4867000,4715000,4715000,0,0.0052616936,0.003875296,-0.9999787,1.0,1.0,1.0,-0.009257764,0.012600886,0.00012242794,-0.003592687,0.011178802,2.4397901e-05,1.0135281,1.0135247,1.0000039,0.0013529955,0.002506616,2.3981667e-07,-0.0009277746,0.0043187174,-6.0521565e-08,0,0,1
4875000,4723000,4723000,0,-0.011571514,-0.010011223,-0.999883,1.0,1.0,1.0,0.00742825,0.026551645,2.8371811e-05,-0.003419129,0.0114208935,2.4460482e-05,1.0136244,1.013621,1.0000039,0.0008709955,0.011128261,1.2879304e-08,-0.0008994475,0.004425954,-5.9365647e-08,0,0,1
4883000,4731000,4731000,0,0.002962143,-0.0016606193,-0.9999943,1.0,1.0,1.0,-0.0070551382,0.018175904,0.00013905764,-0.003476389,0.011527272,2.6265161e-05,1.0137222,1.0137188,1.0000039,0.0007856192,0.005214282,3.093912e-07,-0.0008976549,0.0044383686,-5.3558452e-08,0,0,1
4891000,4739000,4739000,0,0.0015548021,-0.0016743776,-0.9999973,1.0,1.0,1.0,-0.005452009,0.017866764,0.0001359582,-0.0035075012,0.011627106,2.799261e-05,1.01366,1.0136566,1.0000038,0.00046918142,0.005038728,2.9575295e-07,-0.0008909073,0.004447823,-4.8057487e-08,0,0,1
4907000,4755000,4755000,0,0.0036363394,0.010421138,-0.99993914,1.0,1.0,1.0,-0.0073500862,0.0054421984,7.1942806e-05,-0.003238287,0.011457716,2.6078826e-05,1.0138602,1.013857,1.0000037,0.00085256353,0.00046740353,8.281197e-08,-0.0007992872,0.0043281256,-5.0121518e-08,0,0,1
4915000,4763000,4763000,0,0.0024715692,0.018965667,-0.999817,1.0,1.0,1.0,-0.0060374863,-0.0031313132,-5.120039e-05,-0.0032823689,0.011227967,2.486183e-05,1.0139623,1.0139588,1.0000036,0.0005751889,0.00015472222,4.194353e-08,-0.0007957581,0.0042575295,-4.999273e-08,0,0,1
4923000,4771000,4771000,0,0.008739635,0.016121702,-0.99983186,1.0,1.0,1.0,-0.012217706,-0.0004316792,-3.886223e-05,-0.0034230829,0.01104435,2.3858302e-05,1.0140655,1.0140622,1.0000036,0.0023552298,2.9402051e-06,2.4164278e-08,-0.0008203167,0.0041904356,-4.9585985e-08,0,0,1
4931000,4779000,4779000,0,-0.008082516,0.008572771,-0.99993056,1.0,1.0,1.0,0.004810836,0.0071246075,5.9127808e-05,-0.0032934148,0.010982622,2.4413726e-05,1.0141702,1.0141668,1.0000036,0.00036513232,0.00080081547,5.5937363e-08,-0.00080164825,0.004137056,-4.79242e-08,0,0,1
4947000,4795000,4795000,0,-0.018602472,-0.011241902,-0.9997637,1.0,1.0,1.0,0.015562079,0.0266206,-0.00011330843,-0.0029533517,0.011450274,2.3067496e-05,1.0143832,1.0143799,1.0000036,0.0038199103,0.011177767,2.0542006e-07,-0.0007165061,0.004339891,-4.8172613e-08,0,0,1
4955000,4803000,4803000,0,-0.020285688,-0.018028153,-0.9996316,1.0,1.0,1.0,0.017353468,0.033359244,-0.00024658442,-0.0026335593,0.011795297,1.8821009e-05,1.0144916,1.0144882,1.0000036,0.0047494583,0.017551143,9.728584e-07,-0.0006304279,0.0045479424,-6.273459e-08,0,0,1
4963000,4811000,4811000,0,-0.043389767,-0.014047257,-0.9989594,1.0,1.0,1.0,0.040479336,0.02932154,-0.00091969967,-0.001954616,0.012071301,4.041156e-06,1.0146012,1.0145979,1.0000036,0.02583993,0.013558123,1.3533511e-05,-0.00021357188,0.004689835,-2.748728e-07,0,0,1
4971000,4819000,4819000,0,-0.03624665,0.0063587246,-0.99932265,1.0,1.0,1.0,0.03338184,0.008729946,-0.00055933,-0.0013981365,0.0120186815,-4.830831e-06,1.0147121,1.0147089,1.0000035,0.017571047,0.0012017153,5.0055833e-06,6.6500856e-05,0.004634904,-3.493722e-07,0,0,1
4987000,4835000,4835000,0,0.003654962,-0.004608427,-0.99998266,1.0,1.0,1.0,-0.006611543,0.019580696,9.906292e-05,-0.0016675269,0.012127312,-2.2948116e-06,1.0149379,1.0149345,1.0000035,0.0006891062,0.0060441913,1.5701485e-07,9.156134e-06,0.0046167052,-3.352797e-07,0,0,1
4995000,4843000,4843000,0,-0.006581139,-0.0082633775,-0.99994415,1.0,1.0,1.0,0.0036522534,0.023273759,6.109476e-05,-0.0015837508,0.012302847,-1.2965506e-06,1.0150527,1.0150493,1.0000035,0.00021025832,0.008538191,5.972091e-08,1.23230975e-05,0.004678461,-3.2905922e-07,0,0,1
5003000,4851000,4851000,0,-0.0060226936,-0.0070125046,-0.9999574,1.0,1.0,1.0,0.0029270106,0.022029988,7.492304e-05,-0.0015127152,0.01245603,-9.624205e-08,1.0151687,1.0151653,1.0000036,0.00013503003,0.007649125,8.981507e-08,1.425549e-05,0.004725243,-3.2246277e-07,0,0,1
5011000,4859000,4859000,0,0.0052468246,-0.0093540205,-0.9999425,1.0,1.0,1.0,-0.00854036,0.024412446,6.1392784e-05,-0.0016233869,0.01264432,8.72089e-07,1.0152861,1.0152826,1.0000036,0.0011494337,0.009391947,6.030497e-08,-4.0703244e-06,0.0047987346,-3.1643492e-07,0,0,1
5027000,4875000,4875000,0,0.006756394,-0.009590924,-0.9999312,1.0,1.0,1.0,-0.009989085,0.02456097,4.851818e-05,-0.0017107569,0.013210488,-5.058437e-07,1.0155245,1.0155212,1.0000036,0.0015721029,0.009504341,3.7664087e-08,-2.8325485e-05,0.0051339767,-3.1057021e-07,0,0,1
5035000,4883000,4883000,0,-0.006733154,-0.00807068,-0.9999447,1.0,1.0,1.0,0.0037182858,0.023237642,6.425381e-05,-0.0016252602,0.013368395,5.139934e-07,1.0156457,1.0156422,1.0000037,0.0002178027,0.008506744,6.6056586e-08,-2.4449451e-05,0.005187091,-3.046391e-07,0,0,1
5043000,4891000,4891000,0,-0.02139392,0.011848972,-0.99970084,1.0,1.0,1.0,0.018457199,0.003377921,-0.00017905235,-0.001309001,0.013211065,-2.313823e-06,1.0157682,1.0157646,1.0000038,0.005366077,0.00017973219,5.12954e-07,6.0440732e-05,0.005108235,-3.0791963e-07,0,0,1
5051000,4899000,4899000,0,-0.028129535,0.0068209274,-0.99958104,1.0,1.0,1.0,0.02538143,0.008283711,-0.00030106306,-0.0008886793,0.013133469,-7.018535e-06,1.0158919,1.0158883,1.0000037,0.010146229,0.0010807466,1.4502181e-06,0.00021927204,0.00504481,-3.259086e-07,0,0,1
5067000,4915000,4915000,0,-0.0036246458,0.006582242,-0.99997175,1.0,1.0,1.0,0.001042991,0.008656742,9.119511e-05,-0.0010758014,0.01295053,-5.373239e-06,1.0161433,1.0161395,1.0000038,1.7128767e-05,0.0011799826,1.3306425e-07,0.00015832731,0.0049141897,-3.136292e-07,0,0,1
5075000,4923000,4923000,0,0.0018600539,0.024419183,-0.9997001,1.0,1.0,1.0,-0.00965217,-0.004937267,-7.969141e-05,-0.0012108623,0.012668833,-6.5436043e-06,1.0099816,1.0099785,1.0000044,0.0014758984,0.00038617224,1.01611086e-07,0.00013259148,0.0048307194,-3.1029032e-07,0,0,1
5083000,4931000,4931000,0,0.014591242,0.011016461,-0.99983287,1.0,1.0,1.0,-0.022515051,0.008612734,5.698204e-05,-0.0015463614,0.012604957,-5.5432006e-06,1.0099845,1.0099814,1.0000044,0.008030659,0.0011751375,5.195102e-08,4.0363666e-06,0.004773151,-3.0458574e-07,0,0,1
5091000,4939000,4939000,0,-0.013211498,0.009635244,-0.9998663,1.0,1.0,1.0,0.0051215114,0.009980425,9.149313e-05,-0.0014413554,0.012563626,-4.0150694e-06,1.0099875,1.0099843,1.0000044,0.00041552802,0.0015779871,1.3393529e-07,1.0516551e-05,0.0047228336,-2.976799e-07,0,0,1
5107000,4955000,4955000,0,0.010499106,-0.008071772,-0.99991226,1.0,1.0,1.0,-0.018824786,0.027059976,0.00012731552,-0.0016396866,0.012696942,-8.609852e-07,1.009991,1.0099438,1.0000043,0.005613873,0.011600523,2.5934676e-07,-7.533963e-05,0.0047681127,-2.832121e-07,0,0,1
5115000,4963000,4963000,0,-0.0016930284,-0.010598085,-0.99994236,1.0,1.0,1.0,-0.006786144,0.029678762,0.00016027689,-0.0017207332,0.0129643725,1.6766189e-06,1.009994,1.0099467,1.0000044,0.0007295369,0.013954462,4.1101708e-07,-8.564195e-05,0.0049127797,-2.7227935e-07,0,0,1
5123000,4971000,4971000,0,-0.009998282,-0.016888099,-0.9998073,1.0,1.0,1.0,0.001175995,0.036028318,2.9325485e-05,-0.0016751154,0.013327585,2.112034e-06,1.0099969,1.0099497,1.0000044,2.1908412e-05,0.020564029,1.3759685e-08,-8.3948245e-05,0.005159256,-2.677748e-07,0,0,1
5131000,4979000,4979000,0,0.00051206973,-0.013694134,-0.9999061,1.0,1.0,1.0,-0.009590331,0.032823972,0.00013035536,-0.0017997645,0.013634615,4.131614e-06,1.0099999,1.0099527,1.0000045,0.0014570212,0.017068733,2.718791e-07,-0.00010557144,0.0053468067,-2.592763e-07,0,0,1
5147000,4995000,4995000,0,0.0021264483,-0.00029486077,-0.99999774,1.0,1.0,1.0,-0.011177033,0.019216819,0.00021773577,-0.002000557,0.0139655275,9.9083245e-06,1.010006,1.0099589,1.0000044,0.001979015,0.0058503156,7.585385e-07,-0.00014014624,0.005482844,-2.3289601e-07,0,0,1
5155000,5003000,5003000,0,-0.0031626963,-0.01842967,-0.9998252,1.0,1.0,1.0,-0.0058499184,0.03741204,4.6014786e-05,-0.0020611768,0.014334764,1.0476931e-05,1.0100092,1.009962,1.0000044,0.00054211856,0.022173679,3.387762e-08,-0.00014647651,0.0057456917,-2.2869486e-07,0,0,1
5163000,5011000,5011000,0,-0.0039270553,-0.018571086,-0.9998199,1.0,1.0,1.0,-0.0050756303,0.037629787,4.2021275e-05,-0.0021086484,0.014701615,1.0973692e-05,1.0100124,1.009965,1.0000045,0.00040810625,0.022432476,2.8252472e-08,-0.00015059666,0.0060084756,-2.2464845e-07,0,0,1
5171000,5019000,5019000,0,-0.010148556,-0.018629836,-0.99977493,1.0,1.0,1.0,0.0010970859,0.03796172,2.861023e-06,-0.0020581644,0.015067916,1.08459335e-05,1.0100155,1.009968,1.0000045,1.9066598e-05,0.022829909,1.3096664e-10,-0.0001479248,0.00627338,-2.211086e-07,0,0,1
5187000,5035000,5035000,0,0.015179879,-0.008535346,-0.99984837,1.0,1.0,1.0,-0.024179423,0.028000478,7.82609e-05,-0.0024822466,0.015499119,1.4451968e-05,1.0100219,1.0099744,1.0000046,0.009261494,0.012420541,9.799584e-08,-0.0003009892,0.0064902455,-2.0506124e-07,0,0,1
5195000,5043000,5043000,0,0.008548137,-0.008834394,-0.99992436,1.0,1.0,1.0,-0.017643495,0.028313266,0.00015550852,-0.0027210065,0.015700916,1.6673332e-05,1.0100251,1.0099776,1.0000046,0.00493125,0.012699545,3.869246e-07,-0.0003739067,0.0065880297,-1.9573864e-07,0,0,1
5203000,5051000,5051000,0,0.03309788,0.013921708,-0.9993551,1.0,1.0,1.0,-0.042154074,0.005396612,-0.00041735172,-0.0033419996,0.015538643,9.838292e-06,1.0100285,1.0099809,1.0000045,0.028149161,0.00046136984,2.7869066e-06,-0.00081131223,0.006491547,-2.3654442e-07,0,0,1
5211000,5059000,5059000,0,0.010471467,0.0045948606,-0.99993455,1.0,1.0,1.0,-0.019600822,0.014653197,0.00016152859,-0.0035980442,0.015524699,1.2227115e-05,1.0100317,1.0099843,1.0000045,0.006086022,0.0034014974,4.1746185e-07,-0.0008943785,0.006442885,-2.262451e-07,0,0,1
5227000,5075000,5075000,0,0.013469465,-0.010912325,-0.9998498,1.0,1.0,1.0,-0.022937132,0.030380182,8.422136e-05,-0.004005654,0.016014207,1.5477352e-05,1.0100383,1.0099908,1.0000046,0.008334133,0.014621209,1.1349128e-07,-0.001023458,0.006723452,-2.1189904e-07,0,0,1
5235000,5083000,5083000,0,0.0027688406,0.0037525448,-0.9999891,1.0,1.0,1.0,-0.012178352,0.015827948,0.00022500753,-0.004134358,0.016011273,1.8777038e-05,1.0100418,1.0099941,1.0000046,0.002349404,0.003968719,8.100505e-07,-0.001044339,0.0066800704,-1.9580534e-07,0,0,1
5243000,5091000,5091000,0,-0.005928449,0.02243974,-0.9997306,1.0,1.0,1.0,-0.0035060695,-0.0027333423,-3.0696392e-05,-0.0041244635,0.015716083,1.7997929e-05,1.0100452,1.0099975,1.0000048,0.00019472434,0.00011835531,1.5076225e-08,-0.0010309593,0.0065730084,-1.9295922e-07,0,0,1
5251000,5099000,5099000,0,0.010995184,-0.00070677,-0.99993926,1.0,1.0,1.0,-0.020453706,0.020572066,0.00018131733,-0.004381617,0.015792556,2.0569889e-05,1.0100486,1.0100008,1.0000048,0.006627073,0.00670431,5.260131e-07,-0.0011190871,0.006575076,-1.8163682e-07,0,0,1
5267000,5115000,5115000,0,0.0007427032,0.017813774,-0.99984103,1.0,1.0,1.0,-0.010306554,0.0022733063,8.845329e-05,-0.0043521,0.015790593,2.311702e-05,1.0100555,1.0100077,1.000005,0.0016826806,8.186743e-05,1.2518313e-07,-0.0011075356,0.0065831677,-1.7065652e-07,0,0,1
5275000,5123000,5123000,0,0.012602035,-9.431483e-05,-0.9999206,1.0,1.0,1.0,-0.018597823,0.016673626,7.599592e-05,-0.0045764423,0.0158045,2.3949759e-05,1.0099503,1.0099039,1.0000031,0.005479541,0.004404535,9.24058e-08,-0.001176386,0.0065488587,-1.665138e-07,0,0,1
5283000,5131000,5131000,0,0.010675017,0.009918774,-0.99989384,1.0,1.0,1.0,-0.016709762,0.0067058913,5.030632e-05,-0.004767518,0.015661214,2.4364823e-05,1.0099521,1.0099057,1.0000031,0.004423436,0.0007124464,4.049149e-08,-0.0012275206,0.0064569465,-1.6325387e-07,0,0,1
5291000,5139000,5139000,0,-0.0031668546,-0.0012223667,-0.99999416,1.0,1.0,1.0,-0.002902927,0.018033534,0.0001538992,-0.0047381544,0.015698573,2.6404734e-05,1.0099539,1.0099075,1.0000032,0.00013350291,0.0051522874,3.7895816e-07,-0.001210292,0.0064364006,-1.547151e-07,0,0,1
5307000,5155000,5155000,0,-0.01511826,-0.0029207377,-0.9998814,1.0,1.0,1.0,0.01624842,0.0010009386,-0.00011622906,-0.00416381,0.01551694,2.3980227e-05,1.0004468,1.0004467,1.0,0.004222292,1.6022974e-05,2.161471e-07,-0.0010763007,0.0063233688,-1.5322938e-07,0,0,1
5315000,5163000,5163000,0,0.014863194,0.006945747,-0.99986535,1.0,1.0,1.0,-0.013311493,-0.008652705,-0.0001320839,-0.004307868,0.0151363155,2.1522525e-05,1.0004468,1.0004468,1.0,0.0028338674,0.0011973747,2.7913848e-07,-0.001103979,0.006204932,-1.552122e-07,0,0,1
5323000,5171000,5171000,0,0.025099907,0.0070442464,-0.99966013,1.0,1.0,1.0,-0.023395672,-0.0086383745,-0.00033712387,-0.0046084635,0.014761911,1.587455e-05,1.0004469,1.0004469,1.0,0.008753807,0.001193412,1.8184401e-06,-0.0012244487,0.0060884226,-1.8140477e-07,0,0,1
5331000,5179000,5179000,0,-0.009827742,0.020755788,-0.99973625,1.0,1.0,1.0,0.011529351,-0.02222845,-0.00026124716,-0.0043543247,0.014179385,1.15104285e-05,1.000447,1.000447,1.0,0.0021258644,0.00790213,1.0920012e-06,-0.0011716879,0.005868099,-1.9574487e-07,0,0,1
5347000,5195000,5195000,0,0.015062246,-0.027302777,-0.99951375,1.0,1.0,1.0,-0.013108826,0.025738418,-0.00048315525,-0.004220818,0.014239357,2.1386422e-06,1.0004474,1.0004473,1.0,0.0027482316,0.010594718,3.735024e-06,-0.0011354652,0.0058614314,-2.5048047e-07,0,0,1
5355000,5203000,5203000,0,0.0086842105,-0.014602192,-0.9998557,1.0,1.0,1.0,-0.00674433,0.0129767945,-0.0001410842,-0.0042605586,0.014219474,-1.1683551e-07,1.0004475,1.0004475,1.0,0.0007274502,0.0026931497,3.18476e-07,-0.0011290398,0.005811537,-2.5155126e-07,0,0,1
5363000,5211000,5211000,0,-0.004305692,-0.011698245,-0.9999222,1.0,1.0,1.0,0.0063229403,0.010142158,-7.4505806e-05,-0.004093889,0.014155264,-1.2883153e-06,1.0004478,1.0004476,1.0,0.00063938694,0.0016450777,8.881784e-08,-0.0011011906,0.0057459236,-2.4898853e-07,0,0,1
5371000,5219000,5219000,0,-0.017886482,-0.0016565012,-0.9998387,1.0,1.0,1.0,0.019884309,9.165821e-05,-0.00015807152,-0.0037162798,0.01393379,-3.7573423e-06,1.0004479,1.0004479,1.0,0.0063233394,1.3436866e-07,3.9978568e-07,-0.0009842688,0.0056554386,-2.5136328e-07,0,0,1
5387000,5235000,5235000,0,0.007077789,-0.00014362471,-0.99997497,1.0,1.0,1.0,-0.0048547103,-0.0013520514,-2.1457672e-05,-0.00369707,0.013499941,-4.086866e-06,1.0004483,1.0004482,1.0,0.0003769224,2.9235614e-05,7.366907e-09,-0.0009598803,0.0054787956,-2.4363695e-07,0,0,1
5395000,5243000,5243000,0,-0.00082644826,0.012666396,-0.99991935,1.0,1.0,1.0,0.0031481623,-0.0139098745,-7.712841e-05,-0.003589271,0.01306829,-5.2361875e-06,1.0004486,1.0004485,1.0,0.00015850371,0.003094366,9.503361e-08,-0.00094226794,0.005343785,-2.4129673e-07,0,0,1
5403000,5251000,5251000,0,-0.008262581,0.018739788,-0.99979025,1.0,1.0,1.0,0.010630065,-0.019951833,-0.00020629168,-0.0033653446,0.012548288,-8.402416e-06,1.0004488,1.0004487,1.0,0.0018071614,0.0063663526,6.809001e-07,-0.0008989698,0.0051593734,-2.482196e-07,0,0,1
5411000,5259000,5259000,0,0.009534206,-0.0031939936,-0.99994946,1.0,1.0,1.0,-0.007220174,0.0019479655,-4.708767e-05,-0.0034260505,0.012381354,-9.011633e-06,1.0004491,1.0004491,1.0,0.00083372026,6.068578e-05,3.5475978e-08,-0.0008979423,0.005079079,-2.448693e-07,0,0,1
5427000,5275000,5275000,0,-0.016362207,0.01631303,-0.99973303,1.0,1.0,1.0,0.018114507,-0.018042456,-0.00026392937,-0.0030928547,0.011682915,-1.31053475e-05,1.0004497,1.0004495,1.0,0.005247806,0.005206142,1.114036e-06,-0.00079084816,0.0048376056,-2.548114e-07,0,0,1
5435000,5283000,5283000,0,-0.014739419,0.0066367527,-0.99986935,1.0,1.0,1.0,0.016426474,-0.00862535,-0.00012725592,-0.0027854638,0.011363099,-1.4902995e-05,1.00045,1.0004499,1.0,0.0043153227,0.0011898106,2.591051e-07,-0.000710436,0.0047426857,-2.54879e-07,0,0,1
5443000,5291000,5291000,0,0.0054263934,0.005652593,-0.99996936,1.0,1.0,1.0,-0.0037343143,-0.0077669146,-2.6881695e-05,-0.0028004064,0.011061839,-1.5091636e-05,1.0004503,1.0004503,1.0,0.00022302124,0.0009647652,1.1562008e-08,-0.0007027602,0.0046528047,-2.5104725e-07,0,0,1
5451000,5299000,5299000,0,0.014850421,0.010959388,-0.9998297,1.0,1.0,1.0,-0.013392959,-0.013367745,-0.00016629696,-0.0029672182,0.010677121,-1.7472823e-05,1.0004506,1.0004505,1.0,0.0028686489,0.0028578595,4.4247486e-07,-0.00073686865,0.0045345267,-2.5406186e-07,0,0,1
5467000,5315000,5315000,0,0.01986236,-0.001284376,-0.99980193,1.0,1.0,1.0,-0.018433364,-0.001132651,-0.00019401312,-0.0034221113,0.010289517,-2.2447051e-05,1.0004513,1.0004512,1.0,0.00543417,2.051721e-05,6.0225744e-07,-0.00086774095,0.0043911617,-2.6187897e-07,0,0,1
5475000,5323000,5323000,0,0.012366483,0.010880931,-0.99986434,1.0,1.0,1.0,-0.011011566,-0.013430264,-0.00013148785,-0.0035416302,0.009915978,-2.416423e-05,1.0004517,1.0004516,1.0,0.0019391974,0.00288465,2.7662486e-07,-0.0008846143,0.004276582,-2.6211117e-07,0,0,1
5483000,5331000,5331000,0,-0.011557947,0.019305618,-0.9997468,1.0,1.0,1.0,0.012744835,-0.022138322,-0.00024855137,-0.0032851505,0.009411186,-2.7696948e-05,1.000452,1.000452,1.0,0.0025977187,0.00783814,9.879705e-07,-0.0008297744,0.004085799,-2.73542e-07,0,0,1
5491000,5339000,5339000,0,0.017129343,0.009567479,-0.9998075,1.0,1.0,1.0,-0.015999816,-0.012544336,-0.00018751621,-0.0034853814,0.00906543,-3.0213787e-05,1.0004525,1.0004524,1.0,0.004094053,0.0025166282,5.625973e-07,-0.0008811804,0.003981824,-2.7809406e-07,0,0,1
5507000,5355000,5355000,0,-0.01896737,-0.019724764,-0.9996255,1.0,1.0,1.0,0.020341912,0.016960176,-0.00036978722,-0.003143052,0.009174342,-3.6286732e-05,1.0004534,1.0004532,1.0,0.006617694,0.0046002767,2.1878814e-06,-0.0007572261,0.0039459923,-3.0532973e-07,0,0,1
5515000,5363000,5363000,0,0.015391302,-0.015223586,-0.99976563,1.0,1.0,1.0,-0.013823906,0.012472821,-0.00022935867,-0.0033112545,0.009226287,-3.9327235e-05,1.0004538,1.0004537,1.0,0.003056219,0.0024880108,8.416864e-07,-0.0007934307,0.003923032,-3.137763e-07,0,0,1
5523000,5371000,5371000,0,0.006017605,-0.0036233652,-0.9999753,1.0,1.0,1.0,-0.004529846,0.00073328614,-1.9490719e-05,-0.003330445,0.009092539,-3.901485e-05,1.0004542,1.0004542,1.0,0.00032816303,8.599404e-06,6.07821e-09,-0.00078610366,0.0038613873,-3.0893065e-07,0,0,1
5531000,5379000,5379000,0,-0.0010479946,-0.00040467383,-0.99999934,1.0,1.0,1.0,0.0025471468,-0.002540338,4.6491623e-06,-0.0032378845,0.008909344,-3.8327227e-05,1.0004547,1.0004547,1.0,0.000103760125,0.00010320612,3.4583536e-10,-0.00077209005,0.0037989528,-3.0406017e-07,0,0,1
5547000,5395000,5395000,0,0.00025349416,-0.014352363,-0.999897,1.0,1.0,1.0,0.0010717704,0.0115261935,-9.8109245e-05,-0.0030549834,0.00879652,-3.8675527e-05,1.0004556,1.0004556,1.0,1.8370702e-05,0.002124682,1.5400678e-07,-0.00074333587,0.0037134402,-2.9698418e-07,0,0,1
5555000,5403000,5403000,0,0.011575212,-0.0038342094,-0.9999257,1.0,1.0,1.0,-0.010287394,0.0010289217,-6.955862e-05,-0.0031688798,0.008674195,-3.9161874e-05,1.0004562,1.0004561,1.0,0.0016925153,1.693111e-05,7.741443e-08,-0.0007582836,0.0036552274,-2.935264e-07,0,0,1
5563000,5411000,5411000,0,0.0033732208,-0.0033287497,-0.99998885,1.0,1.0,1.0,-0.0021574856,0.0006431665,-6.7949295e-06,-0.0031529523,0.008547722,-3.8652157e-05,1.0004567,1.0004566,1.0,7.44419e-05,6.615585e-06,7.3873707e-10,-0.0007475144,0.003597769,-2.8891557e-07,0,0,1
5571000,5419000,5419000,0,0.008150707,0.007546769,-0.99993825,1.0,1.0,1.0,-0.0068738842,-0.01022351,-5.733967e-05,-0.0032115497,0.008252112,-3.8946448e-05,1.0004573,1.0004572,1.0,0.00075565896,0.0016715586,5.26054e-08,-0.00074764265,0.0035147874,-2.8519415e-07,0,0,1
5587000,5435000,5435000,0,0.021165702,-0.003329826,-0.9997704,1.0,1.0,1.0,-0.01986774,0.00047594076,-0.00022470951,-0.0035149772,0.008076994,-4.2039614e-05,1.0004584,1.0004582,1.0,0.00631274,3.622611e-06,8.079098e-07,-0.0008322198,0.0034108567,-2.8961966e-07,0,0,1
5595000,5443000,5443000,0,0.0056698895,0.005494733,-0.9999689,1.0,1.0,1.0,-0.004298718,-0.008217322,-2.6524067e-05,-0.0035273195,0.00782039,-4.1795276e-05,1.000459,1.0004588,1.0,0.00029552804,0.0010798948,1.1256418e-08,-0.000823768,0.0033401363,-2.8523598e-07,0,0,1
5603000,5451000,5451000,0,0.00021008904,-0.013243429,-0.99991226,1.0,1.0,1.0,0.0011771768,0.010863857,-8.3982944e-05,-0.003453233,0.007868319,-4.2459647e-05,1.0004596,1.0004594,1.0,2.2161741e-05,0.0018875072,1.1285016e-07,-0.0008104462,0.0033172602,-2.8252126e-07,0,0,1
5611000,5459000,5459000,0,0.023505252,-0.01662207,-0.99958557,1.0,1.0,1.0,-0.022143938,0.014204904,-0.0004104972,-0.003747575,0.007968107,-4.8255515e-05,1.0004601,1.00046,1.0,0.007842055,0.0032269827,2.696127e-06,-0.00092118024,0.0033158385,-3.205308e-07,0,0,1
5627000,5475000,5475000,0,0.008616133,-0.0138670495,-0.99986666,1.0,1.0,1.0,-0.0072856266,0.011182749,-0.00012892485,-0.003876796,0.0077607124,-4.973045e-05,1.0004613,1.0004612,1.0,0.00084889407,0.001999939,2.6594586e-07,-0.00092363014,0.0032250513,-3.156395e-07,0,0,1
5635000,5483000,5483000,0,0.010956537,0.006973419,-0.99991566,1.0,1.0,1.0,-0.009594795,-0.009730067,-7.95722e-05,-0.0039668432,0.0074852672,-5.02004e-05,1.0004619,1.0004619,1.0,0.0014722814,0.0015140885,1.0130776e-07,-0.0009322703,0.003150419,-3.122642e-07,0,0,1
5643000,5491000,5491000,0,0.0013348778,0.0130293,-0.99991417,1.0,1.0,1.0,-6.468373e-05,-0.015886078,-8.094311e-05,-0.003905392,0.0071172146,-5.068454e-05,1.0004627,1.0004625,1.0,6.69128e-08,0.0040360126,1.0482859e-07,-0.00091758993,0.0030372469,-3.089975e-07,0,0,1
5651000,5499000,5499000,0,-0.0015201138,0.0037354117,-0.9999919,1.0,1.0,1.0,0.0026407938,-0.0066704294,-3.2186508e-06,-0.0038023025,0.0069000865,-4.9937044e-05,1.0004632,1.0004632,1.0,0.00011152901,0.0007115844,1.6575541e-10,-0.00090138335,0.00297821,-3.04134e-07,0,0,1
5667000,5515000,5515000,0,-0.0032707998,0.002291408,-0.99999195,1.0,1.0,1.0,0.004479803,-0.0053886157,-2.503395e-06,-0.0035296895,0.0064052446,-4.9160673e-05,1.0004647,1.0004646,1.0,0.00032094904,0.00046437897,1.0027179e-10,-0.0008610117,0.0028388547,-2.9520436e-07,0,0,1
5675000,5523000,5523000,0,-0.001543951,0.0009123902,-0.9999984,1.0,1.0,1.0,0.002776712,-0.0036390289,2.7418137e-06,-0.003430376,0.006247067,-4.834331e-05,1.0004654,1.0004653,1.0,0.0001233047,0.00021178191,1.2028067e-10,-0.0008455106,0.002790813,-2.9055357e-07,0,0,1
5683000,5531000,5531000,0,0.0022708226,-0.0065488787,-0.99997604,1.0,1.0,1.0,-0.00089897274,0.0037395149,-1.9133091e-05,-0.0033905115,0.006207578,-4.7883306e-05,1.0004661,1.000466,1.0,1.2924407e-05,0.00022363922,5.8572027e-09,-0.00083239906,0.002750385,-2.8607016e-07,0,0,1
5691000,5539000,5539000,0,0.01111094,-0.011342418,-0.999874,1.0,1.0,1.0,-0.009650738,0.008264612,-0.00012022257,-0.0034890978,0.006239972,-4.9022507e-05,1.0004668,1.0004667,1.0,0.0014894926,0.0010923508,2.3125546e-07,-0.000842747,0.0027242743,-2.8520694e-07,0,0,1
5707000,5555000,5555000,0,0.00021987139,0.0013308789,-0.99999917,1.0,1.0,1.0,0.0012590786,-0.0044599357,5.185604e-06,-0.003512054,0.006071738,-4.8980495e-05,1.0004684,1.0004683,1.0,2.5352589e-05,0.00031810734,4.3024784e-10,-0.00083979266,0.002643842,-2.788373e-07,0,0,1
5715000,5563000,5563000,0,0.0016341674,-0.011344941,-0.99993426,1.0,1.0,1.0,-0.00012338418,0.008328304,-6.0081482e-05,-0.0034586892,0.0061072744,-4.9155315e-05,1.0004691,1.000469,1.0,2.4346429e-07,0.00110925,5.775655e-08,-0.0008265714,0.0026196751,-2.7535572e-07,0,0,1
5723000,5571000,5571000,0,0.0105266515,-0.002476118,-0.9999415,1.0,1.0,1.0,-0.008908006,-0.00045340578,-5.2809715e-05,-0.0035445052,0.006003957,-4.921474e-05,1.0004699,1.0004698,1.0,0.0012690448,3.2877047e-06,4.4823537e-08,-0.0008335395,0.0025783686,-2.717253e-07,0,0,1
5731000,5579000,5579000,0,0.0005701703,-0.005733575,-0.99998343,1.0,1.0,1.0,0.001294787,0.002856949,-1.0550022e-05,-0.0034682958,0.005954398,-4.860585e-05,1.0004706,1.0004706,1.0,2.6810958e-05,0.00013053314,1.7808475e-09,-0.0008199907,0.00253982,-2.674742e-07,0,0,1
5747000,5595000,5595000,0,0.006545731,0.0021979692,-0.9999761,1.0,1.0,1.0,-0.0048083635,-0.0054041427,-1.7285347e-05,-0.0033979523,0.005864481,-4.895383e-05,1.0004723,1.0004722,1.0,0.00036975113,0.00046705574,4.7805315e-09,-0.00079872494,0.0024869961,-2.6181624e-07,0,0,1
5755000,5603000,5603000,0,0.0131717045,0.008093533,-0.9998805,1.0,1.0,1.0,-0.011585044,-0.011258746,-0.000113248825,-0.003526883,0.005594824,-4.9966347e-05,1.0004731,1.000473,1.0,0.0021463963,0.0020271915,2.0520474e-07,-0.0008199481,0.0024159066,-2.609247e-07,0,0,1
5763000,5611000,5611000,0,-0.015315705,-0.005171977,-0.9998693,1.0,1.0,1.0,0.016950738,0.0019641253,-0.00012433529,-0.0032044007,0.0055376478,-5.113751e-05,1.000474,1.0004739,1.0,0.004595062,6.169552e-05,2.4734823e-07,-0.00073467236,0.0023788325,-2.607109e-07,0,0,1
5771000,5619000,5619000,0,-0.02581114,0.0034325449,-0.9996609,1.0,1.0,1.0,0.027379911,-0.006845298,-0.00033199787,-0.0027227579,0.005342641,-5.5560507e-05,1.0004748,1.0004748,1.0,0.011988861,0.0007493731,1.7635614e-06,-0.00053430174,0.0023295695,-2.8437782e-07,0,0,1
5787000,5635000,5635000,0,-0.018538859,-0.0170475,-0.9996828,1.0,1.0,1.0,0.020334221,0.013891065,-0.000310719,-0.001830638,0.0055211093,-6.6476205e-05,1.0004766,1.0004765,1.0,0.0066125374,0.0030859178,1.5429634e-06,-0.0001689546,0.002321924,-3.6197363e-07,0,0,1
5795000,5643000,5643000,0,-0.018344915,0.0136257615,-0.9997388,1.0,1.0,1.0,0.020068016,-0.016720142,-0.00025492907,-0.0014857773,0.0051708533,-6.9443966e-05,1.0004774,1.0004774,1.0,0.0064405296,0.004470874,1.0398212e-06,-6.486824e-05,0.002214951,-3.726484e-07,0,0,1
5803000,5651000,5651000,0,-0.030671554,0.007350239,-0.99950254,1.0,1.0,1.0,0.032264993,-0.010463812,-0.0004913807,-0.00095426914,0.004924638,-7.60877e-05,1.0004784,1.0004784,1.0,0.01664851,0.0017510228,3.8623425e-06,0.00019833457,0.0021524946,-4.2760422e-07,0,0,1
5811000,5659000,5659000,0,-0.0144150555,-0.007611084,-0.9998672,1.0,1.0,1.0,0.015785659,0.004410412,-0.00012677908,-0.0006906482,0.0049165403,-7.688599e-05,1.0004793,1.0004792,1.0,0.0039850823,0.00031107897,2.5716696e-07,0.0002579684,0.002123496,-4.2492016e-07,0,0,1
5827000,5675000,5675000,0,0.0054933713,0.0023514924,-0.9999821,1.0,1.0,1.0,-0.004241436,-0.0053119906,-1.2695789e-05,-0.0005675822,0.004545179,-7.55352e-05,1.0004812,1.0004811,1.0,0.000287698,0.00045125888,2.578929e-09,0.00027459388,0.0020314874,-4.1243183e-07,0,0,1
5835000,5683000,5683000,0,-0.001798693,0.0030534852,-0.99999374,1.0,1.0,1.0,0.0030577197,-0.0061171465,-7.1525574e-07,-0.00051049085,0.0043772687,-7.435693e-05,1.0004822,1.0004821,1.0,0.00014952228,0.000598423,8.185452e-12,0.00027262425,0.0019900715,-4.0593696e-07,0,0,1
5843000,5691000,5691000,0,-0.0037996878,-0.019099949,-0.99981034,1.0,1.0,1.0,0.004994626,0.01588151,-0.00018370152,-0.0004237961,0.004558438,-7.6079836e-05,1.0004832,1.000483,1.0,0.0003989479,0.0040336098,5.402904e-07,0.0002746136,0.0020222531,-4.0805276e-07,0,0,1
5851000,5699000,5699000,0,0.007519812,0.0012003302,-0.99997103,1.0,1.0,1.0,-0.0061738463,-0.0044659954,-2.2649765e-05,-0.00051434804,0.004416321,-7.5238415e-05,1.0004841,1.0004841,1.0,0.0006095669,0.00031896768,8.20819e-09,0.00026068947,0.0019853835,-4.0175598e-07,0,0,1
5867000,5715000,5715000,0,-0.005495214,0.0013089516,-0.999984,1.0,1.0,1.0,0.006969173,-0.0044436497,-1.001358e-05,-0.00055761053,0.0038529495,-7.7138735e-05,1.0004861,1.0004861,1.0,0.00077673234,0.0003157827,1.6043487e-09,0.00023527762,0.0017880573,-4.0652594e-07,0,0,1
5875000,5723000,5723000,0,-0.00018197174,-0.012378062,-0.99992335,1.0,1.0,1.0,0.0016233643,0.009121649,-7.021427e-05,-0.00052326446,0.003935921,-7.7032506e-05,1.0004872,1.0004871,1.0,4.2144453e-05,0.0013306236,7.9282984e-08,0.00023223615,0.0017808536,-4.0137252e-07,0,0,1
5883000,5731000,5731000,0,0.015981264,-0.007856102,-0.9998414,1.0,1.0,1.0,-0.014655893,0.004605691,-0.00015252829,-0.0007458255,0.0039464687,-7.822142e-05,1.0004882,1.0004882,1.0,0.0034350462,0.00033923236,3.7223805e-07,0.00017448368,0.0017581509,-4.009137e-07,0,0,1
5891000,5739000,5739000,0,0.0013704041,-0.013268377,-0.999911,1.0,1.0,1.0,-4.879548e-06,0.009925015,-8.249283e-05,-0.0007341571,0.004040619,-7.8288685e-05,1.0004892,1.0004892,1.0,3.8077355e-10,0.0015753242,1.0888107e-07,0.0001717359,0.0017552717,-3.9631476e-07,0,0,1
5907000,5755000,5755000,0,0.0022870197,-0.006539061,-0.99997604,1.0,1.0,1.0,-0.00089693745,0.0029060498,-1.6450882e-05,-0.0010766301,0.004091524,-8.1619684e-05,1.0004914,1.0004913,1.0,1.2865627e-05,0.00013505568,4.3301043e-09,3.8844806e-05,0.0017203644,-4.1543277e-07,0,0,1
5915000,5763000,5763000,0,-0.0022877248,0.0013455248,-0.9999965,1.0,1.0,1.0,0.0035273707,-0.0047822585,3.0994415e-06,-0.0010041262,0.0039517796,-8.028459e-05,1.0004925,1.0004925,1.0,0.00019897951,0.0003657397,1.5967316e-10,4.1366613e-05,0.0016875124,-4.08888e-07,0,0,1
5923000,5771000,5771000,0,-0.0038562755,-0.0020345424,-0.9999905,1.0,1.0,1.0,0.005402944,-0.0011699682,-3.1590462e-06,-0.0009032274,0.0038711221,-7.9070014e-05,1.0004935,1.0004935,1.0,0.00046683848,2.1890379e-05,1.5967316e-10,4.806696e-05,0.0016605926,-4.0245135e-07,0,0,1
5931000,5779000,5779000,0,-0.014524262,-0.021570295,-0.9996619,1.0,1.0,1.0,0.016099688,0.018250924,-0.00033146143,-0.00063546497,0.004097576,-8.304468e-05,1.0004947,1.0004946,1.0,0.004145148,0.0053269067,1.7578668e-06,0.00011258792,0.0017183298,-4.2379648e-07,0,0,1
5947000,5795000,5795000,0,0.0061638816,0.0035110163,-0.99997485,1.0,1.0,1.0,-0.00449561,-0.006787451,-1.835823e-05,-0.000837097,0.004047531,-8.342451e-05,1.000497,1.0004969,1.0,0.00032320753,0.000736746,5.392394e-09,8.0550926e-05,0.001688301,-4.1808423e-07,0,0,1
5955000,5803000,5803000,0,-0.008835586,0.011889108,-0.9998903,1.0,1.0,1.0,0.010494293,-0.015113342,-0.000103235245,-0.00065864995,0.0037457852,-8.373273e-05,1.000498,1.000498,1.0,0.0017612057,0.0036527896,1.6973354e-07,0.00010701793,0.0016041893,-4.141732e-07,0,0,1
5963000,5811000,5811000,0,-0.025633654,-0.0018359245,-0.9996697,1.0,1.0,1.0,0.027145637,-0.001301458,-0.00032436848,-0.00022078716,0.0036663013,-8.751945e-05,1.0004992,1.0004991,1.0,0.011784287,2.7086991e-05,1.681583e-06,0.00029091194,0.0015784999,-4.341324e-07,0,0,1
5971000,5819000,5819000,0,-0.012482996,0.012235325,-0.9998473,1.0,1.0,1.0,0.013898596,-0.015204258,-0.00014734268,1.565335e-06,0.0033691272,-8.846155e-05,1.0005004,1.0005003,1.0,0.0030891895,0.003696861,3.4735785e-07,0.0003349793,0.0014954234,-4.327659e-07,0,0,1
5987000,5835000,5835000,0,0.0032801623,-0.009700304,-0.99994755,1.0,1.0,1.0,-0.002309385,0.0068732826,-4.7922134e-05,-7.638271e-05,0.0034089587,-8.670974e-05,1.0005028,1.0005027,1.0,8.528926e-05,0.0007554924,3.6744495e-08,0.00032138915,0.0014619943,-4.1989003e-07,0,0,1
5995000,5843000,5843000,0,-0.002722635,-0.016649459,-0.9998577,1.0,1.0,1.0,0.0037360801,0.013721491,-0.00013750792,-1.6343929e-05,0.0035713608,-8.750971e-05,1.000504,1.0005039,1.0,0.00022322021,0.0030109524,3.0253483e-07,0.00031984318,0.0014863873,-4.180419e-07,0,0,1
6003000,5851000,5851000,0,0.017809046,0.0031295847,-0.99983656,1.0,1.0,1.0,-0.016716314,-0.0059456397,-0.00015890598,-0.00027933557,0.0034214868,-8.8634064e-05,1.0005052,1.0005052,1.0,0.004468705,0.00056532485,4.0401778e-07,0.00024443297,0.001454077,-4.1782104e-07,0,0,1
6011000,5859000,5859000,0,0.0063460963,0.014776314,-0.9998706,1.0,1.0,1.0,-0.005213466,-0.017344719,-0.00012552738,-0.0003570384,0.00309446,-8.9214125e-05,1.0005064,1.0005064,1.0,0.00043466353,0.004810992,2.518746e-07,0.00023373854,0.0013554145,-4.1520772e-07,0,0,1
6027000,5875000,5875000,0,-0.011341356,0.012304168,-0.99986,1.0,1.0,1.0,0.012027576,-0.0148451645,-0.00013667345,-0.00011491463,0.0024301338,-9.132353e-05,1.0005089,1.0005089,1.0,0.002313424,0.003524268,2.988741e-07,0.00026464826,0.0011425689,-4.1471708e-07,0,0,1
6035000,5883000,5883000,0,-0.011108642,0.020461965,-0.99972886,1.0,1.0,1.0,0.011972649,-0.022953084,-0.00026768446,7.544071e-05,0.002030398,-9.410086e-05,1.0005102,1.0005102,1.0,0.0022923397,0.008425204,1.1464795e-06,0.0002965804,0.0009918953,-4.262409e-07,0,0,1
6043000,5891000,5891000,0,0.008952612,0.015552455,-0.99983895,1.0,1.0,1.0,-0.008298925,-0.0180855,-0.00015765429,-5.6439065e-05,0.0017136121,-9.510171e-05,1.0005115,1.0005114,1.0,0.0011013912,0.005230691,3.9767798e-07,0.0002745651,0.00089390186,-4.257911e-07,0,0,1
6051000,5899000,5899000,0,0.010559488,-0.0060577085,-0.999926,1.0,1.0,1.0,-0.010050334,0.003809482,-7.1406364e-05,-0.00021382324,0.001746618,-9.472855e-05,1.0005128,1.0005127,1.0,0.001615319,0.00023207524,8.15819e-08,0.00024480314,0.00088347937,-4.2037047e-07,0,0,1
6067000,5915000,5915000,0,0.0024463169,-0.016653478,-0.9998584,1.0,1.0,1.0,-0.0016866666,0.014222619,-0.00013846159,-0.00012313343,0.0018515578,-9.4271396e-05,1.0005155,1.0005153,1.0,4.549406e-05,0.0032348589,3.067458e-07,0.00024905064,0.00090252806,-4.1217265e-07,0,0,1
6075000,5923000,5923000,0,0.007012112,-0.0188779,-0.9997972,1.0,1.0,1.0,-0.006063871,0.01627632,-0.0001989007,-0.00021668835,0.0020787194,-9.592004e-05,1.0005168,1.0005167,1.0,0.0005880246,0.004236508,6.3336324e-07,0.00023586836,0.00095503166,-4.1565596e-07,0,0,1
6083000,5931000,5931000,0,-0.010331648,-0.021577206,-0.9997138,1.0,1.0,1.0,0.011249808,0.018825337,-0.00028198957,-3.611362e-05,0.0023424458,-9.8849334e-05,1.0005181,1.0005181,1.0,0.0020238822,0.0056673572,1.2717521e-06,0.00026402605,0.0010292415,-4.291378e-07,0,0,1
6091000,5939000,5939000,0,-0.0005294711,-0.001165876,-0.9999992,1.0,1.0,1.0,0.001523463,-0.001583234,3.516674e-06,-1.1553357e-05,0.0022806241,-9.723727e-05,1.0005194,1.0005194,1.0,3.711576e-05,4.0085248e-05,1.9787194e-10,0.00026045265,0.0010124017,-4.2237662e-07,0,0,1
6107000,5955000,5955000,0,-0.016088875,0.014134847,-0.9997707,1.0,1.0,1.0,0.017248353,-0.017003002,-0.0002245307,0.00022070642,0.0019047812,-9.776426e-05,1.0005221,1.0005221,1.0,0.0047576064,0.004623218,8.0619634e-07,0.00032560847,0.00090656127,-4.2187514e-07,0,0,1
6115000,5963000,5963000,0,-0.011202954,0.0119536845,-0.99986583,1.0,1.0,1.0,0.012537583,-0.015020837,-0.00012868643,0.00041467298,0.001638236,-9.825123e-05,1.0005236,1.0005236,1.0,0.0025137395,0.0036081192,2.6496315e-07,0.00036006724,0.0008354639,-4.1940407e-07,0,0,1
6123000,5971000,5971000,0,-0.0007772101,-0.0042629475,-0.9999906,1.0,1.0,1.0,0.0020859172,0.0010991062,-3.516674e-06,0.00044099177,0.0016297457,-9.6759344e-05,1.000525,1.0005249,1.0,6.9580274e-05,1.931841e-05,1.9787194e-10,0.00035549264,0.00082261127,-4.128024e-07,0,0,1
6131000,5979000,5979000,0,-0.010707744,-0.017005261,-0.99979806,1.0,1.0,1.0,0.011918924,0.013722289,-0.00019580126,0.00062174664,0.0018201795,-9.831906e-05,1.0005264,1.0005263,1.0,0.002271776,0.0030112355,6.134101e-07,0.00038567034,0.0008570778,-4.1596158e-07,0,0,1
6147000,5995000,5995000,0,-0.016529461,-0.00432625,-0.99985397,1.0,1.0,1.0,0.017813627,0.0012185585,-0.00014030933,0.0010544749,0.001784458,-9.8193625e-05,1.0005293,1.0005292,1.0,0.0050745187,2.3745682e-05,3.1498735e-07,0.0004839225,0.00083067367,-4.0848508e-07,0,0,1
6155000,6003000,6003000,0,-0.0039707976,-0.00632121,-0.9999722,1.0,1.0,1.0,0.0054337354,0.003077366,-2.1517277e-05,0.0011234395,0.0018048189,-9.698612e-05,1.0005307,1.0005306,1.0,0.00047215712,0.00015144263,7.407891e-09,0.0004837372,0.00081997714,-4.021689e-07,0,0,1
6163000,6011000,6011000,0,-0.00038573315,0.0055887545,-0.99998426,1.0,1.0,1.0,0.0018552418,-0.008631944,-1.001358e-05,0.0011349639,0.0016404605,-9.561647e-05,1.0005322,1.0005322,1.0,5.5041466e-05,0.0011915328,1.6043487e-09,0.00047698608,0.00078829983,-3.9586078e-07,0,0,1
6171000,6019000,6019000,0,-0.007628445,-0.017021384,-0.99982613,1.0,1.0,1.0,0.009250789,0.01423384,-0.00016862154,0.0012627722,0.0018387814,-9.676616e-05,1.0005336,1.0005336,1.0,0.0013685034,0.0032399066,4.5493158e-07,0.00049102574,0.0008269078,-3.9679102e-07,0,0,1
6187000,6035000,6035000,0,-0.015993133,-0.017513333,-0.9997187,1.0,1.0,1.0,0.017556943,0.014632016,-0.0002759695,0.0015276559,0.0022302421,-0.0001001865,1.0005366,1.0005366,1.0,0.004929295,0.0034236982,1.2185467e-06,0.00055410934,0.000904238,-4.0812586e-07,0,0,1
6195000,6043000,6043000,0,0.011085185,0.0041445945,-0.99993,1.0,1.0,1.0,-0.009467469,-0.0069861664,-6.455183e-05,0.0013545043,0.0020851018,-9.962721e-05,1.0005381,1.0005381,1.0,0.0014333561,0.00078048476,6.6917494e-08,0.0005228107,0.000877707,-4.027525e-07,0,0,1
6203000,6051000,6051000,0,0.010910305,-0.0061699315,-0.9999214,1.0,1.0,1.0,-0.009308162,0.0034884631,-7.379055e-05,0.0011865883,0.0021072018,-9.922033e-05,1.0005397,1.0005395,1.0,0.0013855224,0.00019460486,8.7120725e-08,0.0004927582,0.00086694944,-3.9778192e-07,0,0,1
6211000,6059000,6059000,0,-0.025506856,-0.00067526166,-0.9996744,1.0,1.0,1.0,0.027123105,-0.0017793514,-0.00032132864,0.0015950374,0.0020459963,-0.0001027181,1.0005411,1.0005411,1.0,0.0117642395,5.0629867e-05,1.6520335e-06,0.0006702618,0.0008524994,-4.175339e-07,0,0,1
6227000,6075000,6075000,0,0.0026933097,0.0053957254,-0.9999818,1.0,1.0,1.0,-0.0016425384,-0.007961946,-1.4364719e-05,0.0017808902,0.0018080401,-0.000101555524,1.0005442,1.0005442,1.0,4.3143435e-05,0.0010137296,3.3015226e-09,0.0007192207,0.00080745557,-4.079616e-07,0,0,1
6235000,6083000,6083000,0,-0.010349673,0.016082335,-0.99981713,1.0,1.0,1.0,0.011248692,-0.01877121,-0.00017893314,0.0019299894,0.0014839574,-0.00010277407,1.0005457,1.0005457,1.0,0.0020234247,0.005634657,5.122731e-07,0.00073975936,0.00070600497,-4.096043e-07,0,0,1
6243000,6091000,6091000,0,0.002066151,0.011493841,-0.9999318,1.0,1.0,1.0,-0.0012280776,-0.014085388,-6.4492226e-05,0.0018802561,0.0012387709,-0.00010217121,1.0005474,1.0005473,1.0,2.411759e-05,0.003172634,6.6547955e-08,0.0007277298,0.00064492406,-4.0420184e-07,0,0,1
6251000,6099000,6099000,0,-0.009802378,2.7446586e-05,-0.9999519,1.0,1.0,1.0,0.010646919,-0.002505046,-4.464388e-05,0.0020183139,0.0011798132,-0.000101265265,1.000549,1.000549,1.0,0.001812715,0.000100348916,3.1889215e-08,0.0007448162,0.0006331875,-3.9833864e-07,0,0,1
6267000,6115000,6115000,0,0.015389303,0.0018924081,-0.9998798,1.0,1.0,1.0,-0.014648531,-0.0042120805,-0.00011718273,0.0016725194,0.00087791414,-0.00010083139,1.0005522,1.000552,1.0,0.0034313765,0.00028370958,2.1970868e-07,0.00066471065,0.0005682009,-3.9015993e-07,0,0,1
6275000,6123000,6123000,0,0.00022237288,0.015586788,-0.9998785,1.0,1.0,1.0,0.00042245229,-0.01775317,-0.00011885166,0.0016528333,0.0005845112,-0.000101115176,1.0005537,1.0005537,1.0,2.8538748e-06,0.0050400104,2.2601148e-07,0.0006542877,0.0004798826,-3.8757491e-07,0,0,1
6283000,6131000,6131000,0,-0.0010344294,0.027705204,-0.99961555,1.0,1.0,1.0,0.0017370175,-0.02977786,-0.00038206577,0.001654159,0.000106363615,-0.0001055396,1.0005554,1.0005554,1.0,4.824888e-05,0.01417966,2.335588e-06,0.0006447438,0.00024902367,-4.1825228e-07,0,0,1
6291000,6139000,6139000,0,0.01582393,0.019771585,-0.99967927,1.0,1.0,1.0,-0.015080513,-0.021629881,-0.00031882524,0.0013906208,-0.00023593949,-0.00010889843,1.0005571,1.000557,1.0,0.0036367243,0.007481463,1.6263925e-06,0.00057731906,0.00012728373,-4.3727812e-07,0,0,1
6307000,6155000,6155000,0,0.0022679511,-0.027654273,-0.99961495,1.0,1.0,1.0,-0.0012099876,0.025900152,-0.00038290024,0.0013212431,0.00014257478,-0.00011151071,1.0005603,1.0005603,1.0,2.3412002e-05,0.010727076,2.3458015e-06,0.0005588616,0.00029084447,-4.6055555e-07,0,0,1
6315000,6163000,6163000,0,-0.006515591,-0.011420932,-0.9999136,1.0,1.0,1.0,0.0075659417,0.00970732,-8.4519386e-05,0.0014195848,0.00029320072,-0.00011108565,1.000562,1.000562,1.0,0.0009153812,0.0015068663,1.1429643e-07,0.00056447607,0.00030999442,-4.5510265e-07,0,0,1
6323000,6171000,6171000,0,0.011557931,-0.020763107,-0.9997176,1.0,1.0,1.0,-0.010536175,0.018906198,-0.00028020144,0.0012313052,0.0005863188,-0.000113749826,1.0005637,1.0005636,1.0,0.0017751751,0.005715888,1.25674e-06,0.00052763114,0.00039512658,-4.6772686e-07,0,0,1
6331000,6179000,6179000,0,0.015532974,-0.01178016,-0.9998099,1.0,1.0,1.0,-0.014739084,0.009696128,-0.00018763542,0.000979803,0.0007297803,-0.000114913375,1.0005654,1.0005654,1.0,0.0034738854,0.0015033879,5.633128e-07,0.00046461512,0.0004125795,-4.6923216e-07,0,0,1
6347000,6195000,6195000,0,-0.008508757,0.014516468,-0.9998585,1.0,1.0,1.0,0.009154812,-0.01645691,-0.00013941526,0.0010075271,0.0005572925,-0.00011442808,1.0005689,1.0005687,1.0,0.0013402071,0.0043308144,3.1098585e-07,0.00046360248,0.00034385093,-4.6032181e-07,0,0,1
6355000,6203000,6203000,0,0.0045135347,0.022517733,-0.99973625,1.0,1.0,1.0,-0.004028562,-0.024296675,-0.00026208162,0.0009282186,0.0001658914,-0.000116753334,1.0005705,1.0005705,1.0,0.0002595209,0.00943987,1.0989884e-06,0.0004522147,0.00018977659,-4.7037955e-07,0,0,1
6363000,6211000,6211000,0,0.008537681,0.00091645046,-0.9999632,1.0,1.0,1.0,-0.008075665,-0.0025934028,-3.5345554e-05,0.00078642514,0.00012243792,-0.000115471325,1.0005723,1.0005722,1.0,0.0010428649,0.000107550346,1.9988931e-08,0.00042867014,0.00018509428,-4.6328677e-07,0,0,1
6371000,6219000,6219000,0,0.0054129106,0.00074955425,-0.99998504,1.0,1.0,1.0,-0.004913961,-0.0023986604,-1.3589859e-05,0.00069665525,8.273557e-05,-0.00011386689,1.000574,1.000574,1.0,0.0003861306,9.200441e-05,2.9549483e-09,0.00041583864,0.00018073052,-4.5603744e-07,0,0,1
6387000,6235000,6235000,0,-0.0045513543,0.003935918,-0.9999819,1.0,1.0,1.0,0.0048194095,-0.005279643,-1.7166138e-05,0.0007088774,-6.717708e-05,-0.00011069828,1.0005754,1.0005755,1.0,0.0003714136,0.00044573768,4.7148205e-09,0.0004068819,0.00016381362,-4.4187607e-07,0,0,1
6395000,6243000,6243000,0,-4.813675e-05,0.0017479446,-0.99999845,1.0,1.0,1.0,0.00038874318,-0.0031244447,-5.9604645e-07,0.0007038359,-0.00011532303,-0.00010896439,1.0005752,1.0005752,1.0,2.4165502e-06,0.0001561047,5.684342e-12,0.00040051236,0.00015877554,-4.3491747e-07,0,0,1
6403000,6251000,6251000,0,0.014599905,0.022341903,-0.99964386,1.0,1.0,1.0,-0.014189382,-0.02375663,-0.00035506487,0.00046929705,-0.00048762705,-0.00011283999,1.0005748,1.0005748,1.0,0.0032195663,0.009024851,2.017137e-06,0.00034350326,1.4151505e-05,-4.598343e-07,0,0,1
6411000,6259000,6259000,0,0.017896643,-0.014959905,-0.99972796,1.0,1.0,1.0,-0.017561555,0.013752002,-0.00027120113,0.00018534664,-0.00026338088,-0.00011533387,1.0005746,1.0005746,1.0,0.0049316976,0.0030241443,1.1768009e-06,0.00026042922,6.155297e-05,-4.711251e-07,0,0,1
6427000,6275000,6275000,0,0.00855715,0.0030343982,-0.9999588,1.0,1.0,1.0,-0.008430568,-0.004321991,-4.0352345e-05,0.00014197863,-0.00042778387,-0.00011286242,1.000574,1.000574,1.0,0.0011365392,0.00029870213,2.6052987e-08,0.00024374083,4.3644402e-05,-4.5706867e-07,0,0,1
6435000,6283000,6283000,0,0.0072182347,0.006094227,-0.99995536,1.0,1.0,1.0,-0.0072850254,-0.0071764565,-4.416704e-05,2.501793e-05,-0.00053406216,-0.0001117806,1.0005738,1.0005738,1.0,0.0008486586,0.00082355173,3.121164e-08,0.00022653768,2.998777e-05,-4.5036225e-07,0,0,1
6443000,6291000,6291000,0,0.0075009125,-0.014329058,-0.9998692,1.0,1.0,1.0,-0.0075872135,0.013419747,-0.00013035536,-9.485974e-05,-0.00031431712,-0.00011207312,1.0005735,1.0005735,1.0,0.000920525,0.002879782,2.718803e-07,0.0002084737,7.4866424e-05,-4.475515e-07,0,0,1
6451000,6299000,6299000,0,0.020798407,-0.013867227,-0.9996875,1.0,1.0,1.0,-0.021038242,0.012973096,-0.00031208992,-0.0004246768,-0.00010506649,-0.00011522393,1.0005733,1.0005733,1.0,0.0070776646,0.0026912775,1.5589972e-06,9.373137e-05,0.00011606974,-4.650546e-07,0,0,1
6467000,6315000,6315000,0,0.0091217,-0.003668092,-0.9999517,1.0,1.0,1.0,-0.009543303,0.0026787205,-4.7802925e-05,-0.0007742795,9.823827e-06,-0.00011400869,1.0005728,1.0005729,1.0,0.00145636,0.00011474306,3.6561914e-08,2.1244328e-05,0.00011922187,-4.5384928e-07,0,0,1
6475000,6323000,6323000,0,-0.0011987528,0.009941212,-0.99994993,1.0,1.0,1.0,0.000611936,-0.010874011,-4.941225e-05,-0.0007524494,-0.00016157514,-0.00011299236,1.0005727,1.0005727,1.0,5.988021e-06,0.0018908228,3.915943e-08,2.100407e-05,8.756762e-05,-4.4731874e-07,0,0,1
6483000,6331000,6331000,0,-0.018650666,-0.008196952,-0.99979246,1.0,1.0,1.0,0.018058037,0.00725279,-0.00020694733,-0.00045622126,-4.4813518e-05,-0.000114471964,1.0005724,1.0005726,1.0,0.0052144984,0.00084116525,6.8523514e-07,0.00010279138,9.94353e-05,-4.5106546e-07,0,0,1
6491000,6339000,6339000,0,-0.010215384,0.001091489,-0.99994725,1.0,1.0,1.0,0.009840183,-0.0020967785,-5.2154064e-05,-0.00029407314,-7.7127945e-05,-0.00011349058,1.0005723,1.0005723,1.0,0.001548381,7.030352e-05,4.3520743e-08,0.00012555657,9.676225e-05,-4.4464744e-07,0,0,1
6507000,6355000,6355000,0,0.006148484,-0.006536637,-0.9999597,1.0,1.0,1.0,-0.0062637054,0.0057054637,-3.9935112e-05,-0.00037050806,-0.00011144871,-0.00011096392,1.0005721,1.0005721,1.0,0.00062738516,0.0005205394,2.551701e-08,0.000111927904,8.540604e-05,-4.3131254e-07,0,0,1
6515000,6363000,6363000,0,-0.003585136,0.00017625943,-0.9999936,1.0,1.0,1.0,0.0035595417,-0.00094412576,-6.0796738e-06,-0.0003086175,-0.00012456175,-0.00010931126,1.000572,1.000572,1.0,0.0002026095,1.42538365e-05,5.798597e-10,0.00011335596,8.3836596e-05,-4.2452936e-07,0,0,1
6523000,6371000,6371000,0,-0.00862356,0.0058052167,-0.99994594,1.0,1.0,1.0,0.008836585,-0.0065837353,-5.3822994e-05,-0.00016459856,-0.00022628103,-0.00010843743,1.0005718,1.0005718,1.0,0.0012486497,0.0006931329,4.6350635e-08,0.0001312346,7.160086e-05,-4.185738e-07,0,0,1
6531000,6379000,6379000,0,-0.014782642,-0.001123245,-0.9998901,1.0,1.0,1.0,0.015186473,0.00022968638,-0.00010943413,7.715059e-05,-0.00021910048,-0.00010845406,1.0005717,1.0005718,1.0,0.0036879547,8.4359766e-07,1.9182204e-07,0.00018724594,7.048657e-05,-4.150029e-07,0,0,1
6547000,6395000,6395000,0,-0.014589744,0.007411954,-0.9998661,1.0,1.0,1.0,0.015023133,-0.008176731,-0.0001335144,0.0004773361,-0.0002003902,-0.00010874104,1.0005716,1.0005717,1.0,0.0036090494,0.001069132,2.8547225e-07,0.00026666286,7.185069e-05,-4.0908276e-07,0,0,1
6555000,6403000,6403000,0,0.00030457016,0.0020294997,-0.9999979,1.0,1.0,1.0,0.000104134815,-0.0026452986,-1.847744e-06,0.00047145892,-0.0002388927,-0.00010705768,1.0005716,1.0005716,1.0,1.7340584e-07,0.00011189771,5.4626526e-11,0.00026246617,6.8957015e-05,-4.0264138e-07,0,0,1
6563000,6411000,6411000,0,-0.0015366743,0.0004674168,-0.99999875,1.0,1.0,1.0,0.0018568041,-0.0010662834,-1.013279e-06,0.00049327535,-0.00025192247,-0.00010538769,1.0005716,1.0005716,1.0,5.5132034e-05,1.8180983e-05,1.6427748e-11,0.00025920107,6.758476e-05,-3.9630083e-07,0,0,1
6571000,6419000,6419000,0,-0.0032212245,-0.0046331086,-0.99998415,1.0,1.0,1.0,0.0035219977,0.0040811114,-1.5735626e-05,0.00054097176,-0.00018368571,-0.00010397585,1.0005716,1.0005716,1.0,0.0001983581,0.00026633524,3.961759e-09,0.00025824292,7.071469e-05,-3.9012227e-07,0,0,1
6587000,6435000,6435000,0,-0.007704982,0.0017751672,-0.99996877,1.0,1.0,1.0,0.007861389,-0.002169962,-3.1232834e-05,0.0006831053,-0.00021078091,-0.00010125192,1.0005716,1.0005716,1.0,0.000988258,7.529679e-05,1.5607839e-08,0.00026701737,6.732106e-05,-3.7817864e-07,0,0,1
6595000,6443000,6443000,0,-0.00428071,-0.0034002436,-0.99998504,1.0,1.0,1.0,0.004481447,0.0029421456,-1.4841557e-05,0.0007429217,-0.00016112854,-9.989113e-05,1.0005716,1.0005716,1.0,0.00032115032,0.00013842035,3.5243488e-09,0.00026786985,6.8440735e-05,-3.7227858e-07,0,0,1
6603000,6451000,6451000,0,-0.0053181364,-0.0131574785,-0.99989927,1.0,1.0,1.0,0.0054022404,0.012659815,-0.000100672245,0.00081629684,4.077608e-05,-9.990249e-05,1.0005716,1.0005717,1.0,0.00046668047,0.0025628696,1.6196645e-07,0.00027100072,0.00010772308,-3.6896657e-07,0,0,1
6611000,6459000,6459000,0,-0.02939966,-0.0017387085,-0.99956626,1.0,1.0,1.0,0.029397396,0.0011500905,-0.0004336238,0.0012663929,5.8245547e-05,-0.000105158884,1.0005717,1.0005717,1.0,0.0138194095,2.1151118e-05,3.0093006e-06,0.0004843615,0.00010635974,-4.1054662e-07,0,0,1
6627000,6475000,6475000,0,-0.030696077,-0.00456107,-0.99951833,1.0,1.0,1.0,0.03042603,0.0037722006,-0.0004813671,0.0020910904,9.032602e-05,-0.000114289935,1.0005718,1.0005718,1.0,0.014803426,0.0002275414,3.7074287e-06,0.00085536495,0.00010594847,-4.8024856e-07,0,0,1
