timestamp,timestamp_sample,gyro_device_id,gyro_bias[0],gyro_bias[1],gyro_bias[2],gyro_bias_limit,gyro_bias_variance[0],gyro_bias_variance[1],gyro_bias_variance[2],accel_device_id,accel_bias[0],accel_bias[1],accel_bias[2],accel_bias_limit,accel_bias_variance[0],accel_bias_variance[1],accel_bias_variance[2],mag_device_id,mag_bias[0],mag_bias[1],mag_bias[2],mag_bias_limit,mag_bias_variance[0],mag_bias_variance[1],mag_bias_variance[2],gyro_bias_valid,gyro_bias_stable,accel_bias_valid,accel_bias_stable,mag_bias_valid,mag_bias_stable
4275000,4275000,1310988,0.0,0.0,0.0,0.15,0.010000001,0.009999999,0.009993606,1310988,0.0,0.0,0.0,0.4,0.040000003,0.040000003,0.040000003,197388,0.0,0.0,0.0,0.5,0.0025000002,0.0025000002,0.0025000002,1,0,1,0,1,0
5067000,4915000,1310988,0.0050463076,0.006675302,-0.00043820616,0.15,0.00022003884,0.00022002829,0.00017783864,1310988,3.009665e-05,-7.37928e-05,-2.7403124e-05,0.4,0.039982524,0.039982513,0.0399408,197388,0.0,0.0,0.0,0.5,0.0025000002,0.0025000002,0.0025000002,1,0,1,0,1,0
5091000,4939000,1310988,0.005035878,0.006677094,-0.00043812508,0.15,0.0002200276,0.00022002794,0.00017783881,1310988,0.00010058499,-0.0003634903,0.018510079,0.4,0.039981913,0.03997375,0.0044307895,197388,0.0,0.0,0.0,0.5,0.0025000002,0.0025000002,0.0025000002,1,0,1,0,1,0
5267000,5115000,1310988,0.0014276175,0.0029224413,-0.0033283231,0.15,0.00011124304,0.00011124057,9.053422e-05,1310988,9.129628e-05,-0.00035140288,0.018243492,0.4,0.03998191,0.039973747,0.004429876,197388,0.0,0.0,0.0,0.5,0.0025000002,0.0025000002,0.0025000002,1,0,1,0,1,0
5299000,5147000,1310988,0.0012362092,0.002848453,-0.0033286999,0.15,0.0001102399,0.00011023548,9.053447e-05,1310988,0.003353783,-0.008230855,0.010186786,0.4,0.038425706,0.038433097,0.0022370657,197388,0.0,0.0,0.0,0.5,0.0025000002,0.0025000002,0.0025000002,1,0,1,0,1,0
6299000,6147000,1310988,0.001257757,0.0028678265,-0.0033285844,0.15,0.00010951284,0.00010950884,9.054175e-05,1310988,0.00336531,-0.008260646,0.010186551,0.4,0.03839531,0.038402695,0.0022364748,197388,0.0,0.0,0.0,0.5,0.0025000002,0.0025000002,0.0025000002,1,0,1,0,1,0
6523000,6371000,1310988,0.0012619556,0.0028666577,-0.003328943,0.15,0.00010905196,0.00010904815,9.054221e-05,1310988,0.00336531,-0.008260646,0.010188725,0.4,0.03839531,0.038402695,0.0022363258,197388,-0.00033153288,0.00097286777,-0.00046081663,0.5,0.0018853663,0.0015174166,0.0015042862,1,0,1,0,1,0
7099000,6947000,1310988,0.0014784437,0.0030559043,-0.0033271154,0.15,8.857861e-05,8.866335e-05,9.046093e-05,1310988,0.007540805,-0.0073289955,0.011315886,0.4,0.0320581,0.03205045,0.0021081404,197388,-0.0002587838,0.0009544452,-0.00054882973,0.5,0.00178877,0.0013240929,0.0013130169,1,0,1,0,1,0
7499000,7347000,1310988,0.0015833139,0.00308666,-0.003322721,0.15,8.354952e-05,8.35974e-05,9.0305526e-05,1310988,0.011437789,-0.0071992124,0.011792951,0.4,0.025771951,0.025759092,0.0019978166,197388,-0.00023031175,0.0012359497,-0.00048744876,0.5,0.0017798409,0.0013007356,0.001292745,1,0,1,0,1,0
7899000,7747000,1310988,0.0016017153,0.0030432234,-0.0033388822,0.15,8.05665e-05,8.0577876e-05,8.9929934e-05,1310988,0.01336884,-0.008803502,0.012457032,0.4,0.021446915,0.021445367,0.0018580105,197388,-0.00026822372,0.0014741917,-0.00013787995,0.5,0.0017746955,0.0012870876,0.0012808604,1,0,1,0,1,0
8299000,8147000,1310988,0.0015257942,0.002927599,-0.0033445926,0.15,7.75184e-05,7.749759e-05,8.9421716e-05,1310988,0.014487612,-0.0127272215,0.013335945,0.4,0.018736023,0.018762222,0.0016935954,197388,-0.00024000331,0.0015328488,-0.0001669531,0.5,0.0017721386,0.0012804798,0.0012750591,1,0,1,0,1,0
8443000,8291000,1310988,0.0015257881,0.00292761,-0.0034292578,0.15,7.751958e-05,7.749877e-05,8.903023e-05,1310988,0.01494622,-0.01148597,0.013346218,0.4,0.01862313,0.018670121,0.0016898038,197388,-0.00035228863,0.0015412535,-0.00012237205,0.5,0.0017712311,0.001278155,0.0012726776,1,0,1,0,1,0
8699000,8547000,1310988,0.0013075683,0.0026273944,-0.0034424153,0.15,7.345259e-05,7.337363e-05,8.855648e-05,1310988,0.019281948,-0.017344806,0.013736429,0.4,0.016955022,0.017031213,0.0015169628,197388,-0.00031165624,0.001592197,-0.00017046205,0.5,0.0017695847,0.00127573,0.0012705667,1,0,1,0,1,0
8875000,8723000,1310988,0.0013075145,0.0026274465,-0.0035102898,0.15,7.345403e-05,7.337507e-05,8.802256e-05,1310988,0.01973337,-0.01629194,0.0138213625,0.4,0.016789451,0.016898653,0.0015096338,197388,-0.0003686365,0.0016121058,-0.00012515631,0.5,0.0017690598,0.001274222,0.0012689917,1,0,1,0,1,0
9083000,8931000,1310988,0.0013075143,0.0026274447,-0.0035717748,0.15,7.345573e-05,7.3376774e-05,8.742891e-05,1310988,0.020520892,-0.015355765,0.013818854,0.4,0.016604872,0.016751032,0.0014999282,197388,-0.00041087845,0.0017043567,-0.000144814,0.5,0.0017686468,0.0012730105,0.0012676988,1,0,1,0,1,0
9099000,8947000,1310988,0.001044089,0.0022835236,-0.003543117,0.15,6.811499e-05,6.788983e-05,8.738886e-05,1310988,0.024700498,-0.01917474,0.014700083,0.4,0.015672026,0.01581548,0.0013377195,197388,-0.00036215797,0.0016443181,-0.0001870562,0.5,0.0017680757,0.0012726639,0.0012675626,1,0,1,0,1,0
9299000,9147000,1310988,0.0010440857,0.002283526,-0.0036050393,0.15,6.811663e-05,6.7891466e-05,8.672951e-05,1310988,0.025405739,-0.018155687,0.014704249,0.4,0.015470487,0.015654188,0.0013262302,197388,-0.0003893474,0.0016786018,-0.00014114227,0.5,0.0017678118,0.0012716556,0.0012664803,1,0,1,0,1,0
9499000,9347000,1310988,0.00071093306,0.0018851433,-0.0035872562,0.15,6.146341e-05,6.102436e-05,8.617338e-05,1310988,0.030506553,-0.019818034,0.015805312,0.4,0.014720271,0.014911353,0.001162612,197388,-0.00036683073,0.0016155024,-0.0001677758,0.5,0.001767381,0.0012707971,0.001265724,1,0,1,0,1,0
9587000,9435000,1310988,0.00071094325,0.0018851401,-0.0036603983,0.15,6.146413e-05,6.102508e-05,8.566863e-05,1310988,0.030702788,-0.018678129,0.015786577,0.4,0.014580227,0.014797589,0.0011597401,197388,-0.00038494228,0.0016004456,-0.00010812232,0.5,0.0017673012,0.0012702998,0.0012651611,1,0,1,0,1,0
9875000,9723000,1310988,0.00071091746,0.0018851456,-0.0037264454,0.15,6.146649e-05,6.1027436e-05,8.4620144e-05,1310988,0.030723289,-0.017675236,0.015826339,0.4,0.014289428,0.014560229,0.0011418045,197388,-0.00040262792,0.001625692,-0.00013504931,0.5,0.0017672104,0.0012695201,0.001264202,1,0,1,0,1,0
9899000,9747000,1310988,0.00043611243,0.0014800406,-0.0036662847,0.15,5.411497e-05,5.3348354e-05,8.443121e-05,1310988,0.034437995,-0.017721241,0.016526276,0.4,0.0138500985,0.014072697,0.0010038101,197388,-0.00038227762,0.0015258053,-0.00020220288,0.5,0.0017671767,0.001269139,0.0012640294,1,0,1,0,1,0
10299000,10147000,1310988,0.00012817039,0.0011831571,-0.003668133,0.15,4.6642628e-05,4.5467597e-05,8.234911e-05,1310988,0.037744947,-0.016532712,0.016764972,0.4,0.013111597,0.013311841,0.0008753241,197388,-0.00042547024,0.0014426233,-0.00026861575,0.5,0.0017669826,0.0012677626,0.0012626494,1,0,1,0,1,0
10699000,10547000,1310988,-0.00013034859,0.00083742663,-0.0036093062,0.15,3.9240644e-05,3.7767804e-05,8.025942e-05,1310988,0.040638864,-0.014650047,0.016995376,0.4,0.012551772,0.012673122,0.00075971446,197388,-0.00046152764,0.0013428701,-0.0003334211,0.5,0.001766516,0.001266646,0.0012616067,1,0,1,0,1,0
11099000,10947000,1310988,-0.0003377369,0.00058269675,-0.0035507395,0.15,3.262705e-05,3.0884734e-05,7.748225e-05,1310988,0.042253412,-0.013149124,0.017067904,0.4,0.012069452,0.0120772775,0.00065838394,197388,-0.00047892594,0.0012363422,-0.0003618889,0.5,0.0017657056,0.0012655369,0.0012605182,1,0,1,0,1,0
11499000,11347000,1310988,-0.00046449702,0.00029960443,-0.0034088127,0.15,2.668398e-05,2.4864112e-05,7.47409e-05,1310988,0.04292431,-0.011848613,0.017007967,0.4,0.011730823,0.011606719,0.0005627752,197388,-0.00048124054,0.001109815,-0.00037858664,0.5,0.0017649049,0.0012645554,0.0012596651,1,0,1,0,1,0
11899000,11747000,1310988,-0.0004803074,-8.293564e-06,-0.0032381697,0.15,2.1731961e-05,1.9894958e-05,7.13108e-05,1310988,0.04275346,-0.010059857,0.016979216,0.4,0.011460638,0.011201192,0.00048029728,197388,-0.00038395202,0.0010113966,-0.0004607084,0.5,0.0017639509,0.0012636003,0.0012587864,1,0,1,0,1,0
12299000,12147000,1310988,-0.000466924,-0.00021532479,-0.0030818223,0.15,1.7526709e-05,1.582995e-05,6.809084e-05,1310988,0.042100534,-0.009268824,0.01680752,0.4,0.011274629,0.010893843,0.00041612735,197388,-0.00031047163,0.0009242659,-0.00046100386,0.5,0.0017626251,0.0012627717,0.0012581258,1,0,1,0,1,0
12587000,12435000,1310988,-0.0004669206,-0.00021532117,-0.0029535727,0.15,1.7529e-05,1.5832242e-05,6.581844e-05,1310988,0.04193292,-0.010388757,0.016712831,0.4,0.01122623,0.0108279195,0.0004072262,197388,-0.0003025571,0.00087379286,-0.0004681571,0.5,0.0017625088,0.00126259,0.0012575617,1,0,1,0,1,0
12699000,12547000,1310988,-0.0004221015,-0.00045052206,-0.0027946867,0.15,1.4167998e-05,1.2623355e-05,6.424213e-05,1310988,0.041081063,-0.0089655835,0.016720919,0.4,0.011125047,0.010639729,0.000364207,197388,-0.00017796927,0.00080338557,-0.0004931899,0.5,0.001761199,0.0012619764,0.0012574017,1,0,1,0,1,0
13379000,13227000,1310988,-0.00033621362,-0.00056694495,-0.0024820173,0.15,1.1494237e-05,1.0108608e-05,5.837161e-05,1310988,0.04035287,-0.009549014,0.016271671,0.4,0.0109871775,0.01041039,0.00031573846,197388,-9.68372e-05,0.0007277725,-0.0004214084,0.5,0.001759303,0.0012611421,0.0012563537,1,0,1,0,1,0
13899000,13747000,1310988,-0.00017755393,-0.00057976524,-0.002171977,0.15,7.590231e-06,6.5897566e-06,5.289246e-05,1310988,0.040011387,-0.0105649335,0.015883537,0.4,0.010825393,0.010164542,0.00025619875,197388,2.8294618e-05,0.00074929727,-0.0003378576,0.5,0.0017555739,0.0012600309,0.0012556798,1,0,1,0,1,0
14451000,14299000,1310988,-0.000120193545,-0.0005655804,-0.0019147282,0.15,6.196366e-06,5.379889e-06,4.8065027e-05,1310988,0.040053148,-0.0116669275,0.015584634,0.4,0.010735411,0.01005376,0.00023067239,197388,6.043633e-05,0.0007272133,-0.00030387673,0.5,0.0017541089,0.0012594216,0.0012550333,1,0,1,0,1,0
14947000,14795000,1310988,-7.359786e-05,-0.00052858534,-0.0016976127,0.15,5.1089164e-06,4.4392723e-06,4.392452e-05,1310988,0.0403616,-0.012661376,0.01527588,0.4,0.010651386,0.009966653,0.00020924634,197388,2.3867038e-05,0.00071571313,-0.0002211205,0.5,0.0017525961,0.0012588176,0.0012544228,1,0,1,0,1,0
15099000,14947000,1310988,2.3701647e-05,-0.00046099193,-0.0016494726,0.15,4.2533306e-06,3.7085817e-06,4.2281983e-05,1310988,0.040601827,-0.013691249,0.014966358,0.4,0.010580313,0.009908793,0.00019395944,197388,5.298611e-05,0.00076125714,-0.0001891092,0.5,0.001751388,0.0012584087,0.0012542161,1,0,1,0,1,0
15499000,15347000,1310988,0.00010762663,-0.0004325041,-0.0015018916,0.15,3.5635007e-06,3.1327554e-06,3.94054e-05,1310988,0.04051817,-0.014761942,0.014649045,0.4,0.010500809,0.009849197,0.00017920017,197388,3.8625836e-05,0.0007641005,-0.00014231315,0.5,0.0017504452,0.0012579447,0.001253832,1,1,1,0,1,0
15899000,15747000,1310988,0.00021003911,-0.00039324578,-0.0012501647,0.15,3.017677e-06,2.6789685e-06,3.628826e-05,1310988,0.04071759,-0.015919909,0.01435131,0.4,0.010419021,0.00979324,0.00016645511,197388,3.717203e-05,0.0008137585,-9.830503e-05,0.5,0.0017494786,0.0012575379,0.0012534824,1,1,1,0,1,0
16299000,16147000,1310988,0.00028963154,-0.00036496154,-0.0011654119,0.15,2.573677e-06,2.314011e-06,3.3774446e-05,1310988,0.040528454,-0.017046146,0.013973481,0.4,0.010334945,0.00974428,0.00015503004,197388,7.731586e-06,0.0008341557,-0.00010123655,0.5,0.0017490404,0.0012572078,0.0012532767,1,1,1,0,1,0
17099000,16947000,1310988,0.00040629803,-0.0003563533,-0.0010339321,0.15,1.9296278e-06,1.7762751e-06,2.8511988e-05,1310988,0.040010594,-0.017690983,0.013318703,0.4,0.010150835,0.009649746,0.00013687658,197388,-9.288115e-06,0.0009104589,-8.441199e-05,0.5,0.0017486393,0.0012565536,0.0012529186,1,1,1,0,1,0
18099000,17947000,1310988,0.00050846,-0.000359474,-0.0009170151,0.15,1.3630191e-06,1.2906241e-06,2.326145e-05,1310988,0.039234396,-0.018159537,0.012546557,0.4,0.009870675,0.009532303,0.000117435826,197388,-9.025622e-05,0.0009892702,-5.9723905e-05,0.5,0.0017472305,0.0012558537,0.0012525811,1,1,1,0,1,0
18899000,18747000,1310988,0.00048658223,-0.00034173942,-0.00068284496,0.15,1.1284825e-06,1.0775589e-06,1.9945126e-05,1310988,0.040498286,-0.01794051,0.012130266,0.4,0.009666158,0.0094517,0.00010739682,197388,-2.5287645e-05,0.0010609687,-1.7100941e-05,0.5,0.001743723,0.0012553172,0.0012522832,1,1,1,0,1,0
19299000,19147000,1310988,0.00048303328,-0.0003120661,-0.00062383595,0.15,1.0320188e-06,9.868471e-07,1.8377477e-05,1310988,0.04171225,-0.018146869,0.011912311,0.4,0.009553926,0.0094072465,0.00010302712,197388,8.5266794e-05,0.0011042515,1.1959598e-05,0.5,0.001741751,0.0012550679,0.0012521208,1,1,1,0,1,0
19699000,19547000,1310988,0.0004764887,-0.0002811729,-0.0005633204,0.15,9.476747e-07,9.063257e-07,1.7151828e-05,1310988,0.04310812,-0.01831472,0.01177463,0.4,0.009438888,0.009363854,9.885428e-05,197388,0.00021611784,0.0011369282,3.691148e-05,0.5,0.0017396176,0.0012548738,0.001252005,1,1,1,0,1,0
20099000,19947000,1310988,0.0004575374,-0.00026031892,-0.00053190975,0.15,8.742806e-07,8.346089e-07,1.582952e-05,1310988,0.04440907,-0.017970169,0.011660381,0.4,0.00931855,0.009317465,9.51208e-05,197388,0.0003831141,0.0011526421,5.910439e-05,0.5,0.001736591,0.0012546466,0.0012518591,1,1,1,0,1,0
20499000,20347000,1310988,0.00043255038,-0.0002276719,-0.00048216767,0.15,8.114964e-07,7.713828e-07,1.4627872e-05,1310988,0.046402343,-0.017655658,0.011648088,0.4,0.009198287,0.009270869,9.1655114e-05,197388,0.0006420846,0.0011779134,7.563045e-05,0.5,0.0017330109,0.0012544235,0.0012517173,1,1,1,0,1,0
20899000,20747000,1310988,0.00039395934,-0.00020138809,-0.00049291266,0.15,7.565438e-07,7.153261e-07,1.353354e-05,1310988,0.048277482,-0.017007569,0.011640665,0.4,0.009076343,0.00922329,8.8326306e-05,197388,0.00090244145,0.0011705972,7.660796e-05,0.5,0.0017287799,0.0012541906,0.0012515724,1,1,1,0,1,0
21107000,20955000,1310988,0.00037710904,-0.00018099317,-0.00052690844,0.15,7.146932e-07,6.725712e-07,1.313731e-05,1310988,0.04945792,-0.016910702,0.011611,0.4,0.008980129,0.009190363,8.584027e-05,197388,0.0010792677,0.0011796838,7.310804e-05,0.5,0.0017262519,0.0012540708,0.0012515117,1,1,1,0,1,0
21507000,21355000,1310988,0.00034698655,-0.00016325696,-0.00050287886,0.15,6.758806e-07,6.329428e-07,1.21914545e-05,1310988,0.051020864,-0.01608673,0.011594146,0.4,0.008873149,0.009146139,8.319422e-05,197388,0.0013639616,0.0011467934,8.5023916e-05,0.5,0.0017216885,0.0012536803,0.001251327,1,1,1,0,1,0
21907000,21755000,1310988,0.00030883867,-0.00015610128,-0.0004835864,0.15,6.38936e-07,5.9568583e-07,1.1325968e-05,1310988,0.052197948,-0.014839569,0.011545009,0.4,0.008761171,0.009098999,8.0594175e-05,197388,0.0016536915,0.0011146558,8.5858344e-05,0.5,0.0017160043,0.0012531258,0.0012511045,1,1,1,0,1,0
22307000,22155000,1310988,0.0002775157,-0.00014712018,-0.00051844656,0.15,6.049533e-07,5.614802e-07,1.0539993e-05,1310988,0.05329912,-0.013701193,0.01154803,0.4,0.0086496575,0.00905021,7.820718e-05,197388,0.0019732404,0.001121373,9.921205e-05,0.5,0.0017110148,0.001252572,0.0012509006,1,1,1,0,1,0
22707000,22555000,1310988,0.00024657705,-0.0001382791,-0.00056029717,0.15,5.7342226e-07,5.3011314e-07,9.928361e-06,1310988,0.054337043,-0.012636555,0.011504958,0.4,0.008539391,0.009001885,7.594122e-05,197388,0.002239277,0.0011098289,0.00010906519,0.5,0.0017065232,0.001252053,0.0012507433,1,1,1,0,1,0
23107000,22955000,1310988,0.00022240616,-0.00014029756,-0.0005490747,0.15,5.447052e-07,5.0146576e-07,9.26762e-06,1310988,0.054716833,-0.011648657,0.011518835,0.4,0.008430576,0.008950481,7.3718926e-05,197388,0.002379347,0.0011022774,8.3972314e-05,0.5,0.0017025109,0.0012515201,0.0012505898,1,1,1,0,1,0
23507000,23355000,1310988,0.00019450883,-0.00013044839,-0.00050714426,0.15,5.1853465e-07,4.7535204e-07,8.6620985e-06,1310988,0.055986706,-0.010544245,0.011565317,0.4,0.008323822,0.00889839,7.16811e-05,197388,0.0026084622,0.0010518647,6.572172e-05,0.5,0.0016984298,0.0012510807,0.0012504712,1,1,1,0,1,0
23907000,23755000,1310988,0.00016559659,-0.0001246377,-0.00048204133,0.15,4.9458424e-07,4.515074e-07,8.191215e-06,1310988,0.056997526,-0.009302094,0.011587713,0.4,0.008220635,0.008847349,6.974627e-05,197388,0.0027976532,0.0010127818,4.2104148e-05,0.5,0.0016952422,0.0012506921,0.0012503625,1,1,1,0,1,0
24307000,24155000,1310988,0.00013830379,-0.0001181309,-0.00047162385,0.15,4.7264183e-07,4.2967042e-07,7.679112e-06,1310988,0.05795497,-0.008210289,0.011618911,0.4,0.0081194285,0.008793584,6.784789e-05,197388,0.002911285,0.0009787066,8.681234e-06,0.5,0.0016917943,0.001250265,0.0012502448,1,1,1,0,1,0
24707000,24555000,1310988,0.00011503187,-0.0001144293,-0.0004847971,0.15,4.5259767e-07,4.0977275e-07,7.2105972e-06,1310988,0.058610134,-0.0072514075,0.011657804,0.4,0.008023185,0.008740464,6.6106084e-05,197388,0.0029976908,0.0009662556,-1.3688433e-05,0.5,0.0016884941,0.0012498348,0.0012501198,1,1,1,0,1,0
25107000,24955000,1310988,9.204706e-05,-0.000111494424,-0.00048250012,0.15,4.3404535e-07,3.9151502e-07,6.8450818e-06,1310988,0.059295088,-0.0060754037,0.011660086,0.4,0.007930819,0.008688807,6.444992e-05,197388,0.0032006404,0.000962527,-4.430381e-05,0.5,0.0016855189,0.0012494182,0.0012499992,1,1,1,0,1,0
25507000,25355000,1310988,7.759176e-05,-0.00011400967,-0.00047535103,0.15,4.1681892e-07,3.7467902e-07,6.4467645e-06,1310988,0.059516888,-0.0050950097,0.011712601,0.4,0.0078424085,0.008635976,6.2821644e-05,197388,0.0034633547,0.00096117705,-6.0668273e-05,0.5,0.0016811726,0.0012487717,0.0012498307,1,1,1,0,1,0
26307000,26155000,1310988,4.725418e-05,-0.00013493499,-0.00044118013,0.15,3.8614616e-07,3.4493792e-07,5.79328e-06,1310988,0.058755778,-0.00328694,0.011798437,0.4,0.007678086,0.008533961,5.989695e-05,197388,0.0036524646,0.00089401926,-0.00011858741,0.5,0.0016729136,0.0012476521,0.001249607,1,1,1,0,1,0
26755000,26603000,1310988,3.3403132e-05,-0.00014045526,-0.0003537245,0.15,3.7293998e-07,3.3221886e-07,5.4284264e-06,1310988,0.05889729,-0.0022420308,0.011847333,0.4,0.0076012514,0.008482102,5.8446996e-05,197388,0.0037394168,0.0007824136,-0.00012797392,0.5,0.0016685475,0.0012471299,0.0012495309,1,1,1,0,1,0
27107000,26955000,1310988,1.45112235e-05,-0.00014442205,-0.0002909577,0.15,3.5998383e-07,3.198608e-07,5.1812885e-06,1310988,0.059131786,-0.0010987306,0.011900552,0.4,0.007529306,0.008434005,5.719373e-05,197388,0.0037758232,0.00069639727,-0.00014531668,0.5,0.0016656101,0.0012468107,0.001249474,1,1,1,0,1,0
27507000,27355000,1310988,-6.8502236e-06,-0.00014661174,-0.00023835286,0.15,3.4826246e-07,3.088697e-07,4.949424e-06,1310988,0.059470158,6.9944916e-05,0.01194892,0.4,0.0074613113,0.00838682,5.5912536e-05,197388,0.0037577825,0.0006222451,-0.00016197583,0.5,0.001662944,0.0012465604,0.0012494127,1,1,1,0,1,0
27907000,27755000,1310988,-2.361643e-05,-0.00014428706,-0.00017255539,0.15,3.373653e-07,2.9865274e-07,4.692434e-06,1310988,0.060183257,0.0012235738,0.012019458,0.4,0.0073962426,0.008339019,5.472964e-05,197388,0.0037428916,0.00055595214,-0.00014602477,0.5,0.0016600153,0.0012463633,0.0012493499,1,1,1,0,1,0
28307000,28155000,1310988,-3.8668553e-05,-0.00014224442,-0.00015479917,0.15,3.2721397e-07,2.892195e-07,4.4525914e-06,1310988,0.060706224,0.0021589093,0.012067892,0.4,0.0073350063,0.008292457,5.359706e-05,197388,0.0037509925,0.00054042565,-0.00015560983,0.5,0.001657506,0.001246251,0.0012492897,1,1,1,0,1,0
29107000,28955000,1310988,-6.385518e-05,-0.00013160998,-0.00011984691,0.15,3.087673e-07,2.7232895e-07,4.051988e-06,1310988,0.061878342,0.0031825525,0.0121483365,0.4,0.0072220247,0.008202683,5.1436506e-05,197388,0.003476241,0.00050244655,-0.00016195512,0.5,0.0016531326,0.0012460345,0.001249077,1,1,1,0,1,0
29907000,29755000,1310988,-6.907356e-05,-0.00011234064,-7.395655e-05,0.15,2.926493e-07,2.5764749e-07,3.699397e-06,1310988,0.063216746,0.0029473049,0.012162604,0.4,0.007121368,0.008117,4.9449434e-05,197388,0.0031179155,0.0005224516,-0.00014255564,0.5,0.001647196,0.0012457101,0.0012488521,1,1,1,0,1,0
30563000,30411000,1310988,-6.64568e-05,-9.87242e-05,-1.1214661e-05,0.15,2.8742315e-07,2.5316817e-07,3.4208522e-06,1310988,0.0639784,0.002289175,0.012180158,0.4,0.0070748245,0.008072496,4.841447e-05,197388,0.0028062928,0.0005832496,-9.487344e-05,0.5,0.0016429916,0.0012452367,0.0012485912,1,1,1,0,1,0
31107000,30955000,1310988,-5.241361e-05,-8.150291e-05,-2.1515016e-06,0.15,2.7207298e-07,2.39515e-07,3.232697e-06,1310988,0.0646649,0.0009820403,0.01212577,0.4,0.006993539,0.007998088,4.6765705e-05,197388,0.0025102175,0.0006448175,-4.5223867e-05,0.5,0.0016358807,0.0012447342,0.0012483894,1,1,1,0,1,0
31507000,31355000,1310988,-4.313064e-05,-6.934875e-05,2.6636057e-05,0.15,2.6605403e-07,2.3440501e-07,3.0873264e-06,1310988,0.06512434,1.6160357e-05,0.012095484,0.4,0.0069561694,0.00796052,4.594682e-05,197388,0.0022576826,0.0007144584,8.850289e-06,0.5,0.0016316302,0.0012442659,0.0012482037,1,1,1,0,1,0
31907000,31755000,1310988,-3.0624607e-05,-5.7627218e-05,5.74266e-05,0.15,2.6042923e-07,2.2973897e-07,2.9502671e-06,1310988,0.06546828,-0.0011200068,0.012104565,0.4,0.0069216867,0.007924652,4.515697e-05,197388,0.0020316932,0.00080561487,5.3855776e-05,0.5,0.0016272818,0.0012436297,0.0012480378,1,1,1,0,1,0
32307000,32155000,1310988,-1.3902019e-05,-4.2511307e-05,8.297841e-05,0.15,2.5516732e-07,2.2547313e-07,2.8415031e-06,1310988,0.06596257,-0.002420224,0.012068205,0.4,0.0068898685,0.007890585,4.436919e-05,197388,0.0018115952,0.0009353675,7.272706e-05,0.5,0.0016223745,0.0012429275,0.0012479093,1,1,1,0,1,0
32707000,32555000,1310988,6.2358763e-06,-2.6258247e-05,9.54405e-05,0.15,2.502429e-07,2.2159522e-07,2.7181945e-06,1310988,0.06625076,-0.004196405,0.012019873,0.4,0.0068599917,0.007856905,4.3635064e-05,197388,0.0015283751,0.001030826,0.00012172887,0.5,0.0016170826,0.0012418412,0.0012477576,1,1,1,0,1,0
33107000,32955000,1310988,2.7613036e-05,-1.2712502e-05,8.638165e-05,0.15,2.455412e-07,2.180664e-07,2.6204702e-06,1310988,0.066357836,-0.005895483,0.011974153,0.4,0.0068320436,0.007824831,4.2925843e-05,197388,0.0013146463,0.00106502,0.00014515818,0.5,0.0016123628,0.0012407767,0.0012476273,1,1,1,0,1,0
33507000,33355000,1310988,4.5443652e-05,2.346853e-06,8.940512e-05,0.15,2.4111316e-07,2.1483497e-07,2.5091867e-06,1310988,0.06665065,-0.007373344,0.0119227385,0.4,0.006805378,0.0077933986,4.221702e-05,197388,0.0010660767,0.0011445865,0.00015087792,0.5,0.0016089682,0.0012393477,0.0012475109,1,1,1,0,1,0
33907000,33755000,1310988,6.402047e-05,8.420711e-06,9.905809e-05,0.15,2.3685288e-07,2.1188491e-07,2.404019e-06,1310988,0.06638094,-0.008711006,0.011878882,0.4,0.0067800255,0.0077632666,4.155495e-05,197388,0.0009289213,0.0012270507,0.00015355193,0.5,0.0016061199,0.0012377335,0.0012474281,1,1,1,0,1,0
34307000,34155000,1310988,7.918323e-05,1.1723507e-05,0.00010754514,0.15,2.3276645e-07,2.091325e-07,2.3204768e-06,1310988,0.066082835,-0.009718564,0.01184444,0.4,0.006755794,0.007734771,4.09145e-05,197388,0.0008351388,0.0013000092,0.00016112691,0.5,0.0016042168,0.0012364006,0.0012473625,1,1,1,0,1,0
35107000,34955000,1310988,0.00010155084,2.1622785e-05,0.00012494715,0.15,2.2527334e-07,2.0409254e-07,2.1496917e-06,1310988,0.065929465,-0.011259838,0.011730704,0.4,0.0067096255,0.007679582,3.9673407e-05,197388,0.0006579982,0.0014550412,0.000144207,0.5,0.0016023095,0.0012332373,0.0012472993,1,1,1,0,1,0
36107000,35955000,1310988,0.00010707227,3.4781544e-05,0.00017805693,0.15,2.2019672e-07,2.0104613e-07,1.9576426e-06,1310988,0.066518664,-0.011780361,0.0115401475,0.4,0.0066658636,0.0076266304,3.84615e-05,197388,0.0005789988,0.0017518288,0.0001685781,0.5,0.0016019016,0.0012291883,0.0012472058,1,1,1,0,1,0
36707000,36555000,1310988,9.5719144e-05,5.002193e-05,0.0002034411,0.15,2.1270789e-07,1.951724e-07,1.8415876e-06,1310988,0.067656465,-0.011463502,0.011335409,0.4,0.0066268384,0.0075803166,3.7415553e-05,197388,0.0006646668,0.0018990894,0.0002039636,0.5,0.0016008496,0.0012265147,0.0012470916,1,1,1,0,1,0
37187000,37035000,1310988,8.533267e-05,6.0273545e-05,0.00022503405,0.15,2.1069796e-07,1.9380792e-07,1.7602662e-06,1310988,0.068556,-0.010991818,0.011236315,0.4,0.0066085667,0.007557739,3.688966e-05,197388,0.00073254365,0.0020186503,0.00025858454,0.5,0.0015994536,0.0012244625,0.0012469584,1,1,1,0,1,0
37507000,37355000,1310988,7.117307e-05,7.403198e-05,0.00022518741,0.15,2.0760417e-07,1.9126482e-07,1.7142138e-06,1310988,0.06966121,-0.010491849,0.011134835,0.4,0.0065916902,0.0075372215,3.6403726e-05,197388,0.000910027,0.0020207088,0.00030103212,0.5,0.0015974144,0.0012235456,0.0012468337,1,1,1,0,1,0
37907000,37755000,1310988,5.3122614e-05,9.079889e-05,0.0002325957,0.15,2.0530491e-07,1.8945646e-07,1.6501501e-06,1310988,0.071019955,-0.009795363,0.011020592,0.4,0.0065754536,0.0075170635,3.590237e-05,197388,0.001225046,0.0020085035,0.0003601047,0.5,0.0015940375,0.0012224525,0.0012465883,1,1,1,0,1,0
38307000,38155000,1310988,2.5604511e-05,0.00010215887,0.00023170664,0.15,2.0310218e-07,1.8777698e-07,1.5990261e-06,1310988,0.07239237,-0.00840063,0.0109090395,0.4,0.006560324,0.007498774,3.543233e-05,197388,0.0015687445,0.0019443961,0.00044637622,0.5,0.0015888804,0.0012217342,0.0012463203,1,1,1,0,1,0
38507000,38355000,1310988,-1.5631473e-06,0.00011007284,0.00023028547,0.15,2.0025354e-07,1.8541466e-07,1.5679287e-06,1310988,0.07349568,-0.0071132695,0.010826321,0.4,0.0065484857,0.007484713,3.504731e-05,197388,0.0018786262,0.0018918524,0.00046143017,0.5,0.001583803,0.0012214442,0.0012461842,1,1,1,0,1,0
38907000,38755000,1310988,-3.237253e-05,0.00012053729,0.00023443504,0.15,1.9887577e-07,1.8457979e-07,1.5124418e-06,1310988,0.07478786,-0.0055730264,0.010732026,0.4,0.006536755,0.0074699232,3.4618555e-05,197388,0.002294038,0.0018163401,0.0005010764,0.5,0.0015770921,0.0012210276,0.0012459382,1,1,1,0,1,0
39307000,39155000,1310988,-6.927037e-05,0.00013039315,0.00023289773,0.15,1.9739136e-07,1.8375864e-07,1.4683487e-06,1310988,0.07611256,-0.0037172253,0.010625641,0.4,0.0065256753,0.007456009,3.4209497e-05,197388,0.0027996837,0.0016932568,0.00053027936,0.5,0.0015687004,0.0012207658,0.0012457158,1,1,1,0,1,0
39707000,39555000,1310988,-0.000110016714,0.00014263848,0.00023666047,0.15,1.9590918e-07,1.8301e-07,1.4184474e-06,1310988,0.07751448,-0.001735399,0.0105198035,0.4,0.0065155425,0.007442662,3.3806e-05,197388,0.0033073472,0.0015919331,0.0005473835,0.5,0.0015602668,0.0012204933,0.0012454846,1,1,1,0,1,0
40107000,39955000,1310988,-0.00014968262,0.00015545808,0.00025513137,0.15,1.9445096e-07,1.8235707e-07,1.371376e-06,1310988,0.07884732,0.00024272766,0.010423556,0.4,0.0065063974,0.007430243,3.339465e-05,197388,0.0038101587,0.0014667752,0.00058983814,0.5,0.0015520952,0.0012201793,0.0012452133,1,1,1,0,1,0
40507000,40355000,1310988,-0.00019277963,0.00016796633,0.0002674728,0.15,1.9303454e-07,1.8182479e-07,1.3341873e-06,1310988,0.08009487,0.002312096,0.010337356,0.4,0.0064981943,0.0074189263,3.30045e-05,197388,0.0042831367,0.0013747494,0.0006315172,0.5,0.0015434705,0.0012198249,0.0012449274,1,1,1,0,1,0
40907000,40755000,1310988,-0.00023983543,0.00018463645,0.00027615967,0.15,1.9169445e-07,1.8143572e-07,1.2920606e-06,1310988,0.08149494,0.004686556,0.010254424,0.4,0.006490798,0.007408121,3.2621483e-05,197388,0.005064615,0.0012231917,0.00074275397,0.5,0.0015334184,0.0012192116,0.0012445605,1,1,1,0,1,0
41307000,41155000,1310988,-0.00028690233,0.00020480528,0.0002725888,0.15,1.9043667e-07,1.8115995e-07,1.2590539e-06,1310988,0.08284098,0.0069671413,0.0101605775,0.4,0.006484032,0.007397961,3.223266e-05,197388,0.0058270204,0.0010996885,0.00077322364,0.5,0.0015228762,0.0012184508,0.0012443261,1,1,1,0,1,0
41707000,41555000,1310988,-0.00033531533,0.00022780824,0.00028318254,0.15,1.8927965e-07,1.8095109e-07,1.221798e-06,1310988,0.08416811,0.009375314,0.010087383,0.4,0.0064778244,0.007388007,3.1865427e-05,197388,0.006376515,0.0008559851,0.0007638906,0.5,0.001511714,0.0012172158,0.0012441268,1,1,1,0,1,0
42107000,41955000,1310988,-0.00038489237,0.00025230582,0.00029967396,0.15,1.882093e-07,1.8082108e-07,1.186887e-06,1310988,0.08542414,0.011917357,0.010024237,0.4,0.0064720316,0.0073783365,3.1506002e-05,197388,0.006897594,0.00056306965,0.0007493088,0.5,0.0014999191,0.0012156802,0.0012439626,1,1,1,0,1,0
42507000,42355000,1310988,-0.00043199444,0.00027565344,0.000297589,0.15,1.872088e-07,1.8070232e-07,1.1541458e-06,1310988,0.08642484,0.014228407,0.009941471,0.4,0.0064667263,0.007369082,3.11418e-05,197388,0.0073319664,0.00043084464,0.00067937863,0.5,0.0014887012,0.0012138666,0.0012438588,1,1,1,0,1,0
42907000,42755000,1310988,-0.00047732712,0.0002997503,0.00029631122,0.15,1.8627063e-07,1.8056465e-07,1.1284803e-06,1310988,0.08732472,0.01647594,0.009855446,0.4,0.0064616716,0.0073601734,3.079855e-05,197388,0.007534898,0.00029096112,0.0005874954,0.5,0.0014793873,0.0012123856,0.0012438032,1,1,1,0,1,0
43307000,43155000,1310988,-0.00051581406,0.00031987482,0.00030198114,0.15,1.8535701e-07,1.8029733e-07,1.099039e-06,1310988,0.08800263,0.018436369,0.009784037,0.4,0.0064569023,0.0073514455,3.0463083e-05,197388,0.0077691576,0.0001416441,0.00049447943,0.5,0.0014706699,0.0012106892,0.0012437392,1,1,1,0,1,0
43707000,43555000,1310988,-0.0005540004,0.00033840438,0.00030016067,0.15,1.8446909e-07,1.7999882e-07,1.0711994e-06,1310988,0.088560544,0.020378763,0.009713175,0.4,0.0064521935,0.0073427665,3.0123521e-05,197388,0.0080754515,6.6559594e-05,0.00040781338,0.5,0.0014620137,0.0012089688,0.0012436782,1,1,1,0,1,0
44107000,43955000,1310988,-0.000588757,0.00035627896,0.00029157827,0.15,1.8361416e-07,1.795952e-07,1.0494607e-06,1310988,0.08902946,0.022088598,0.009653614,0.4,0.0064476836,0.007334544,2.980369e-05,197388,0.008194793,5.2034477e-05,0.0003310516,0.5,0.0014547487,0.0012074779,0.0012436325,1,1,1,0,1,0
44507000,44355000,1310988,-0.0006217273,0.00037479942,0.00029678436,0.15,1.8280858e-07,1.7911682e-07,1.0243322e-06,1310988,0.08950072,0.023765478,0.009606111,0.4,0.0064432733,0.0073263776,2.9491204e-05,197388,0.008103968,-6.633435e-05,0.0002592802,0.5,0.0014460216,0.00120568,0.0012435827,1,1,1,0,1,0
44907000,44755000,1310988,-0.0006494942,0.00039406202,0.00029243846,0.15,1.8204281e-07,1.7847844e-07,1.000276e-06,1310988,0.08999033,0.025207873,0.009574166,0.4,0.0064388975,0.00731843,2.917495e-05,197388,0.007821796,-9.0871494e-05,0.0002078209,0.5,0.0014379942,0.0012042612,0.0012435052,1,1,1,0,1,0
45307000,45155000,1310988,-0.0006742413,0.0004100281,0.00028873706,0.15,1.8126026e-07,1.7773353e-07,9.812613e-07,1310988,0.090324625,0.026361048,0.009512364,0.4,0.006434677,0.0073109684,2.8877077e-05,197388,0.007462121,-0.00012565628,0.00016663951,0.5,0.0014316613,0.0012033305,0.0012433876,1,1,1,0,1,0
45907000,45755000,1310988,-0.0007056352,0.0004365939,0.00029153284,0.15,1.7924414e-07,1.7545182e-07,9.477207e-07,1310988,0.09092508,0.027927851,0.0094188135,0.4,0.0064276247,0.0072988365,2.8354785e-05,197388,0.006767838,-0.00020080952,0.00011518363,0.5,0.0014197865,0.0012019508,0.0012429748,1,1,1,0,1,0
46707000,46555000,1310988,-0.0007186847,0.00046459743,0.00028887746,0.15,1.7829883e-07,1.7379368e-07,9.09368e-07,1310988,0.09154673,0.028648479,0.009315601,0.4,0.006420503,0.007287297,2.783293e-05,197388,0.005615268,-0.00023490598,0.00015973242,0.5,0.001405191,0.0012010817,0.0012422454,1,1,1,0,1,0
47507000,47355000,1310988,-0.00071509555,0.00048456504,0.00027679504,0.15,1.7705216e-07,1.7182249e-07,8.6888315e-07,1310988,0.09179488,0.028436737,0.009232525,0.4,0.006413647,0.007277145,2.7312897e-05,197388,0.0043793004,-0.00030228114,0.00035905064,0.5,0.0013889375,0.0012000442,0.0012410639,1,1,1,0,1,0
48307000,48155000,1310988,-0.00069461606,0.00050178304,0.00025072487,0.15,1.7571107e-07,1.7003248e-07,8.331953e-07,1310988,0.091760196,0.027629191,0.009167629,0.4,0.0064066346,0.007268135,2.680783e-05,197388,0.0033774774,-0.0004272353,0.0005434149,0.5,0.0013722231,0.0011978301,0.0012399682,1,1,1,0,1,0
49107000,48955000,1310988,-0.00066357653,0.0005107089,0.00022583485,0.15,1.7440061e-07,1.6876886e-07,7.9917095e-07,1310988,0.091195606,0.026473409,0.009101213,0.4,0.006398907,0.0072595025,2.6328304e-05,197388,0.0026987034,-0.00057915994,0.0007015411,0.5,0.0013562526,0.0011942977,0.001238975,1,1,1,0,1,0
49907000,49755000,1310988,-0.0006263235,0.0005213041,0.00020545081,0.15,1.7321936e-07,1.6806422e-07,7.670018e-07,1310988,0.090277426,0.025058383,0.009078888,0.4,0.0063898508,0.0072504096,2.5857511e-05,197388,0.0019611828,-0.0007704613,0.00086100533,0.5,0.0013418065,0.0011891588,0.0012379698,1,1,1,0,1,0
50307000,50155000,1310988,-0.0006053146,0.0005230018,0.00019282485,0.15,1.7266235e-07,1.6789423e-07,7.500181e-07,1310988,0.08950698,0.024249738,0.009060529,0.4,0.006384576,0.007245362,2.5633031e-05,197388,0.0017564016,-0.00093348406,0.0010282418,0.5,0.0013351293,0.0011854799,0.0012372942,1,1,1,0,1,0
50707000,50555000,1310988,-0.00058040273,0.00052308233,0.00018148482,0.15,1.7214575e-07,1.6785125e-07,7.336702e-07,1310988,0.08862258,0.023450328,0.009056718,0.4,0.0063789175,0.0072400873,2.5404623e-05,197388,0.0016035755,-0.0010771243,0.0011274203,0.5,0.0013283261,0.0011812687,0.0012365568,1,1,1,0,1,0
51107000,50955000,1310988,-0.0005490749,0.0005216198,0.0001793622,0.15,1.7164881e-07,1.6792889e-07,7.2091683e-07,1310988,0.087481014,0.022549251,0.0090552205,0.4,0.0063729505,0.00723465,2.5188865e-05,197388,0.001381131,-0.0010977744,0.0011245821,0.5,0.0013211805,0.0011774238,0.00123613,1,1,1,0,1,0
51507000,51355000,1310988,-0.00051783223,0.0005192288,0.00016070262,0.15,1.7118728e-07,1.6810564e-07,7.057057e-07,1310988,0.086205244,0.02166251,0.009046427,0.4,0.006366466,0.0072288527,2.4977307e-05,197388,0.0011652744,-0.001411072,0.0011908176,0.5,0.0013141228,0.0011723762,0.0012356101,1,1,1,0,1,0
51907000,51755000,1310988,-0.00048601942,0.0005127626,0.00014782007,0.15,1.7076073e-07,1.6834598e-07,6.9116555e-07,1310988,0.08475479,0.02088088,0.0090450505,0.4,0.006359564,0.007222773,2.4762014e-05,197388,0.001029904,-0.0016849368,0.0012567968,0.5,0.0013073514,0.001166945,0.0012350762,1,1,1,0,1,0
52307000,52155000,1310988,-0.0004541841,0.00050711865,0.00014350859,0.15,1.7036051e-07,1.6861804e-07,6.7998235e-07,1310988,0.08333038,0.02011344,0.009021504,0.4,0.0063524684,0.0072164587,2.4558774e-05,197388,0.0008398386,-0.0017616757,0.0012539297,0.5,0.0013015392,0.0011623029,0.0012346801,1,1,1,0,1,0
52707000,52555000,1310988,-0.00042508103,0.0004931064,0.00013357926,0.15,1.700201e-07,1.6886952e-07,6.665926e-07,1310988,0.08186831,0.019793317,0.009029827,0.4,0.0063450704,0.007209971,2.4351717e-05,197388,0.00076969765,-0.001993138,0.0012964723,0.5,0.0012957525,0.001156427,0.0012341896,1,1,1,0,1,0
53107000,52955000,1310988,-0.00039729336,0.00047763207,0.00012431601,0.15,1.6972916e-07,1.6909557e-07,6.5383796e-07,1310988,0.0804041,0.019580668,0.009028577,0.4,0.0063376003,0.0072032986,2.4156285e-05,197388,0.0006642436,-0.002239134,0.0013181355,0.5,0.0012904612,0.0011505851,0.0012337926,1,1,1,0,1,0
53507000,53355000,1310988,-0.00036829783,0.000458781,0.00011920367,0.15,1.6948593e-07,1.6931695e-07,6.4411137e-07,1310988,0.07879108,0.01945645,0.0090059005,0.4,0.006330217,0.0071966634,2.3964505e-05,197388,0.0005563798,-0.0024306604,0.0013257915,0.5,0.0012855177,0.0011456595,0.001233499,1,1,1,0,1,0
53907000,53755000,1310988,-0.00034220328,0.00043756203,0.00011890304,0.15,1.6930642e-07,1.6949468e-07,6.3243226e-07,1310988,0.07736772,0.019608878,0.008994676,0.4,0.006322913,0.007189987,2.3769064e-05,197388,0.0003620791,-0.0025120033,0.0012834236,0.5,0.0012802527,0.0011396429,0.001233215,1,1,1,0,1,0
54307000,54155000,1310988,-0.00031798467,0.00041340856,0.00011154243,0.15,1.691832e-07,1.695659e-07,6.2349136e-07,1310988,0.07600524,0.019967552,0.008993714,0.4,0.006315893,0.0071832845,2.3584491e-05,197388,4.069628e-05,-0.0027691547,0.0012751843,0.5,0.0012754368,0.0011344481,0.0012329465,1,1,1,0,1,0
