timestamp,timestamp_sample,q[0],q[1],q[2],q[3],delta_q_reset[0],delta_q_reset[1],delta_q_reset[2],delta_q_reset[3],quat_reset_counter
1988000,1988000,0.9999969,-0.00047542088,-0.002413118,0.0003198899,1.0,0.0,0.0,0.0,0
1992000,1992000,0.9999971,-0.00047199306,-0.0023831269,0.00030755898,1.0,0.0,0.0,0.0,0
2000000,2000000,0.99999726,-0.00042234157,-0.0023052746,0.00025588143,1.0,0.0,0.0,0.0,0
2008000,2008000,0.9999975,-0.00040047383,-0.0021622314,0.00026383082,1.0,0.0,0.0,0.0,0
2020000,2020000,0.9999979,-0.00034090024,-0.0020142642,0.0002623989,1.0,0.0,0.0,0.0,0
2028000,2028000,0.999998,-0.00034466913,-0.0019868205,0.0002249752,1.0,0.0,0.0,0.0,0
2040000,2040000,0.9999983,-0.00030943498,-0.0018179482,0.00025436093,1.0,0.0,0.0,0.0,0
2048000,2048000,0.9999985,-0.0002811962,-0.0016929071,0.00023553772,1.0,0.0,0.0,0.0,0
2060000,2060000,0.9999987,-0.00024847116,-0.0016491282,0.00021036364,1.0,0.0,0.0,0.0,0
2068000,2068000,0.9999988,-0.00027358375,-0.0015613341,0.00017271041,1.0,0.0,0.0,0.0,0
2080000,2080000,0.9999989,-0.00027880384,-0.00147007,9.411565e-05,1.0,0.0,0.0,0.0,0
2088000,2088000,0.9999989,-0.00029331393,-0.0014499024,9.2491064e-05,1.0,0.0,0.0,0.0,0
2100000,2100000,0.99999905,-0.00027552655,-0.0013698157,6.667312e-05,1.0,0.0,0.0,0.0,0
2108000,2108000,0.99999917,-0.00032938822,-0.001299998,8.337733e-05,1.0,0.0,0.0,0.0,0
2120000,2120000,0.9999993,-0.000308365,-0.0012001194,0.000101042046,1.0,0.0,0.0,0.0,0
2128000,2128000,0.9999993,-0.00022618154,-0.0011688459,0.00015350233,1.0,0.0,0.0,0.0,0
2140000,2140000,0.99999946,-0.00024202275,-0.001063949,0.00015444665,1.0,0.0,0.0,0.0,0
2148000,2148000,0.9999995,-0.00024119059,-0.0010042194,0.00013782148,1.0,0.0,0.0,0.0,0
2160000,2160000,0.9999996,-0.00023750968,-0.0008677196,0.00013273628,1.0,0.0,0.0,0.0,0
2168000,2168000,0.9999997,-0.00020483897,-0.0007677914,0.00016336932,1.0,0.0,0.0,0.0,0
2180000,2180000,0.9999998,-0.00011942014,-0.0006959246,7.2454335e-05,1.0,0.0,0.0,0.0,0
2188000,2188000,0.9999998,-0.00011505577,-0.00063439173,2.2777223e-05,1.0,0.0,0.0,0.0,0
2200000,2200000,0.99999994,-0.00013965013,-0.0005212208,5.729801e-06,1.0,0.0,0.0,0.0,0
2208000,2208000,0.99999994,-0.00012329116,-0.00043422333,-6.078971e-05,1.0,0.0,0.0,0.0,0
2220000,2220000,0.99999994,-4.2769047e-05,-0.00034490234,-3.766634e-05,1.0,0.0,0.0,0.0,0
2228000,2228000,1.0,-2.8290397e-05,-0.0002896728,-2.1871585e-05,1.0,0.0,0.0,0.0,0
2240000,2240000,1.0,-5.6781602e-05,-0.00024735936,-2.1014132e-05,1.0,0.0,0.0,0.0,0
2248000,2248000,1.0,-6.1026036e-05,-0.00018442319,-4.960189e-05,1.0,0.0,0.0,0.0,0
2260000,2260000,1.0,-0.00011826237,-0.00016084498,-3.0198004e-05,1.0,0.0,0.0,0.0,0
2268000,2268000,1.0,-0.00014705013,-0.00015719426,-6.418988e-05,1.0,0.0,0.0,0.0,0
2280000,2280000,1.0,-0.0001922482,-0.00017573535,-0.00014614862,1.0,0.0,0.0,0.0,0
2288000,2288000,1.0,-0.00017537187,-0.00019739344,-0.00023078112,1.0,0.0,0.0,0.0,0
2300000,2300000,1.0,-0.00017162776,-0.00018507971,-0.00032763975,1.0,0.0,0.0,0.0,0
2308000,2308000,1.0,-0.00021810671,-9.965266e-05,-0.00030956318,1.0,0.0,0.0,0.0,0
2320000,2320000,0.9999999,-0.00026001476,-0.00015810672,-0.00029924457,1.0,0.0,0.0,0.0,0
2328000,2328000,1.0,-0.00022892912,-0.00016932187,-0.00033440042,1.0,0.0,0.0,0.0,0
2340000,2340000,1.0,-0.00020395209,-0.00014053851,-0.00037033024,1.0,0.0,0.0,0.0,0
2348000,2348000,1.0,-0.00014572905,-0.00016482365,-0.0003550375,1.0,0.0,0.0,0.0,0
2360000,2360000,1.0,-0.00017817639,-0.00012726425,-0.00034917265,1.0,0.0,0.0,0.0,0
2368000,2368000,1.0,-0.00019005213,-0.00013732006,-0.00039506546,1.0,0.0,0.0,0.0,0
2380000,2380000,1.0,-0.000118164666,-8.0949045e-05,-0.00042135434,1.0,0.0,0.0,0.0,0
2388000,2388000,1.0,-8.060348e-05,-1.800857e-05,-0.00041054576,1.0,0.0,0.0,0.0,0
2400000,2400000,1.0,-8.8962315e-06,5.0621005e-05,-0.00038272998,1.0,0.0,0.0,0.0,0
2408000,2408000,1.0,-3.5258246e-05,5.3325864e-05,-0.0003296396,1.0,0.0,0.0,0.0,0
2420000,2420000,1.0,-4.492029e-05,9.00711e-05,-0.00038464332,1.0,0.0,0.0,0.0,0
2428000,2428000,1.0,-0.0001365206,8.712329e-05,-0.00039692604,1.0,0.0,0.0,0.0,0
2440000,2440000,0.9999999,-0.00027211427,0.00011996646,-0.0004262155,1.0,0.0,0.0,0.0,0
2448000,2448000,0.9999999,-0.00026788047,0.00015166818,-0.00039743652,1.0,0.0,0.0,0.0,0
2460000,2460000,0.9999999,-0.00022301522,0.0001961067,-0.00033402385,1.0,0.0,0.0,0.0,0
2468000,2468000,0.9999999,-0.0002524366,0.00019903577,-0.00031641615,1.0,0.0,0.0,0.0,0
2480000,2480000,0.9999999,-0.00031997153,0.0001794346,-0.0003478121,1.0,0.0,0.0,0.0,0
2488000,2488000,0.9999999,-0.00034244588,0.00017416355,-0.0003659379,1.0,0.0,0.0,0.0,0
2500000,2500000,0.9999999,-0.00037687868,0.00017397468,-0.00028559237,1.0,0.0,0.0,0.0,0
2508000,2508000,0.9999999,-0.00039442957,0.00017636796,-0.00024414167,1.0,0.0,0.0,0.0,0
2520000,2520000,0.9999999,-0.00041344197,0.00018341655,-0.00019211567,1.0,0.0,0.0,0.0,0
2528000,2528000,0.9999999,-0.00045266395,0.00013637138,-0.00020925654,1.0,0.0,0.0,0.0,0
2540000,2540000,0.9999999,-0.0004852882,0.000104416176,-0.00012315415,1.0,0.0,0.0,0.0,0
2548000,2548000,0.9999999,-0.00051919266,8.3699306e-05,-0.00010624553,1.0,0.0,0.0,0.0,0
2560000,2560000,0.9999999,-0.0005182046,5.5250115e-05,-8.4215564e-05,1.0,0.0,0.0,0.0,0
2568000,2568000,0.9999999,-0.0005273548,5.0770323e-05,-8.3878695e-05,1.0,0.0,0.0,0.0,0
2580000,2580000,0.9999999,-0.0005631939,9.657838e-05,-0.00011946577,1.0,0.0,0.0,0.0,0
2588000,2588000,0.9999999,-0.0005916177,0.00010454032,-0.00012213862,1.0,0.0,0.0,0.0,0
2600000,2600000,0.9999999,-0.0005934024,7.443603e-05,-8.445752e-05,1.0,0.0,0.0,0.0,0
2608000,2608000,0.9999999,-0.0005961507,-2.3205519e-05,-6.8783265e-05,1.0,0.0,0.0,0.0,0
2620000,2620000,0.9999999,-0.00063022756,-8.5194144e-05,-7.6070784e-05,1.0,0.0,0.0,0.0,0
2628000,2628000,0.99999976,-0.0006765805,-3.3717566e-05,-7.895166e-05,1.0,0.0,0.0,0.0,0
2640000,2640000,0.99999976,-0.00071397633,-3.142034e-05,-0.00012756823,1.0,0.0,0.0,0.0,0
2648000,2648000,0.99999976,-0.00075076934,-9.636901e-06,-0.0001430295,1.0,0.0,0.0,0.0,0
2660000,2660000,0.99999976,-0.00080516713,-2.5328236e-06,-0.00013169665,1.0,0.0,0.0,0.0,0
2668000,2668000,0.99999976,-0.0008010762,-4.7635644e-05,-8.300137e-05,1.0,0.0,0.0,0.0,0
2680000,2680000,0.99999964,-0.0008553163,-2.8066957e-05,-4.4251323e-05,1.0,0.0,0.0,0.0,0
2688000,2688000,0.99999964,-0.00087526446,-1.8984763e-05,-2.0443897e-05,1.0,0.0,0.0,0.0,0
2700000,2700000,0.99999964,-0.00093998184,-1.50498045e-05,3.780071e-05,1.0,0.0,0.0,0.0,0
2708000,2708000,0.99999964,-0.0009508903,-4.6547597e-05,0.000112970636,1.0,0.0,0.0,0.0,0
2720000,2720000,0.9999995,-0.0010098564,-2.2362477e-05,9.06877e-05,1.0,0.0,0.0,0.0,0
2728000,2728000,0.9999995,-0.0010323267,-9.291165e-06,7.636106e-05,1.0,0.0,0.0,0.0,0
2740000,2740000,0.9999995,-0.0010584181,-4.211566e-05,8.7133376e-05,1.0,0.0,0.0,0.0,0
2748000,2748000,0.9999995,-0.0010658776,-0.00011065575,8.8183755e-05,1.0,0.0,0.0,0.0,0
2760000,2760000,0.9999995,-0.0010390108,-0.00013493728,0.00013765511,1.0,0.0,0.0,0.0,0
2768000,2768000,0.9999995,-0.0010305195,-0.00013898128,0.00010724188,1.0,0.0,0.0,0.0,0
2780000,2780000,0.9999995,-0.0010138557,-0.00013950813,0.00012484135,1.0,0.0,0.0,0.0,0
2788000,2788000,0.9999995,-0.00097610883,-0.00016085188,0.0001463154,1.0,0.0,0.0,0.0,0
2800000,2800000,0.99999964,-0.00092526054,-0.00019995158,0.00011160955,1.0,0.0,0.0,0.0,0
2808000,2808000,0.9999995,-0.0009710885,-0.00023556952,0.00010397365,1.0,0.0,0.0,0.0,0
2820000,2820000,0.9999995,-0.0009586949,-0.00025084452,0.00016050323,1.0,0.0,0.0,0.0,0
2828000,2828000,0.9999995,-0.0009705946,-0.00023731244,0.00014394899,1.0,0.0,0.0,0.0,0
2840000,2840000,0.9999995,-0.0009718713,-0.00029585286,0.00011191271,1.0,0.0,0.0,0.0,0
2848000,2848000,0.9999995,-0.00093946717,-0.00032031635,8.1196835e-05,1.0,0.0,0.0,0.0,0
2860000,2860000,0.9999995,-0.00091925706,-0.0003590933,0.00013666382,1.0,0.0,0.0,0.0,0
2868000,2868000,0.9999995,-0.00093306764,-0.0003539568,0.00012844038,1.0,0.0,0.0,0.0,0
2880000,2880000,0.9999995,-0.0009212838,-0.0003790185,0.00012457604,1.0,0.0,0.0,0.0,0
2888000,2888000,0.9999995,-0.00092067587,-0.00036446285,0.00016073951,1.0,0.0,0.0,0.0,0
2900000,2900000,0.9999995,-0.0009806347,-0.0003736134,0.00010538945,1.0,0.0,0.0,0.0,0
2908000,2908000,0.9999995,-0.0009958381,-0.00033534397,4.534209e-05,1.0,0.0,0.0,0.0,0
2920000,2920000,0.9999994,-0.0010240893,-0.00031528174,7.73269e-06,1.0,0.0,0.0,0.0,0
2928000,2928000,0.9999994,-0.0010076225,-0.00030878893,-6.739416e-06,1.0,0.0,0.0,0.0,0
2940000,2940000,0.9999995,-0.0010174143,-0.00027629978,-3.5246144e-06,1.0,0.0,0.0,0.0,0
2948000,2948000,0.9999996,-0.000961036,-0.00028140662,-8.47186e-06,1.0,0.0,0.0,0.0,0
2960000,2960000,0.99999964,-0.0008719085,-0.000283341,-3.6632855e-07,1.0,0.0,0.0,0.0,0
2968000,2968000,0.99999964,-0.0008215476,-0.000276928,1.5009686e-05,1.0,0.0,0.0,0.0,0
2980000,2980000,0.99999964,-0.0008392597,-0.0002616116,-2.7432701e-05,1.0,0.0,0.0,0.0,0
2988000,2988000,0.99999964,-0.00085885904,-0.00024139558,-3.4396333e-05,1.0,0.0,0.0,0.0,0
3000000,3000000,0.9999996,-0.0008903403,-0.0002584402,-7.18966e-05,1.0,0.0,0.0,0.0,0
3008000,3008000,0.9999996,-0.0009814472,-0.0002510888,-0.00012242908,1.0,0.0,0.0,0.0,0
3020000,3020000,0.9999996,-0.00093432853,-0.00028285733,-0.0001452768,1.0,0.0,0.0,0.0,0
3028000,3028000,0.9999996,-0.00093930075,-0.00030498145,-0.00018918976,1.0,0.0,0.0,0.0,0
3040000,3040000,0.99999946,-0.0009129699,-0.0003357409,-0.00024637397,1.0,0.0,0.0,0.0,0
3048000,3048000,0.9999996,-0.0008867701,-0.00033546693,-0.00017394831,1.0,0.0,0.0,0.0,0
3060000,3060000,0.7020936,-0.0003075513,-0.0008969219,0.7120841,0.7020195,1.5747183e-11,-2.5060624e-11,0.71215767,1
3068000,3068000,0.7020941,-0.00025716855,-0.0009556318,0.7120835,0.7020195,1.5747183e-11,-2.5060624e-11,0.71215767,1
3080000,3080000,0.7020841,-0.00029489206,-0.000978707,0.7120933,0.7020195,1.5747183e-11,-2.5060624e-11,0.71215767,1
3088000,3088000,0.70205903,-0.00031140255,-0.00096651603,0.712118,0.7020195,1.5747183e-11,-2.5060624e-11,0.71215767,1
3100000,3100000,0.7020799,-0.0003262988,-0.0008722403,0.7120976,0.7020195,1.5747183e-11,-2.5060624e-11,0.71215767,1
3108000,3108000,0.70207053,-0.00028264942,-0.00083718327,0.7121069,0.7020195,1.5747183e-11,-2.5060624e-11,0.71215767,1
3120000,3120000,0.70209074,-0.00024815393,-0.0007840729,0.71208704,0.7020195,1.5747183e-11,-2.5060624e-11,0.71215767,1
3128000,3128000,0.7020956,-0.00024273129,-0.0007224719,0.71208227,0.7020195,1.5747183e-11,-2.5060624e-11,0.71215767,1
3140000,3140000,0.70194966,-0.00030643,-0.00069843256,0.7122262,0.7020195,1.5747183e-11,-2.5060624e-11,0.71215767,1
3148000,3148000,0.7018549,-0.00028912132,-0.0007233728,0.71231955,0.7020195,1.5747183e-11,-2.5060624e-11,0.71215767,1
3160000,3160000,0.7016911,-0.00031221603,-0.0007042795,0.7124809,0.7020195,1.5747183e-11,-2.5060624e-11,0.71215767,1
3168000,3168000,0.7016078,-0.00032453204,-0.0007441603,0.7125629,0.7020195,1.5747183e-11,-2.5060624e-11,0.71215767,1
3180000,3180000,0.7014636,-0.00028831197,-0.0007373645,0.7127049,0.7020195,1.5747183e-11,-2.5060624e-11,0.71215767,1
3188000,3188000,0.70134145,-0.0002924549,-0.00075292145,0.7128251,0.7020195,1.5747183e-11,-2.5060624e-11,0.71215767,1
3200000,3200000,0.7011411,-0.000283023,-0.0007557832,0.7130221,0.7020195,1.5747183e-11,-2.5060624e-11,0.71215767,1
3208000,3208000,0.7010751,-0.00027121932,-0.0008060406,0.713087,0.7020195,1.5747183e-11,-2.5060624e-11,0.71215767,1
3220000,3220000,0.70101464,-0.00025264794,-0.0007838397,0.71314645,0.7020195,1.5747183e-11,-2.5060624e-11,0.71215767,1
3228000,3228000,0.7009625,-0.00024261992,-0.0008147836,0.7131977,0.7020195,1.5747183e-11,-2.5060624e-11,0.71215767,1
3240000,3240000,0.70084107,-0.0002083379,-0.00086785277,0.713317,0.7020195,1.5747183e-11,-2.5060624e-11,0.71215767,1
3248000,3248000,0.70078766,-0.0002481029,-0.0009024811,0.7133693,0.7020195,1.5747183e-11,-2.5060624e-11,0.71215767,1
3260000,3260000,0.7006645,-0.00024014479,-0.000917926,0.7134903,0.7020195,1.5747183e-11,-2.5060624e-11,0.71215767,1
3268000,3268000,0.7005852,-0.00022407528,-0.00093303615,0.7135682,0.7020195,1.5747183e-11,-2.5060624e-11,0.71215767,1
3280000,3280000,0.70053655,-0.00023104952,-0.00094413955,0.7136159,0.7020195,1.5747183e-11,-2.5060624e-11,0.71215767,1
3288000,3288000,0.7005346,-0.00031016828,-0.0008891167,0.7136179,0.7020195,1.5747183e-11,-2.5060624e-11,0.71215767,1
3300000,3300000,0.70052797,-0.00028687582,-0.00081490807,0.7136244,0.7020195,1.5747183e-11,-2.5060624e-11,0.71215767,1
3308000,3308000,0.7005223,-0.00029369412,-0.0008361739,0.71362996,0.7020195,1.5747183e-11,-2.5060624e-11,0.71215767,1
3320000,3320000,0.7005045,-0.00029461572,-0.0008094697,0.7136475,0.7020195,1.5747183e-11,-2.5060624e-11,0.71215767,1
3328000,3328000,0.70050305,-0.00034161957,-0.0008136987,0.7136489,0.7020195,1.5747183e-11,-2.5060624e-11,0.71215767,1
3340000,3340000,0.7005063,-0.00036255782,-0.0007856646,0.71364576,0.7020195,1.5747183e-11,-2.5060624e-11,0.71215767,1
3348000,3348000,0.70048,-0.0003452425,-0.0007970139,0.71367157,0.7020195,1.5747183e-11,-2.5060624e-11,0.71215767,1
3360000,3360000,0.7004898,-0.00033295355,-0.00078843476,0.71366197,0.7020195,1.5747183e-11,-2.5060624e-11,0.71215767,1
3368000,3368000,0.7004948,-0.000310556,-0.0008427637,0.71365696,0.7020195,1.5747183e-11,-2.5060624e-11,0.71215767,1
3380000,3380000,0.70052844,-0.00024541083,-0.0008861982,0.71362394,0.7020195,1.5747183e-11,-2.5060624e-11,0.71215767,1
3388000,3388000,0.7005152,-0.00022668198,-0.0008351803,0.71363693,0.7020195,1.5747183e-11,-2.5060624e-11,0.71215767,1
3400000,3400000,0.7005579,-0.00022667763,-0.00081754295,0.7135951,0.7020195,1.5747183e-11,-2.5060624e-11,0.71215767,1
3408000,3408000,0.7006009,-0.00021152136,-0.000780559,0.71355283,0.7020195,1.5747183e-11,-2.5060624e-11,0.71215767,1
3420000,3420000,0.7006218,-0.00018319869,-0.00075779384,0.71353245,0.7020195,1.5747183e-11,-2.5060624e-11,0.71215767,1
3428000,3428000,0.70066696,-0.00017314387,-0.00078412937,0.7134881,0.7020195,1.5747183e-11,-2.5060624e-11,0.71215767,1
3440000,3440000,0.7007075,-0.00018699888,-0.00081747095,0.7134483,0.7020195,1.5747183e-11,-2.5060624e-11,0.71215767,1
3448000,3448000,0.70074946,-0.00022300662,-0.00086602865,0.7134069,0.7020195,1.5747183e-11,-2.5060624e-11,0.71215767,1
3460000,3460000,0.7008847,-0.0003208078,-0.0008590163,0.71327406,0.7020195,1.5747183e-11,-2.5060624e-11,0.71215767,1
3468000,3468000,0.7009696,-0.00034232164,-0.0008697393,0.7131906,0.7020195,1.5747183e-11,-2.5060624e-11,0.71215767,1
3480000,3480000,0.70100445,-0.00042942233,-0.0008519217,0.7131563,0.7020195,1.5747183e-11,-2.5060624e-11,0.71215767,1
3488000,3488000,0.7010493,-0.0004883425,-0.00088508014,0.7131122,0.7020195,1.5747183e-11,-2.5060624e-11,0.71215767,1
3500000,3500000,0.7011329,-0.0004430556,-0.00087806344,0.7130299,0.7020195,1.5747183e-11,-2.5060624e-11,0.71215767,1
3508000,3508000,0.7011855,-0.00043003028,-0.00084536005,0.71297824,0.7020195,1.5747183e-11,-2.5060624e-11,0.71215767,1
3520000,3520000,0.70126003,-0.00043170337,-0.0008065935,0.712905,0.7020195,1.5747183e-11,-2.5060624e-11,0.71215767,1
3528000,3528000,0.7013061,-0.00039769692,-0.0007992624,0.71285975,0.7020195,1.5747183e-11,-2.5060624e-11,0.71215767,1
3540000,3540000,0.7013833,-0.0003849716,-0.0006966394,0.71278393,0.7020195,1.5747183e-11,-2.5060624e-11,0.71215767,1
3548000,3548000,0.70142585,-0.0003752634,-0.0007045131,0.712742,0.7020195,1.5747183e-11,-2.5060624e-11,0.71215767,1
3560000,3560000,0.70152617,-0.0004301719,-0.0007802969,0.71264315,0.7020195,1.5747183e-11,-2.5060624e-11,0.71215767,1
3568000,3568000,0.70156986,-0.00038635117,-0.0008640907,0.7126001,0.7020195,1.5747183e-11,-2.5060624e-11,0.71215767,1
3580000,3580000,0.70158714,-0.00039923718,-0.00084190484,0.7125831,0.7020195,1.5747183e-11,-2.5060624e-11,0.71215767,1
3588000,3588000,0.7016118,-0.00040705357,-0.00085783715,0.71255875,0.7020195,1.5747183e-11,-2.5060624e-11,0.71215767,1
3600000,3600000,0.70169663,-0.00039229952,-0.0008854555,0.71247524,0.7020195,1.5747183e-11,-2.5060624e-11,0.71215767,1
3608000,3608000,0.7017094,-0.0003348615,-0.0008955248,0.71246266,0.7020195,1.5747183e-11,-2.5060624e-11,0.71215767,1
3620000,3620000,0.7017149,-0.0002958812,-0.00089640863,0.7124573,0.7020195,1.5747183e-11,-2.5060624e-11,0.71215767,1
3628000,3628000,0.70176995,-0.00027448699,-0.0008411482,0.7124031,0.7020195,1.5747183e-11,-2.5060624e-11,0.71215767,1
3640000,3640000,0.70178455,-0.000268009,-0.0008118937,0.7123888,0.7020195,1.5747183e-11,-2.5060624e-11,0.71215767,1
3648000,3648000,0.70180315,-0.00027226636,-0.00078182394,0.7123705,0.7020195,1.5747183e-11,-2.5060624e-11,0.71215767,1
3660000,3660000,0.7018126,-0.00021591141,-0.0007608601,0.7123612,0.7020195,1.5747183e-11,-2.5060624e-11,0.71215767,1
3668000,3668000,0.70183986,-0.0001898452,-0.0007764498,0.7123344,0.7020195,1.5747183e-11,-2.5060624e-11,0.71215767,1
3680000,3680000,0.7018437,-0.00018394148,-0.00078665715,0.7123305,0.7020195,1.5747183e-11,-2.5060624e-11,0.71215767,1
3688000,3688000,0.70185,-0.00016779169,-0.00080752774,0.7123244,0.7020195,1.5747183e-11,-2.5060624e-11,0.71215767,1
3700000,3700000,0.70185655,-0.00016994738,-0.0008248577,0.7123178,0.7020195,1.5747183e-11,-2.5060624e-11,0.71215767,1
3708000,3708000,0.70185167,-0.00021711056,-0.00080809486,0.7123227,0.7020195,1.5747183e-11,-2.5060624e-11,0.71215767,1
3720000,3720000,0.7018566,-0.00020028518,-0.0007717149,0.7123179,0.7020195,1.5747183e-11,-2.5060624e-11,0.71215767,1
3728000,3728000,0.7018698,-0.00020777048,-0.00074330054,0.7123049,0.7020195,1.5747183e-11,-2.5060624e-11,0.71215767,1
3740000,3740000,0.7018921,-0.00021272757,-0.0007020939,0.712283,0.7020195,1.5747183e-11,-2.5060624e-11,0.71215767,1
3748000,3748000,0.7019123,-0.0002006216,-0.0006975848,0.7122631,0.7020195,1.5747183e-11,-2.5060624e-11,0.71215767,1
3760000,3760000,0.7019386,-0.00020579719,-0.0007397079,0.7122371,0.7020195,1.5747183e-11,-2.5060624e-11,0.71215767,1
3768000,3768000,0.7019722,-0.00019681649,-0.00071537663,0.71220404,0.7020195,1.5747183e-11,-2.5060624e-11,0.71215767,1
3780000,3780000,0.7020066,-0.00015283679,-0.0007433893,0.7121701,0.7020195,1.5747183e-11,-2.5060624e-11,0.71215767,1
3788000,3788000,0.70196384,-0.00017450485,-0.0007218389,0.7122122,0.7020195,1.5747183e-11,-2.5060624e-11,0.71215767,1
3800000,3800000,0.7019267,-0.0001997992,-0.0006943694,0.7122488,0.7020195,1.5747183e-11,-2.5060624e-11,0.71215767,1
3808000,3808000,0.7018992,-0.0001943994,-0.0007129593,0.7122759,0.7020195,1.5747183e-11,-2.5060624e-11,0.71215767,1
3820000,3820000,0.70183843,-0.00026270348,-0.00066857145,0.7123359,0.7020195,1.5747183e-11,-2.5060624e-11,0.71215767,1
3828000,3828000,0.7018586,-0.00033365024,-0.00065004494,0.712316,0.7020195,1.5747183e-11,-2.5060624e-11,0.71215767,1
3840000,3840000,0.70187527,-0.0003464137,-0.0006453762,0.71229947,0.7020195,1.5747183e-11,-2.5060624e-11,0.71215767,1
3848000,3848000,0.7018785,-0.000315889,-0.000602711,0.7122964,0.7020195,1.5747183e-11,-2.5060624e-11,0.71215767,1
3860000,3860000,0.7018936,-0.00032664096,-0.0005484174,0.7122815,0.7020195,1.5747183e-11,-2.5060624e-11,0.71215767,1
3868000,3868000,0.7019103,-0.0003036851,-0.0005528714,0.71226513,0.7020195,1.5747183e-11,-2.5060624e-11,0.71215767,1
3880000,3880000,0.70189655,-0.00023284536,-0.0005064494,0.7122787,0.7020195,1.5747183e-11,-2.5060624e-11,0.71215767,1
3888000,3888000,0.70189166,-0.00022008935,-0.0005105716,0.71228355,0.7020195,1.5747183e-11,-2.5060624e-11,0.71215767,1
3900000,3900000,0.701825,-0.0001850435,-0.0005507682,0.7123491,0.7020195,1.5747183e-11,-2.5060624e-11,0.71215767,1
3908000,3908000,0.70181453,-0.00019050017,-0.0005877737,0.7123594,0.7020195,1.5747183e-11,-2.5060624e-11,0.71215767,1
3920000,3920000,0.7018146,-0.00018677227,-0.00059258816,0.7123594,0.7020195,1.5747183e-11,-2.5060624e-11,0.71215767,1
3928000,3928000,0.70184743,-0.00012638385,-0.00058680825,0.71232706,0.7020195,1.5747183e-11,-2.5060624e-11,0.71215767,1
3940000,3940000,0.70179504,-0.00018458645,-0.00059801136,0.7123787,0.7020195,1.5747183e-11,-2.5060624e-11,0.71215767,1
3948000,3948000,0.7018112,-0.00018889828,-0.0006302288,0.7123628,0.7020195,1.5747183e-11,-2.5060624e-11,0.71215767,1
3960000,3960000,0.701827,-0.00018788966,-0.000671503,0.7123471,0.7020195,1.5747183e-11,-2.5060624e-11,0.71215767,1
3968000,3968000,0.7018164,-0.00023665628,-0.00065117027,0.7123576,0.7020195,1.5747183e-11,-2.5060624e-11,0.71215767,1
3980000,3980000,0.70177007,-0.00021935772,-0.0007401864,0.7124032,0.7020195,1.5747183e-11,-2.5060624e-11,0.71215767,1
3988000,3988000,0.7017762,-0.0002555144,-0.0007630581,0.71239704,0.7020195,1.5747183e-11,-2.5060624e-11,0.71215767,1
4000000,4000000,0.7017442,-0.00028027192,-0.0007652191,0.7124286,0.7020195,1.5747183e-11,-2.5060624e-11,0.71215767,1
4008000,4008000,0.701712,-0.0002902492,-0.00078712136,0.7124602,0.7020195,1.5747183e-11,-2.5060624e-11,0.71215767,1
4020000,4020000,0.7017118,-0.00028723432,-0.0008265426,0.71246046,0.7020195,1.5747183e-11,-2.5060624e-11,0.71215767,1
4028000,4028000,0.701722,-0.00030405278,-0.00084778847,0.7124504,0.7020195,1.5747183e-11,-2.5060624e-11,0.71215767,1
4040000,4040000,0.70168966,-0.00035053832,-0.0008232382,0.71248215,0.7020195,1.5747183e-11,-2.5060624e-11,0.71215767,1
4048000,4048000,0.7016801,-0.0003846867,-0.0008226085,0.7124915,0.7020195,1.5747183e-11,-2.5060624e-11,0.71215767,1
4060000,4060000,0.7017362,-0.00038601362,-0.0008562963,0.71243626,0.7020195,1.5747183e-11,-2.5060624e-11,0.71215767,1
4068000,4068000,0.7017409,-0.00041220663,-0.0008673683,0.71243167,0.7020195,1.5747183e-11,-2.5060624e-11,0.71215767,1
4080000,4080000,0.7017413,-0.00045585114,-0.00092016015,0.71243113,0.7020195,1.5747183e-11,-2.5060624e-11,0.71215767,1
4088000,4088000,0.7017369,-0.00047549832,-0.0009550196,0.71243536,0.7020195,1.5747183e-11,-2.5060624e-11,0.71215767,1
4100000,4100000,0.7017743,-0.0005159807,-0.00095280574,0.7123986,0.7020195,1.5747183e-11,-2.5060624e-11,0.71215767,1
4108000,4108000,0.7018156,-0.0005429032,-0.0009626635,0.7123579,0.7020195,1.5747183e-11,-2.5060624e-11,0.71215767,1
4120000,4120000,0.701848,-0.00061418896,-0.0010235539,0.7123258,0.7020195,1.5747183e-11,-2.5060624e-11,0.71215767,1
4128000,4128000,0.7018362,-0.0006527359,-0.0010665817,0.71233726,0.7020195,1.5747183e-11,-2.5060624e-11,0.71215767,1
4140000,4140000,0.7018529,-0.0007217776,-0.0010879677,0.71232074,0.7020195,1.5747183e-11,-2.5060624e-11,0.71215767,1
4148000,4148000,0.7018445,-0.0007750612,-0.0011273067,0.7123289,0.7020195,1.5747183e-11,-2.5060624e-11,0.71215767,1
4160000,4160000,0.7018501,-0.0008219131,-0.001171255,0.7123232,0.7020195,1.5747183e-11,-2.5060624e-11,0.71215767,1
4168000,4168000,0.70188564,-0.00082799996,-0.00113603,0.71228826,0.7020195,1.5747183e-11,-2.5060624e-11,0.71215767,1
4180000,4180000,0.70187396,-0.0008454797,-0.0012346752,0.7122996,0.7020195,1.5747183e-11,-2.5060624e-11,0.71215767,1
4188000,4188000,0.7018758,-0.0008247252,-0.0012097824,0.71229786,0.7020195,1.5747183e-11,-2.5060624e-11,0.71215767,1
4200000,4200000,0.7018604,-0.00074127736,-0.0012641718,0.71231306,0.7020195,1.5747183e-11,-2.5060624e-11,0.71215767,1
4208000,4208000,0.7018579,-0.0007911914,-0.0012441727,0.71231544,0.7020195,1.5747183e-11,-2.5060624e-11,0.71215767,1
4220000,4220000,0.70183635,-0.00074588606,-0.0012568975,0.7123368,0.7020195,1.5747183e-11,-2.5060624e-11,0.71215767,1
4228000,4228000,0.7018169,-0.0008081451,-0.0012699531,0.71235585,0.7020195,1.5747183e-11,-2.5060624e-11,0.71215767,1
4240000,4240000,0.70181894,-0.0007995119,-0.001292018,0.7123538,0.7020195,1.5747183e-11,-2.5060624e-11,0.71215767,1
4248000,4248000,0.7018349,-0.0008193351,-0.0012948541,0.71233803,0.7020195,1.5747183e-11,-2.5060624e-11,0.71215767,1
4260000,4260000,0.70184416,-0.00081241474,-0.0012984078,0.7123289,0.7020195,1.5747183e-11,-2.5060624e-11,0.71215767,1
4268000,4268000,0.70184815,-0.0008316349,-0.001346288,0.7123249,0.7020195,1.5747183e-11,-2.5060624e-11,0.71215767,1
4280000,4280000,0.70184183,-0.00081879017,-0.0013136743,0.7123312,0.7020195,1.5747183e-11,-2.5060624e-11,0.71215767,1
4288000,4288000,0.70184916,-0.00080600166,-0.0013178994,0.71232396,0.7020195,1.5747183e-11,-2.5060624e-11,0.71215767,1
4300000,4300000,0.70185786,-0.000826802,-0.0013190733,0.7123154,0.7020195,1.5747183e-11,-2.5060624e-11,0.71215767,1
4308000,4308000,0.7018665,-0.00084254507,-0.0013448958,0.71230674,0.7020195,1.5747183e-11,-2.5060624e-11,0.71215767,1
4320000,4320000,0.7018449,-0.0008426658,-0.0013798365,0.712328,0.7020195,1.5747183e-11,-2.5060624e-11,0.71215767,1
4328000,4328000,0.7018204,-0.0008919328,-0.0013363722,0.7123522,0.7020195,1.5747183e-11,-2.5060624e-11,0.71215767,1
4340000,4340000,0.70181787,-0.00091831875,-0.0013129552,0.7123547,0.7020195,1.5747183e-11,-2.5060624e-11,0.71215767,1
4348000,4348000,0.70178753,-0.0009186845,-0.0013412263,0.71238446,0.7020195,1.5747183e-11,-2.5060624e-11,0.71215767,1
4360000,4360000,0.7017848,-0.0009135578,-0.0014628855,0.71238697,0.7020195,1.5747183e-11,-2.5060624e-11,0.71215767,1
4368000,4368000,0.7017874,-0.00091627875,-0.0015090707,0.7123843,0.7020195,1.5747183e-11,-2.5060624e-11,0.71215767,1
4380000,4380000,0.7017542,-0.00093819894,-0.0015887012,0.71241677,0.7020195,1.5747183e-11,-2.5060624e-11,0.71215767,1
4388000,4388000,0.70176953,-0.0009454348,-0.0016113877,0.7124016,0.7020195,1.5747183e-11,-2.5060624e-11,0.71215767,1
4400000,4400000,0.7017178,-0.0009932474,-0.0016147023,0.7124526,0.7020195,1.5747183e-11,-2.5060624e-11,0.71215767,1
4408000,4408000,0.7016859,-0.0009910143,-0.0016434896,0.7124839,0.7020195,1.5747183e-11,-2.5060624e-11,0.71215767,1
4420000,4420000,0.7017214,-0.0009917524,-0.00162125,0.712449,0.7020195,1.5747183e-11,-2.5060624e-11,0.71215767,1
4428000,4428000,0.70172113,-0.0010002466,-0.0016086005,0.71244925,0.7020195,1.5747183e-11,-2.5060624e-11,0.71215767,1
4440000,4440000,0.70167977,-0.0010559376,-0.001611825,0.71248996,0.7020195,1.5747183e-11,-2.5060624e-11,0.71215767,1
4448000,4448000,0.701664,-0.0010692165,-0.0015906636,0.7125055,0.7020195,1.5747183e-11,-2.5060624e-11,0.71215767,1
4460000,4460000,0.7016627,-0.0010917766,-0.0015881798,0.71250665,0.7020195,1.5747183e-11,-2.5060624e-11,0.71215767,1
4468000,4468000,0.7016593,-0.0010668181,-0.0016420021,0.71251,0.7020195,1.5747183e-11,-2.5060624e-11,0.71215767,1
4480000,4480000,0.70170444,-0.0010133482,-0.0017065732,0.71246547,0.7020195,1.5747183e-11,-2.5060624e-11,0.71215767,1
4488000,4488000,0.70171857,-0.0010522314,-0.0017394033,0.7124514,0.7020195,1.5747183e-11,-2.5060624e-11,0.71215767,1
4500000,4500000,0.7017267,-0.0010887826,-0.0017538859,0.71244335,0.7020195,1.5747183e-11,-2.5060624e-11,0.71215767,1
4508000,4508000,0.70174915,-0.0010684883,-0.0017538957,0.7124212,0.7020195,1.5747183e-11,-2.5060624e-11,0.71215767,1
4520000,4520000,0.70177716,-0.0010197178,-0.0017620454,0.71239364,0.7020195,1.5747183e-11,-2.5060624e-11,0.71215767,1
4528000,4528000,0.7017769,-0.0009854282,-0.0017876687,0.7123939,0.7020195,1.5747183e-11,-2.5060624e-11,0.71215767,1
4540000,4540000,0.7017749,-0.00095322146,-0.001843804,0.7123958,0.7020195,1.5747183e-11,-2.5060624e-11,0.71215767,1
4548000,4548000,0.70177263,-0.0009006046,-0.0018284378,0.7123981,0.7020195,1.5747183e-11,-2.5060624e-11,0.71215767,1
4560000,4560000,0.7018047,-0.00081017584,-0.0018446741,0.71236664,0.7020195,1.5747183e-11,-2.5060624e-11,0.71215767,1
4568000,4568000,0.70184153,-0.000785498,-0.0018390886,0.71233034,0.7020195,1.5747183e-11,-2.5060624e-11,0.71215767,1
4580000,4580000,0.7018402,-0.00074557663,-0.001835588,0.7123317,0.7020195,1.5747183e-11,-2.5060624e-11,0.71215767,1
4588000,4588000,0.70186764,-0.00073000055,-0.0018562818,0.71230465,0.7020195,1.5747183e-11,-2.5060624e-11,0.71215767,1
4600000,4600000,0.7018581,-0.0006906762,-0.0018986729,0.71231395,0.7020195,1.5747183e-11,-2.5060624e-11,0.71215767,1
4608000,4608000,0.7018524,-0.0006588308,-0.0019279942,0.7123195,0.7020195,1.5747183e-11,-2.5060624e-11,0.71215767,1
4620000,4620000,0.7018474,-0.0007067517,-0.0018994046,0.7123245,0.7020195,1.5747183e-11,-2.5060624e-11,0.71215767,1
4628000,4628000,0.7018626,-0.00071419094,-0.0018848024,0.7123096,0.7020195,1.5747183e-11,-2.5060624e-11,0.71215767,1
4640000,4640000,0.7018903,-0.0007400664,-0.001895186,0.7122822,0.7020195,1.5747183e-11,-2.5060624e-11,0.71215767,1
4648000,4648000,0.7019287,-0.0007494476,-0.0018974276,0.71224433,0.7020195,1.5747183e-11,-2.5060624e-11,0.71215767,1
4660000,4660000,0.70194995,-0.0007700826,-0.0018787804,0.7122235,0.7020195,1.5747183e-11,-2.5060624e-11,0.71215767,1
4668000,4668000,0.70196354,-0.000807821,-0.0019108399,0.71220994,0.7020195,1.5747183e-11,-2.5060624e-11,0.71215767,1
4680000,4680000,0.7019742,-0.0007713372,-0.0019606974,0.7121993,0.7020195,1.5747183e-11,-2.5060624e-11,0.71215767,1
4688000,4688000,0.7019701,-0.0007920803,-0.0019902568,0.71220326,0.7020195,1.5747183e-11,-2.5060624e-11,0.71215767,1
4700000,4700000,0.70204026,-0.0007245613,-0.0020117897,0.712134,0.7020195,1.5747183e-11,-2.5060624e-11,0.71215767,1
4708000,4708000,0.7020789,-0.0008072845,-0.0020304492,0.7120959,0.7020195,1.5747183e-11,-2.5060624e-11,0.71215767,1
4720000,4720000,0.70207655,-0.00077938894,-0.001999922,0.71209824,0.7020195,1.5747183e-11,-2.5060624e-11,0.71215767,1
4728000,4728000,0.7020869,-0.00079575134,-0.0020425618,0.71208787,0.7020195,1.5747183e-11,-2.5060624e-11,0.71215767,1
4740000,4740000,0.70207256,-0.0007948668,-0.0020474892,0.7121021,0.7020195,1.5747183e-11,-2.5060624e-11,0.71215767,1
4748000,4748000,0.7020538,-0.0008266864,-0.0020559484,0.7121205,0.7020195,1.5747183e-11,-2.5060624e-11,0.71215767,1
4760000,4760000,0.70206696,-0.000790209,-0.0020819851,0.71210754,0.7020195,1.5747183e-11,-2.5060624e-11,0.71215767,1
4768000,4768000,0.7020486,-0.0007433938,-0.0020842904,0.7121256,0.7020195,1.5747183e-11,-2.5060624e-11,0.71215767,1
4780000,4780000,0.7020187,-0.00078390585,-0.0020757955,0.71215516,0.7020195,1.5747183e-11,-2.5060624e-11,0.71215767,1
4788000,4788000,0.7020169,-0.00078516884,-0.0020550475,0.71215695,0.7020195,1.5747183e-11,-2.5060624e-11,0.71215767,1
4800000,4800000,0.70203805,-0.0007554337,-0.0020265772,0.7121362,0.7020195,1.5747183e-11,-2.5060624e-11,0.71215767,1
4808000,4808000,0.70201063,-0.0007308624,-0.0020138284,0.7121633,0.7020195,1.5747183e-11,-2.5060624e-11,0.71215767,1
4820000,4820000,0.70198375,-0.000630838,-0.002016529,0.7121899,0.7020195,1.5747183e-11,-2.5060624e-11,0.71215767,1
4828000,4828000,0.70197415,-0.0005715175,-0.0019785976,0.7121995,0.7020195,1.5747183e-11,-2.5060624e-11,0.71215767,1
4840000,4840000,0.701988,-0.0006239819,-0.0019188888,0.712186,0.7020195,1.5747183e-11,-2.5060624e-11,0.71215767,1
4848000,4848000,0.7020198,-0.0006160501,-0.0019374634,0.71215457,0.7020195,1.5747183e-11,-2.5060624e-11,0.71215767,1
4860000,4860000,0.7019817,-0.0005975881,-0.0019345124,0.7121922,0.7020195,1.5747183e-11,-2.5060624e-11,0.71215767,1
4868000,4868000,0.7019998,-0.0006048301,-0.0019153777,0.71217436,0.7020195,1.5747183e-11,-2.5060624e-11,0.71215767,1
4880000,4880000,0.70202905,-0.00058845954,-0.001892097,0.7121456,0.7020195,1.5747183e-11,-2.5060624e-11,0.71215767,1
4888000,4888000,0.70203865,-0.0006110203,-0.0019165918,0.71213603,0.7020195,1.5747183e-11,-2.5060624e-11,0.71215767,1
4900000,4900000,0.7020534,-0.0006023979,-0.0019049775,0.7121215,0.7020195,1.5747183e-11,-2.5060624e-11,0.71215767,1
4908000,4908000,0.702054,-0.000654017,-0.0018944546,0.71212095,0.7020195,1.5747183e-11,-2.5060624e-11,0.71215767,1
4920000,4920000,0.70204455,-0.0006848685,-0.0018752462,0.7121303,0.7020195,1.5747183e-11,-2.5060624e-11,0.71215767,1
4928000,4928000,0.702069,-0.00063641154,-0.0018517678,0.7121063,0.7020195,1.5747183e-11,-2.5060624e-11,0.71215767,1
4940000,4940000,0.7021308,-0.0006623558,-0.0018234006,0.7120454,0.7020195,1.5747183e-11,-2.5060624e-11,0.71215767,1
4948000,4948000,0.7021493,-0.00065147574,-0.0018233834,0.71202713,0.7020195,1.5747183e-11,-2.5060624e-11,0.71215767,1
4960000,4960000,0.7022099,-0.00060216826,-0.0018249227,0.71196747,0.7020195,1.5747183e-11,-2.5060624e-11,0.71215767,1
4968000,4968000,0.70226026,-0.0006738025,-0.0018455033,0.7119177,0.7020195,1.5747183e-11,-2.5060624e-11,0.71215767,1
4980000,4980000,0.7023129,-0.00077345775,-0.0018703274,0.7118656,0.7020195,1.5747183e-11,-2.5060624e-11,0.71215767,1
4988000,4988000,0.702333,-0.0008458595,-0.0018465956,0.71184576,0.7020195,1.5747183e-11,-2.5060624e-11,0.71215767,1
5000000,5000000,0.70232546,-0.00082587625,-0.0018602712,0.71185315,0.7020195,1.5747183e-11,-2.5060624e-11,0.71215767,1
5008000,5008000,0.7023824,-0.00088493834,-0.001870735,0.71179694,0.7020195,1.5747183e-11,-2.5060624e-11,0.71215767,1
5020000,5020000,0.70237386,-0.000892064,-0.0018210352,0.7118054,0.7020195,1.5747183e-11,-2.5060624e-11,0.71215767,1
5028000,5028000,0.7023593,-0.0008992837,-0.00179614,0.7118198,0.7020195,1.5747183e-11,-2.5060624e-11,0.71215767,1
5040000,5040000,0.70234525,-0.0008235327,-0.0018025849,0.7118338,0.7020195,1.5747183e-11,-2.5060624e-11,0.71215767,1
5048000,5048000,0.7023532,-0.00083718,-0.0018335914,0.71182585,0.7020195,1.5747183e-11,-2.5060624e-11,0.71215767,1
5060000,5060000,0.7023756,-0.0008565801,-0.0017744864,0.7118038,0.7020195,1.5747183e-11,-2.5060624e-11,0.71215767,1
5068000,5068000,0.70235807,-0.00087123655,-0.0017305929,0.71182126,0.7020195,1.5747183e-11,-2.5060624e-11,0.71215767,1
5080000,5080000,0.70233697,-0.00088900496,-0.0018098127,0.7118418,0.7020195,1.5747183e-11,-2.5060624e-11,0.71215767,1
5088000,5088000,0.7023632,-0.0009188621,-0.0017951268,0.71181595,0.7020195,1.5747183e-11,-2.5060624e-11,0.71215767,1
5100000,5100000,0.7023339,-0.0009244036,-0.0017717793,0.7118448,0.7020195,1.5747183e-11,-2.5060624e-11,0.71215767,1
5108000,5108000,0.70233166,-0.0009523639,-0.001778521,0.711847,0.7020195,1.5747183e-11,-2.5060624e-11,0.71215767,1
5120000,5120000,0.7023443,-0.00090171804,-0.001751964,0.7118347,0.7020195,1.5747183e-11,-2.5060624e-11,0.71215767,1
5128000,5128000,0.70236415,-0.0008822212,-0.001728005,0.7118152,0.7020195,1.5747183e-11,-2.5060624e-11,0.71215767,1
5140000,5140000,0.70241374,-0.00087761023,-0.0017049125,0.7117663,0.7020195,1.5747183e-11,-2.5060624e-11,0.71215767,1
5148000,5148000,0.7024334,-0.00089484,-0.001688454,0.71174693,0.7020195,1.5747183e-11,-2.5060624e-11,0.71215767,1
5160000,5160000,0.70243317,-0.00089077675,-0.0017378255,0.71174705,0.7020195,1.5747183e-11,-2.5060624e-11,0.71215767,1
5168000,5168000,0.7024301,-0.0008541358,-0.0017116043,0.71175015,0.7020195,1.5747183e-11,-2.5060624e-11,0.71215767,1
5180000,5180000,0.7024109,-0.00077302573,-0.0016625739,0.7117694,0.7020195,1.5747183e-11,-2.5060624e-11,0.71215767,1
5188000,5188000,0.70244396,-0.00075987604,-0.0016462548,0.71173686,0.7020195,1.5747183e-11,-2.5060624e-11,0.71215767,1
5200000,5200000,0.7024483,-0.0007320584,-0.0016573938,0.7117325,0.7020195,1.5747183e-11,-2.5060624e-11,0.71215767,1
5208000,5208000,0.7024333,-0.0007113803,-0.0016464622,0.71174735,0.7020195,1.5747183e-11,-2.5060624e-11,0.71215767,1
5220000,5220000,0.7024187,-0.0006835425,-0.0015961647,0.7117619,0.7020195,1.5747183e-11,-2.5060624e-11,0.71215767,1
5228000,5228000,0.70241904,-0.0006337013,-0.0015976168,0.71176165,0.7020195,1.5747183e-11,-2.5060624e-11,0.71215767,1
5240000,5240000,0.7024046,-0.0005952512,-0.001581948,0.7117759,0.7020195,1.5747183e-11,-2.5060624e-11,0.71215767,1
5248000,5248000,0.70243496,-0.0005818854,-0.0016100759,0.711746,0.7020195,1.5747183e-11,-2.5060624e-11,0.71215767,1
5260000,5260000,0.7024338,-0.000541193,-0.0015404514,0.7117472,0.7020195,1.5747183e-11,-2.5060624e-11,0.71215767,1
5268000,5268000,0.70244426,-0.0005688358,-0.001522857,0.711737,0.7020195,1.5747183e-11,-2.5060624e-11,0.71215767,1
5280000,5280000,0.7024659,-0.0006330914,-0.0015795738,0.71171546,0.7020195,1.5747183e-11,-2.5060624e-11,0.71215767,1
5288000,5288000,0.70248216,-0.00067979883,-0.0015819683,0.7116993,0.7020195,1.5747183e-11,-2.5060624e-11,0.71215767,1
5300000,5300000,0.70246655,-0.0006958499,-0.0015929855,0.71171474,0.7020195,1.5747183e-11,-2.5060624e-11,0.71215767,1
5308000,5308000,0.70243126,-0.00067138445,-0.0016116302,0.71174943,0.7020195,1.5747183e-11,-2.5060624e-11,0.71215767,1
5320000,5320000,0.70239276,-0.0006248765,-0.001644889,0.71178746,0.7020195,1.5747183e-11,-2.5060624e-11,0.71215767,1
5328000,5328000,0.70236456,-0.00059032755,-0.0016061417,0.7118153,0.7020195,1.5747183e-11,-2.5060624e-11,0.71215767,1
5340000,5340000,0.7023579,-0.0006098607,-0.0016375593,0.7118219,0.7020195,1.5747183e-11,-2.5060624e-11,0.71215767,1
5348000,5348000,0.7023409,-0.00062768144,-0.0016676032,0.71183854,0.7020195,1.5747183e-11,-2.5060624e-11,0.71215767,1
5360000,5360000,0.7023739,-0.00063162274,-0.001601165,0.7118061,0.7020195,1.5747183e-11,-2.5060624e-11,0.71215767,1
5368000,5368000,0.70238185,-0.00061694393,-0.0015819111,0.7117983,0.7020195,1.5747183e-11,-2.5060624e-11,0.71215767,1
5380000,5380000,0.70235837,-0.0006301098,-0.0015869769,0.7118215,0.7020195,1.5747183e-11,-2.5060624e-11,0.71215767,1
5388000,5388000,0.70234925,-0.00062857865,-0.0015441923,0.7118307,0.7020195,1.5747183e-11,-2.5060624e-11,0.71215767,1
5400000,5400000,0.7023445,-0.00063337525,-0.0014935574,0.7118355,0.7020195,1.5747183e-11,-2.5060624e-11,0.71215767,1
5408000,5408000,0.7023368,-0.00062660157,-0.0014511487,0.71184313,0.7020195,1.5747183e-11,-2.5060624e-11,0.71215767,1
5420000,5420000,0.7022941,-0.00061579625,-0.0014943789,0.71188515,0.7020195,1.5747183e-11,-2.5060624e-11,0.71215767,1
5428000,5428000,0.7022654,-0.000574454,-0.0015180719,0.7119134,0.7020195,1.5747183e-11,-2.5060624e-11,0.71215767,1
5440000,5440000,0.7021847,-0.0005675443,-0.001486719,0.7119931,0.7020195,1.5747183e-11,-2.5060624e-11,0.71215767,1
5448000,5448000,0.70216024,-0.0005722299,-0.0015111365,0.7120172,0.7020195,1.5747183e-11,-2.5060624e-11,0.71215767,1
5460000,5460000,0.70210177,-0.00052906986,-0.0015421542,0.71207476,0.7020195,1.5747183e-11,-2.5060624e-11,0.71215767,1
5468000,5468000,0.70208126,-0.0005411648,-0.0015440156,0.71209496,0.7020195,1.5747183e-11,-2.5060624e-11,0.71215767,1
5480000,5480000,0.7019985,-0.0004991547,-0.0015673611,0.71217656,0.7020195,1.5747183e-11,-2.5060624e-11,0.71215767,1
5488000,5488000,0.7019945,-0.00052006246,-0.0015571915,0.71218055,0.7020195,1.5747183e-11,-2.5060624e-11,0.71215767,1
5500000,5500000,0.70197856,-0.0005145837,-0.0015612151,0.7121962,0.7020195,1.5747183e-11,-2.5060624e-11,0.71215767,1
5508000,5508000,0.70195574,-0.0005154795,-0.0015764001,0.71221876,0.7020195,1.5747183e-11,-2.5060624e-11,0.71215767,1
5520000,5520000,0.70186186,-0.00050230185,-0.0015590219,0.7123112,0.7020195,1.5747183e-11,-2.5060624e-11,0.71215767,1
5528000,5528000,0.7018173,-0.00042794136,-0.0015777354,0.71235514,0.7020195,1.5747183e-11,-2.5060624e-11,0.71215767,1
5540000,5540000,0.7018481,-0.00038189586,-0.0016265085,0.7123248,0.7020195,1.5747183e-11,-2.5060624e-11,0.71215767,1
5548000,5548000,0.70180625,-0.0004030975,-0.001663589,0.71236587,0.7020195,1.5747183e-11,-2.5060624e-11,0.71215767,1
5560000,5560000,0.70178246,-0.0004409059,-0.001691738,0.71238923,0.7020195,1.5747183e-11,-2.5060624e-11,0.71215767,1
5568000,5568000,0.7017621,-0.00048929127,-0.0016849173,0.71240926,0.7020195,1.5747183e-11,-2.5060624e-11,0.71215767,1
5580000,5580000,0.701835,-0.00048274064,-0.0016597642,0.7123375,0.7020195,1.5747183e-11,-2.5060624e-11,0.71215767,1
5588000,5588000,0.70181555,-0.0004813146,-0.0016618178,0.71235657,0.7020195,1.5747183e-11,-2.5060624e-11,0.71215767,1
5600000,5600000,0.7017921,-0.0005342288,-0.0016348134,0.7123797,0.7020195,1.5747183e-11,-2.5060624e-11,0.71215767,1
5608000,5608000,0.70176214,-0.0005626554,-0.0016696319,0.71240914,0.7020195,1.5747183e-11,-2.5060624e-11,0.71215767,1
5620000,5620000,0.70170337,-0.0005573319,-0.0016497615,0.71246713,0.7020195,1.5747183e-11,-2.5060624e-11,0.71215767,1
5628000,5628000,0.701659,-0.0005769103,-0.0016514688,0.71251076,0.7020195,1.5747183e-11,-2.5060624e-11,0.71215767,1
5640000,5640000,0.7016273,-0.00062591565,-0.0015824238,0.7125421,0.7020195,1.5747183e-11,-2.5060624e-11,0.71215767,1
5648000,5648000,0.7015909,-0.0006719765,-0.0015209639,0.71257806,0.7020195,1.5747183e-11,-2.5060624e-11,0.71215767,1
5660000,5660000,0.70164794,-0.0006575576,-0.0015308115,0.7125219,0.7020195,1.5747183e-11,-2.5060624e-11,0.71215767,1
5668000,5668000,0.7016517,-0.0006102853,-0.001526688,0.7125182,0.7020195,1.5747183e-11,-2.5060624e-11,0.71215767,1
5680000,5680000,0.7016744,-0.0006447853,-0.0014914502,0.7124959,0.7020195,1.5747183e-11,-2.5060624e-11,0.71215767,1
5688000,5688000,0.7016858,-0.0005978098,-0.0014225304,0.7124849,0.7020195,1.5747183e-11,-2.5060624e-11,0.71215767,1
5700000,5700000,0.701685,-0.00047907047,-0.0013753212,0.7124858,0.7020195,1.5747183e-11,-2.5060624e-11,0.71215767,1
5708000,5708000,0.7017406,-0.00039698457,-0.0013772711,0.71243113,0.7020195,1.5747183e-11,-2.5060624e-11,0.71215767,1
5720000,5720000,0.70175105,-0.00041925788,-0.0013398527,0.71242094,0.7020195,1.5747183e-11,-2.5060624e-11,0.71215767,1
5728000,5728000,0.70176184,-0.0004155264,-0.0013295055,0.71241033,0.7020195,1.5747183e-11,-2.5060624e-11,0.71215767,1
5740000,5740000,0.7017641,-0.0003867534,-0.0012168654,0.71240824,0.7020195,1.5747183e-11,-2.5060624e-11,0.71215767,1
5748000,5748000,0.7017734,-0.0003670391,-0.0012063087,0.7123991,0.7020195,1.5747183e-11,-2.5060624e-11,0.71215767,1
5760000,5760000,0.70177746,-0.00033538812,-0.00117667,0.71239525,0.7020195,1.5747183e-11,-2.5060624e-11,0.71215767,1
5768000,5768000,0.7017917,-0.00029104817,-0.0011237684,0.7123813,0.7020195,1.5747183e-11,-2.5060624e-11,0.71215767,1
5780000,5780000,0.70178175,-0.00029950772,-0.0011421001,0.71239114,0.7020195,1.5747183e-11,-2.5060624e-11,0.71215767,1
5788000,5788000,0.7017735,-0.00030904135,-0.0011643493,0.7123991,0.7020195,1.5747183e-11,-2.5060624e-11,0.71215767,1
5800000,5800000,0.70177245,-0.00027622908,-0.0011446135,0.71240026,0.7020195,1.5747183e-11,-2.5060624e-11,0.71215767,1
5808000,5808000,0.7017806,-0.00021602833,-0.0011021827,0.7123923,0.7020195,1.5747183e-11,-2.5060624e-11,0.71215767,1
5820000,5820000,0.70178473,-0.000165613,-0.0010721701,0.71238834,0.7020195,1.5747183e-11,-2.5060624e-11,0.71215767,1
5828000,5828000,0.7018204,-0.00018098784,-0.0010746137,0.7123531,0.7020195,1.5747183e-11,-2.5060624e-11,0.71215767,1
5840000,5840000,0.7018548,-0.00030100215,-0.0010582487,0.7123192,0.7020195,1.5747183e-11,-2.5060624e-11,0.71215767,1
5848000,5848000,0.7018941,-0.00029339944,-0.0010411576,0.7122805,0.7020195,1.5747183e-11,-2.5060624e-11,0.71215767,1
5860000,5860000,0.7018532,-0.00026267194,-0.0009983577,0.7123209,0.7020195,1.5747183e-11,-2.5060624e-11,0.71215767,1
5868000,5868000,0.70182425,-0.00027865727,-0.0009921534,0.7123495,0.7020195,1.5747183e-11,-2.5060624e-11,0.71215767,1
5880000,5880000,0.70184463,-0.00030535288,-0.0010046742,0.7123294,0.7020195,1.5747183e-11,-2.5060624e-11,0.71215767,1
5888000,5888000,0.7018263,-0.00031904096,-0.0009786667,0.71234745,0.7020195,1.5747183e-11,-2.5060624e-11,0.71215767,1
5900000,5900000,0.7019012,-0.0003347774,-0.00092924724,0.71227366,0.7020195,1.5747183e-11,-2.5060624e-11,0.71215767,1
5908000,5908000,0.7019198,-0.00033624686,-0.00094550045,0.7122553,0.7020195,1.5747183e-11,-2.5060624e-11,0.71215767,1
5920000,5920000,0.70191205,-0.0003388243,-0.0008469077,0.7122631,0.7020195,1.5747183e-11,-2.5060624e-11,0.71215767,1
5928000,5928000,0.7019393,-0.000311658,-0.00079851854,0.71223634,0.7020195,1.5747183e-11,-2.5060624e-11,0.71215767,1
5940000,5940000,0.7019223,-0.00037194943,-0.00075256586,0.71225303,0.7020195,1.5747183e-11,-2.5060624e-11,0.71215767,1
5948000,5948000,0.70194036,-0.0003864081,-0.0007184215,0.7122353,0.7020195,1.5747183e-11,-2.5060624e-11,0.71215767,1
5960000,5960000,0.7019785,-0.00041525465,-0.0007236965,0.71219766,0.7020195,1.5747183e-11,-2.5060624e-11,0.71215767,1
5968000,5968000,0.7020072,-0.00038877805,-0.000690082,0.7121694,0.7020195,1.5747183e-11,-2.5060624e-11,0.71215767,1
5980000,5980000,0.70203346,-0.00036237284,-0.00070823944,0.71214354,0.7020195,1.5747183e-11,-2.5060624e-11,0.71215767,1
5988000,5988000,0.7020376,-0.0003411665,-0.00071723235,0.7121395,0.7020195,1.5747183e-11,-2.5060624e-11,0.71215767,1
6000000,6000000,0.7020631,-0.0003880092,-0.00071047357,0.71211433,0.7020195,1.5747183e-11,-2.5060624e-11,0.71215767,1
6008000,6008000,0.7020628,-0.00040005657,-0.0006888263,0.71211463,0.7020195,1.5747183e-11,-2.5060624e-11,0.71215767,1
6020000,6020000,0.70208156,-0.00046292736,-0.0007114092,0.7120961,0.7020195,1.5747183e-11,-2.5060624e-11,0.71215767,1
6028000,6028000,0.7020751,-0.00048501362,-0.00074405957,0.7121024,0.7020195,1.5747183e-11,-2.5060624e-11,0.71215767,1
6040000,6040000,0.7021159,-0.00050747546,-0.00069759676,0.7120622,0.7020195,1.5747183e-11,-2.5060624e-11,0.71215767,1
6048000,6048000,0.7021517,-0.0005304734,-0.00071219873,0.7120269,0.7020195,1.5747183e-11,-2.5060624e-11,0.71215767,1
6060000,6060000,0.70215786,-0.0005745419,-0.000744202,0.71202075,0.7020195,1.5747183e-11,-2.5060624e-11,0.71215767,1
6068000,6068000,0.70215255,-0.00056318165,-0.00075435784,0.71202594,0.7020195,1.5747183e-11,-2.5060624e-11,0.71215767,1
6080000,6080000,0.7021191,-0.00050370104,-0.00077704067,0.71205896,0.7020195,1.5747183e-11,-2.5060624e-11,0.71215767,1
6088000,6088000,0.70215046,-0.0005239949,-0.00080810994,0.712028,0.7020195,1.5747183e-11,-2.5060624e-11,0.71215767,1
6100000,6100000,0.702193,-0.00053413067,-0.00081827806,0.71198595,0.7020195,1.5747183e-11,-2.5060624e-11,0.71215767,1
6108000,6108000,0.7022171,-0.00052499614,-0.00083022873,0.7119622,0.7020195,1.5747183e-11,-2.5060624e-11,0.71215767,1
6120000,6120000,0.702249,-0.00048609317,-0.00081586186,0.7119309,0.7020195,1.5747183e-11,-2.5060624e-11,0.71215767,1
6128000,6128000,0.7022604,-0.00052547624,-0.0008278133,0.71191955,0.7020195,1.5747183e-11,-2.5060624e-11,0.71215767,1
6140000,6140000,0.7021786,-0.0005465365,-0.0008947331,0.71200013,0.7020195,1.5747183e-11,-2.5060624e-11,0.71215767,1
6148000,6148000,0.7021505,-0.00060569454,-0.0008623265,0.71202785,0.7020195,1.5747183e-11,-2.5060624e-11,0.71215767,1
6160000,6160000,0.70211154,-0.0005378064,-0.0008356467,0.71206635,0.7020195,1.5747183e-11,-2.5060624e-11,0.71215767,1
6168000,6168000,0.7021224,-0.0004981934,-0.00083087216,0.7120556,0.7020195,1.5747183e-11,-2.5060624e-11,0.71215767,1
6180000,6180000,0.7022136,-0.000489755,-0.00084800686,0.71196574,0.7020195,1.5747183e-11,-2.5060624e-11,0.71215767,1
6188000,6188000,0.7022251,-0.0005175841,-0.0008624943,0.7119543,0.7020195,1.5747183e-11,-2.5060624e-11,0.71215767,1
6200000,6200000,0.70223457,-0.00049484306,-0.00084712263,0.711945,0.7020195,1.5747183e-11,-2.5060624e-11,0.71215767,1
6208000,6208000,0.7022831,-0.00047940973,-0.00081516587,0.71189713,0.7020195,1.5747183e-11,-2.5060624e-11,0.71215767,1
6220000,6220000,0.70226216,-0.00047201713,-0.0008197792,0.7119178,0.7020195,1.5747183e-11,-2.5060624e-11,0.71215767,1
6228000,6228000,0.70223755,-0.00049539056,-0.0007637407,0.71194226,0.7020195,1.5747183e-11,-2.5060624e-11,0.71215767,1
6240000,6240000,0.7021471,-0.0005107862,-0.00081088097,0.71203136,0.7020195,1.5747183e-11,-2.5060624e-11,0.71215767,1
6248000,6248000,0.7021169,-0.00049937516,-0.00090202474,0.712061,0.7020195,1.5747183e-11,-2.5060624e-11,0.71215767,1
6260000,6260000,0.7020878,-0.0004976515,-0.0009060239,0.7120896,0.7020195,1.5747183e-11,-2.5060624e-11,0.71215767,1
6268000,6268000,0.7020859,-0.00047687892,-0.00089331175,0.7120915,0.7020195,1.5747183e-11,-2.5060624e-11,0.71215767,1
6280000,6280000,0.70211685,-0.0004268452,-0.00090134447,0.7120611,0.7020195,1.5747183e-11,-2.5060624e-11,0.71215767,1
6288000,6288000,0.7021105,-0.00044185045,-0.00090558775,0.71206737,0.7020195,1.5747183e-11,-2.5060624e-11,0.71215767,1
6300000,6300000,0.7020439,-0.00042499462,-0.0009211612,0.712133,0.7020195,1.5747183e-11,-2.5060624e-11,0.71215767,1
6308000,6308000,0.70203924,-0.00041176102,-0.0008888038,0.7121376,0.7020195,1.5747183e-11,-2.5060624e-11,0.71215767,1
6320000,6320000,0.70204306,-0.00041940113,-0.0008940957,0.7121339,0.7020195,1.5747183e-11,-2.5060624e-11,0.71215767,1
6328000,6328000,0.7020433,-0.00040430226,-0.000877402,0.71213365,0.7020195,1.5747183e-11,-2.5060624e-11,0.71215767,1
6340000,6340000,0.7020303,-0.00042199748,-0.0009019991,0.7121464,0.7020195,1.5747183e-11,-2.5060624e-11,0.71215767,1
6348000,6348000,0.701991,-0.00046925567,-0.00093636103,0.7121851,0.7020195,1.5747183e-11,-2.5060624e-11,0.71215767,1
6360000,6360000,0.7019687,-0.0004893897,-0.0010027617,0.7122069,0.7020195,1.5747183e-11,-2.5060624e-11,0.71215767,1
6368000,6368000,0.70197713,-0.000516151,-0.0010238859,0.7121986,0.7020195,1.5747183e-11,-2.5060624e-11,0.71215767,1
6380000,6380000,0.70199376,-0.0005264187,-0.0010237119,0.7121823,0.7020195,1.5747183e-11,-2.5060624e-11,0.71215767,1
6388000,6388000,0.70198905,-0.0005455886,-0.0010287035,0.7121868,0.7020195,1.5747183e-11,-2.5060624e-11,0.71215767,1
6400000,6400000,0.7019847,-0.0005958169,-0.0009907839,0.7121911,0.7020195,1.5747183e-11,-2.5060624e-11,0.71215767,1
6408000,6408000,0.70195454,-0.0006308713,-0.0010185853,0.7122207,0.7020195,1.5747183e-11,-2.5060624e-11,0.71215767,1
6420000,6420000,0.701965,-0.0006307861,-0.00097047904,0.7122106,0.7020195,1.5747183e-11,-2.5060624e-11,0.71215767,1
6428000,6428000,0.70196325,-0.00061586243,-0.00095436204,0.7122123,0.7020195,1.5747183e-11,-2.5060624e-11,0.71215767,1
6440000,6440000,0.70191914,-0.0005885977,-0.00089761155,0.7122559,0.7020195,1.5747183e-11,-2.5060624e-11,0.71215767,1
6448000,6448000,0.7019172,-0.000558181,-0.00087044877,0.7122579,0.7020195,1.5747183e-11,-2.5060624e-11,0.71215767,1
6460000,6460000,0.70192134,-0.00062082964,-0.00081464014,0.7122538,0.7020195,1.5747183e-11,-2.5060624e-11,0.71215767,1
6468000,6468000,0.7019083,-0.00064993487,-0.000820378,0.7122667,0.7020195,1.5747183e-11,-2.5060624e-11,0.71215767,1
6480000,6480000,0.70190054,-0.0006243307,-0.0008614274,0.7122742,0.7020195,1.5747183e-11,-2.5060624e-11,0.71215767,1
6488000,6488000,0.7018893,-0.0006412058,-0.00087507465,0.7122853,0.7020195,1.5747183e-11,-2.5060624e-11,0.71215767,1
6500000,6500000,0.70188755,-0.0006251262,-0.00087620073,0.712287,0.7020195,1.5747183e-11,-2.5060624e-11,0.71215767,1
6508000,6508000,0.701946,-0.00062259834,-0.00089062186,0.7122293,0.7020195,1.5747183e-11,-2.5060624e-11,0.71215767,1
6520000,6520000,0.7019808,-0.0006984954,-0.00091208954,0.71219504,0.7020195,1.5747183e-11,-2.5060624e-11,0.71215767,1
6528000,6528000,0.70197725,-0.0007169223,-0.0008997092,0.7121985,0.7020195,1.5747183e-11,-2.5060624e-11,0.71215767,1
6540000,6540000,0.7019905,-0.0007464467,-0.00092928717,0.7121853,0.7020195,1.5747183e-11,-2.5060624e-11,0.71215767,1
6548000,6548000,0.7019896,-0.0007464818,-0.0009072464,0.7121862,0.7020195,1.5747183e-11,-2.5060624e-11,0.71215767,1
6560000,6560000,0.7020006,-0.0008152721,-0.0009413383,0.71217525,0.7020195,1.5747183e-11,-2.5060624e-11,0.71215767,1
6568000,6568000,0.70198953,-0.00085941324,-0.0009333019,0.71218616,0.7020195,1.5747183e-11,-2.5060624e-11,0.71215767,1
6580000,6580000,0.7020142,-0.0009232937,-0.00089879805,0.71216184,0.7020195,1.5747183e-11,-2.5060624e-11,0.71215767,1
6588000,6588000,0.7020119,-0.00096654834,-0.0008571569,0.71216416,0.7020195,1.5747183e-11,-2.5060624e-11,0.71215767,1
6600000,6600000,0.70205235,-0.0009930563,-0.00084010593,0.71212417,0.7020195,1.5747183e-11,-2.5060624e-11,0.71215767,1
6608000,6608000,0.70206565,-0.0010134248,-0.0009005259,0.71211094,0.7020195,1.5747183e-11,-2.5060624e-11,0.71215767,1
6620000,6620000,0.7020766,-0.0009950923,-0.00091393426,0.7121002,0.7020195,1.5747183e-11,-2.5060624e-11,0.71215767,1
6628000,6628000,0.70208806,-0.0009956264,-0.0009186732,0.7120889,0.7020195,1.5747183e-11,-2.5060624e-11,0.71215767,1
6640000,6640000,0.7021343,-0.000999194,-0.0009401197,0.7120433,0.7020195,1.5747183e-11,-2.5060624e-11,0.71215767,1
6648000,6648000,0.70211697,-0.0010249168,-0.0009196068,0.7120604,0.7020195,1.5747183e-11,-2.5060624e-11,0.71215767,1
6660000,6660000,0.7021196,-0.0010160463,-0.0009239534,0.71205777,0.7020195,1.5747183e-11,-2.5060624e-11,0.71215767,1
6668000,6668000,0.7021269,-0.0010322066,-0.00093717396,0.71205056,0.7020195,1.5747183e-11,-2.5060624e-11,0.71215767,1
6680000,6680000,0.7020825,-0.0010030749,-0.00096425915,0.71209425,0.7020195,1.5747183e-11,-2.5060624e-11,0.71215767,1
6688000,6688000,0.7021031,-0.0010380123,-0.0010004852,0.71207386,0.7020195,1.5747183e-11,-2.5060624e-11,0.71215767,1
6700000,6700000,0.7021442,-0.0011133678,-0.00096406374,0.71203333,0.7020195,1.5747183e-11,-2.5060624e-11,0.71215767,1
6708000,6708000,0.70214164,-0.0011417812,-0.0009869123,0.7120357,0.7020195,1.5747183e-11,-2.5060624e-11,0.71215767,1
6720000,6720000,0.7021659,-0.0010422156,-0.0010061259,0.712012,0.7020195,1.5747183e-11,-2.5060624e-11,0.71215767,1
6728000,6728000,0.7021958,-0.0009879895,-0.0010166906,0.7119825,0.7020195,1.5747183e-11,-2.5060624e-11,0.71215767,1
6740000,6740000,0.70220983,-0.0009070693,-0.0010011055,0.7119688,0.7020195,1.5747183e-11,-2.5060624e-11,0.71215767,1
6748000,6748000,0.702235,-0.000869162,-0.0010230051,0.711944,0.7020195,1.5747183e-11,-2.5060624e-11,0.71215767,1
6760000,6760000,0.7022534,-0.00083579164,-0.0010422623,0.71192586,0.7020195,1.5747183e-11,-2.5060624e-11,0.71215767,1
6768000,6768000,0.70223343,-0.00079782464,-0.0010080984,0.71194565,0.7020195,1.5747183e-11,-2.5060624e-11,0.71215767,1
6780000,6780000,0.7022379,-0.0008181745,-0.001007758,0.7119412,0.7020195,1.5747183e-11,-2.5060624e-11,0.71215767,1
6788000,6788000,0.702245,-0.00084282935,-0.00097360235,0.7119342,0.7020195,1.5747183e-11,-2.5060624e-11,0.71215767,1
6800000,6800000,0.7022705,-0.00081876526,-0.00093761436,0.7119092,0.7020195,1.5747183e-11,-2.5060624e-11,0.71215767,1
6808000,6808000,0.70224965,-0.00085546926,-0.0009286514,0.71192974,0.7020195,1.5747183e-11,-2.5060624e-11,0.71215767,1
6820000,6820000,0.70223886,-0.0008405462,-0.0009149717,0.7119404,0.7020195,1.5747183e-11,-2.5060624e-11,0.71215767,1
6828000,6828000,0.7022557,-0.00081394287,-0.000921709,0.7119238,0.7020195,1.5747183e-11,-2.5060624e-11,0.71215767,1
6840000,6840000,0.7022482,-0.0008758086,-0.000971923,0.71193105,0.7020195,1.5747183e-11,-2.5060624e-11,0.71215767,1
6848000,6848000,0.7022241,-0.0009107474,-0.0010147856,0.71195465,0.7020195,1.5747183e-11,-2.5060624e-11,0.71215767,1
6860000,6860000,0.7021967,-0.0009465922,-0.0010885771,0.71198153,0.7020195,1.5747183e-11,-2.5060624e-11,0.71215767,1
6868000,6868000,0.7021755,-0.0009405097,-0.0010869447,0.71200246,0.7020195,1.5747183e-11,-2.5060624e-11,0.71215767,1
6880000,6880000,0.7021572,-0.0009545334,-0.001065249,0.7120206,0.7020195,1.5747183e-11,-2.5060624e-11,0.71215767,1
6888000,6888000,0.7021504,-0.0009452671,-0.0010431166,0.7120273,0.7020195,1.5747183e-11,-2.5060624e-11,0.71215767,1
6900000,6900000,0.7021176,-0.00087394036,-0.0010768702,0.71205974,0.7020195,1.5747183e-11,-2.5060624e-11,0.71215767,1
6908000,6908000,0.70212424,-0.00087734335,-0.0010829025,0.7120531,0.7020195,1.5747183e-11,-2.5060624e-11,0.71215767,1
6920000,6920000,0.7020958,-0.00083528215,-0.0011136332,0.71208113,0.7020195,1.5747183e-11,-2.5060624e-11,0.71215767,1
6928000,6928000,0.7020641,-0.00084235665,-0.0011395904,0.71211237,0.7020195,1.5747183e-11,-2.5060624e-11,0.71215767,1
6940000,6940000,0.7019903,-0.00083457,-0.001065305,0.71218526,0.7020195,1.5747183e-11,-2.5060624e-11,0.71215767,1
6948000,6948000,0.7019638,-0.0008288525,-0.0010421284,0.71221143,0.7020195,1.5747183e-11,-2.5060624e-11,0.71215767,1
6960000,6960000,0.70196176,-0.0008291939,-0.0010611545,0.7122134,0.7020195,1.5747183e-11,-2.5060624e-11,0.71215767,1
6968000,6968000,0.7019702,-0.0008254074,-0.0010864027,0.712205,0.7020195,1.5747183e-11,-2.5060624e-11,0.71215767,1
6980000,6980000,0.7020053,-0.0008116003,-0.0011440986,0.71217036,0.7020195,1.5747183e-11,-2.5060624e-11,0.71215767,1
6988000,6988000,0.70201194,-0.00077392324,-0.001122261,0.7121639,0.7020195,1.5747183e-11,-2.5060624e-11,0.71215767,1
7000000,7000000,0.70201975,-0.0007622724,-0.0010721144,0.7121563,0.7020195,1.5747183e-11,-2.5060624e-11,0.71215767,1
7008000,7008000,0.70201,-0.00075374835,-0.0010908094,0.71216595,0.7020195,1.5747183e-11,-2.5060624e-11,0.71215767,1
7020000,7020000,0.70199347,-0.0007662801,-0.0010228588,0.7121823,0.7020195,1.5747183e-11,-2.5060624e-11,0.71215767,1
7028000,7028000,0.70197606,-0.0007790649,-0.0010703923,0.7121994,0.7020195,1.5747183e-11,-2.5060624e-11,0.71215767,1
7040000,7040000,0.7020134,-0.00087198435,-0.0010487454,0.71216244,0.7020195,1.5747183e-11,-2.5060624e-11,0.71215767,1
7048000,7048000,0.70205,-0.0008438273,-0.0010219094,0.71212643,0.7020195,1.5747183e-11,-2.5060624e-11,0.71215767,1
7060000,7060000,0.70203406,-0.0008251993,-0.0010578564,0.71214217,0.7020195,1.5747183e-11,-2.5060624e-11,0.71215767,1
7068000,7068000,0.7020075,-0.00084124476,-0.001028291,0.7121684,0.7020195,1.5747183e-11,-2.5060624e-11,0.71215767,1
7080000,7080000,0.7020904,-0.00078922906,-0.0009982581,0.7120867,0.7020195,1.5747183e-11,-2.5060624e-11,0.71215767,1
7088000,7088000,0.70212317,-0.0007466327,-0.0009947504,0.71205443,0.7020195,1.5747183e-11,-2.5060624e-11,0.71215767,1
7100000,7100000,0.7020898,-0.0006937767,-0.00103057,0.71208745,0.7020195,1.5747183e-11,-2.5060624e-11,0.71215767,1
7108000,7108000,0.70203227,-0.00066554395,-0.0010350264,0.7121441,0.7020195,1.5747183e-11,-2.5060624e-11,0.71215767,1
7120000,7120000,0.7020519,-0.0006647803,-0.0010036104,0.71212476,0.7020195,1.5747183e-11,-2.5060624e-11,0.71215767,1
7128000,7128000,0.7020414,-0.0006300554,-0.00094837707,0.71213526,0.7020195,1.5747183e-11,-2.5060624e-11,0.71215767,1
7140000,7140000,0.70201826,-0.00061479304,-0.0009104172,0.7121581,0.7020195,1.5747183e-11,-2.5060624e-11,0.71215767,1
7148000,7148000,0.70199436,-0.0005523449,-0.00092790474,0.71218175,0.7020195,1.5747183e-11,-2.5060624e-11,0.71215767,1
7160000,7160000,0.70196325,-0.0004703163,-0.0009922305,0.7122123,0.7020195,1.5747183e-11,-2.5060624e-11,0.71215767,1
7168000,7168000,0.7019192,-0.00041117452,-0.00093876006,0.71225584,0.7020195,1.5747183e-11,-2.5060624e-11,0.71215767,1
7180000,7180000,0.70193297,-0.0004229361,-0.00090565503,0.71224236,0.7020195,1.5747183e-11,-2.5060624e-11,0.71215767,1
7188000,7188000,0.70192564,-0.00040797755,-0.00091000303,0.71224964,0.7020195,1.5747183e-11,-2.5060624e-11,0.71215767,1
7200000,7200000,0.70188683,-0.00039651274,-0.0009587379,0.7122878,0.7020195,1.5747183e-11,-2.5060624e-11,0.71215767,1
7208000,7208000,0.7018755,-0.00035423855,-0.0009649835,0.7122989,0.7020195,1.5747183e-11,-2.5060624e-11,0.71215767,1
7220000,7220000,0.7018856,-0.0003368668,-0.0010261019,0.712289,0.7020195,1.5747183e-11,-2.5060624e-11,0.71215767,1
7228000,7228000,0.70187753,-0.0003088944,-0.001003671,0.7122969,0.7020195,1.5747183e-11,-2.5060624e-11,0.71215767,1
7240000,7240000,0.70185983,-0.00032597597,-0.0009887596,0.7123143,0.7020195,1.5747183e-11,-2.5060624e-11,0.71215767,1
7248000,7248000,0.701855,-0.00033977776,-0.00095468154,0.7123191,0.7020195,1.5747183e-11,-2.5060624e-11,0.71215767,1
7260000,7260000,0.70181304,-0.00028333935,-0.00093760516,0.71236056,0.7020195,1.5747183e-11,-2.5060624e-11,0.71215767,1
7268000,7268000,0.7018038,-0.00031070333,-0.0009181442,0.7123696,0.7020195,1.5747183e-11,-2.5060624e-11,0.71215767,1
7280000,7280000,0.70184135,-0.00028635975,-0.0008944629,0.7123328,0.7020195,1.5747183e-11,-2.5060624e-11,0.71215767,1
7288000,7288000,0.7018501,-0.00024366466,-0.0009345682,0.7123241,0.7020195,1.5747183e-11,-2.5060624e-11,0.71215767,1
7300000,7300000,0.70185715,-0.00018587302,-0.00097269233,0.7123171,0.7020195,1.5747183e-11,-2.5060624e-11,0.71215767,1
7308000,7308000,0.7018568,-0.00020072317,-0.0009324207,0.71231747,0.7020195,1.5747183e-11,-2.5060624e-11,0.71215767,1
7320000,7320000,0.7018897,-0.0001481168,-0.00089479785,0.7122851,0.7020195,1.5747183e-11,-2.5060624e-11,0.71215767,1
7328000,7328000,0.70191276,-0.00014944847,-0.00086599437,0.71226245,0.7020195,1.5747183e-11,-2.5060624e-11,0.71215767,1
7340000,7340000,0.70194745,-0.00016952668,-0.00086664275,0.7122282,0.7020195,1.5747183e-11,-2.5060624e-11,0.71215767,1
7348000,7348000,0.7019185,-0.00020389589,-0.0008319361,0.71225685,0.7020195,1.5747183e-11,-2.5060624e-11,0.71215767,1
7360000,7360000,0.7018747,-0.00024399484,-0.00079165783,0.7123,0.7020195,1.5747183e-11,-2.5060624e-11,0.71215767,1
