timestamp,accel_device_id,gyro_device_id,accel_clipping[0],accel_clipping[1],accel_clipping[2],gyro_clipping[0],gyro_clipping[1],gyro_clipping[2],accel_error_count,gyro_error_count,accel_rate_hz,gyro_rate_hz,accel_raw_rate_hz,gyro_raw_rate_hz,accel_vibration_metric,gyro_vibration_metric,delta_angle_coning_metric,mean_accel[0],mean_accel[1],mean_accel[2],mean_gyro[0],mean_gyro[1],mean_gyro[2],var_accel[0],var_accel[1],var_accel[2],var_gyro[0],var_gyro[1],var_gyro[2],temperature_accel,temperature_gyro
2036000,1310988,1310988,0,0,0,0,0,0,0,0,250.0,250.0,250.0,250.0,0.09632936,0.009719934,1.3586629e-10,-0.024995467,-0.030837145,-9.796498,0.0050493535,0.0021944446,-2.1305246e-05,0.00785841,0.0062081274,0.004231954,7.385865e-05,0.00010164206,4.96347e-05,11.832729,11.832729
3036000,1310988,1310988,0,0,0,0,0,0,0,0,250.0,250.0,250.0,250.0,0.07676701,0.0101610115,1.0408278e-10,-0.018962078,-0.013503127,-9.784049,-0.0005965483,-0.00074568513,-0.0020240024,0.0036523296,0.0036628197,0.0062080184,0.00018930445,6.846557e-05,5.300407e-05,11.832729,11.832729
4036000,1310988,1310988,0,0,0,0,0,0,0,0,250.0,250.0,250.0,250.0,0.07954365,0.010617501,1.275484e-10,0.015035587,0.036679342,-9.842851,-0.003749731,0.00076699036,0.0027696874,0.0038489443,0.0024675792,0.0069103492,2.7151704e-05,9.6458905e-05,9.6433374e-05,11.832729,11.832729
5036000,1310988,1310988,0,0,0,0,0,0,0,0,250.0,250.0,250.0,250.0,0.07662993,0.010968061,1.6418479e-10,-0.018962078,-0.0059374487,-9.806458,-0.0048363004,-0.0006817692,-0.002066613,0.002966376,0.004876728,0.004283852,0.00012510852,0.000103821796,0.00011308449,11.832729,11.832729
6036000,1310988,1310988,0,0,0,0,0,0,0,0,250.0,250.0,250.0,250.0,0.08358373,0.011091436,1.0531542e-10,-0.0045010988,-0.019728051,-9.81163,-0.00049002183,0.0026631611,-0.003621899,0.004868703,0.005331559,0.009828804,0.00010825219,4.7259207e-05,3.7920847e-05,11.832729,11.832729
7036000,1310988,1310988,0,0,0,0,0,0,0,0,250.0,250.0,250.0,250.0,0.07634167,0.010743969,1.6134484e-10,0.011109097,-0.024899526,-9.765087,-0.0016192019,0.00061785337,-0.000660464,0.003010782,0.0026817152,0.004215515,0.00010065289,0.0001248428,5.296341e-05,11.832729,11.832729
8036000,1310988,1310988,0,0,0,0,0,0,0,0,250.0,250.0,250.0,250.0,0.078457646,0.010930645,1.5809695e-10,-0.018100165,0.008236224,-9.817855,-0.0009374327,0.002045308,-0.006796387,0.003044793,0.0074700527,0.0027011817,0.000110388435,8.992442e-05,5.8519145e-05,11.832729,11.832729
9036000,1310988,1310988,0,0,0,0,0,0,0,0,250.0,250.0,250.0,250.0,0.07510115,0.0106196655,9.539112e-11,-0.027102364,0.004309736,-9.84898,0.0006178533,0.0034301516,-0.003451457,0.0025196467,0.005354832,0.003583467,6.0065293e-05,5.9294583e-05,5.728601e-05,11.832729,11.832729
10036000,1310988,1310988,0,0,0,0,0,0,0,0,250.0,250.0,250.0,250.0,0.079943836,0.010362677,1.3291818e-10,-0.0077572134,0.03323169,-9.824463,-0.0027909928,0.0024288031,-0.00012783162,0.0038120481,0.0064345496,0.0044028605,6.395667e-05,0.00011423725,8.745625e-05,11.832729,11.832729
11036000,1310988,1310988,0,0,0,0,0,0,0,0,250.0,250.0,250.0,250.0,0.082254924,0.010877836,9.7117495e-11,0.0018195927,-0.0069908984,-9.818525,-0.0017896442,-0.0026418557,-0.0053476277,0.0055761333,0.003072422,0.0076718554,4.7516423e-05,5.1809708e-05,6.601821e-05,11.832729,11.832729
12036000,1310988,1310988,0,0,0,0,0,0,0,0,250.0,250.0,250.0,250.0,0.0812403,0.010387008,1.3357518e-10,0.031124625,-0.0033517107,-9.814216,-0.0041119205,-0.0026418557,0.0005539376,0.01039296,0.0038759238,0.0042842105,0.000103325314,4.3251515e-05,0.00010427003,11.832729,11.832729
13036000,1310988,1310988,0,0,0,0,0,0,0,0,250.0,250.0,250.0,250.0,0.07437263,0.010326624,1.0390729e-10,-0.015322891,-0.050278064,-9.818813,0.0007669904,-0.0008522116,0.0015552859,0.003842486,0.0041701766,0.0048541874,2.4612613e-05,9.283987e-05,8.186836e-05,11.832729,11.832729
14036000,1310988,1310988,0,0,0,0,0,0,0,0,250.0,250.0,250.0,250.0,0.08051982,0.011955876,1.93117e-10,0.006129157,-0.021739181,-9.782229,0.0021518343,-0.0017683391,0.0016405073,0.0023082048,0.005829133,0.0031489076,8.223622e-05,0.0001717956,0.00011229488,11.832729,11.832729
15036000,1310988,1310988,0,0,0,0,0,0,0,0,250.0,250.0,250.0,250.0,0.08008907,0.011133902,1.411909e-10,0.020398596,-0.044244677,-9.807129,0.00034088452,0.0020240024,-0.0001278318,0.0060236463,0.004798388,0.0056118416,0.00012749537,8.409254e-05,8.218421e-05,11.832729,11.832729
16036000,1310988,1310988,0,0,0,0,0,0,0,0,250.0,250.0,250.0,250.0,0.08376816,0.010955631,1.5594118e-10,-0.014556747,-0.033422884,-9.804927,0.0019600866,0.003025351,0.0010439592,0.0038061438,0.0021326086,0.005156858,7.529132e-05,0.000119004304,9.8241464e-05,11.832729,11.832729
17036000,1310988,1310988,0,0,0,0,0,0,0,0,250.0,250.0,250.0,250.0,0.078505136,0.010452226,1.4995276e-10,0.032369606,0.014078077,-9.815748,-0.0005539374,-0.00044741135,-0.002705772,0.005341992,0.0032378917,0.008469831,0.00013365631,0.00013569421,8.730589e-05,11.832729,11.832729
18036000,1310988,1310988,0,0,0,0,0,0,0,0,250.0,250.0,250.0,250.0,0.08119383,0.010553499,8.1920325e-11,0.009864112,-0.0020109587,-9.814024,0.0015765915,0.0020240026,0.0023009712,0.005286198,0.007451232,0.0032697103,4.6419467e-05,6.7283494e-05,6.321055e-05,11.832729,11.832729
19036000,1310988,1310988,0,0,0,0,0,0,0,0,250.0,250.0,250.0,250.0,0.08124804,0.01051292,1.5568011e-10,0.024803929,-0.04108433,-9.797552,-0.0024714135,0.0007882959,0.0010865696,0.004397975,0.007191372,0.0043794243,0.000115863775,0.00011506565,7.370167e-05,11.832729,11.832729
20036000,1310988,1310988,0,0,0,0,0,0,0,0,250.0,250.0,250.0,250.0,0.080641635,0.010160002,1.1648875e-10,0.011396401,-0.0076612746,-9.787497,-0.002705772,0.0051771854,-0.003387541,0.0035856261,0.0041701766,0.0031465283,8.411429e-05,4.8973685e-05,0.00010780206,11.832729,11.832729
21036000,1310988,1310988,0,0,0,0,0,0,0,0,250.0,250.0,250.0,250.0,0.07499281,0.011003073,1.1712623e-10,0.017142486,-0.0069908975,-9.8196745,0.0034940674,0.0015552861,0.0008309065,0.005635557,0.0028302362,0.0032096189,7.106802e-05,7.2104456e-05,8.459091e-05,11.832729,11.832729
22036000,1310988,1310988,0,0,0,0,0,0,0,0,250.0,250.0,250.0,250.0,0.080997415,0.010744496,1.4241008e-10,0.010534488,-0.019440746,-9.788741,0.0019600866,-0.003323625,-0.0014487598,0.0061000185,0.0036166948,0.005444232,6.0018952e-05,8.4950254e-05,0.00010635142,11.832729,11.832729
23036000,1310988,1310988,0,0,0,0,0,0,0,0,250.0,250.0,250.0,250.0,0.082358345,0.010601384,1.0658205e-10,0.022505496,-0.021834947,-9.788646,0.0018535601,-0.0014274544,-0.002514024,0.0076505784,0.005212635,0.0043202247,8.780709e-05,6.420349e-05,9.5050826e-05,11.832729,11.832729
24036000,1310988,1310988,0,0,0,0,0,0,0,0,250.0,250.0,250.0,250.0,0.081193544,0.0104225315,1.0088003e-10,-0.0022984345,-0.0022982624,-9.786539,-0.0014274544,0.0031318774,-0.00042610572,0.004676751,0.0052800654,0.0056113405,3.4651708e-05,9.845045e-05,7.1704446e-05,11.832729,11.832729
25036000,1310988,1310988,0,0,0,0,0,0,0,0,250.0,250.0,250.0,250.0,0.08034157,0.011193766,1.4970788e-10,-0.021356279,-0.03208213,-9.808086,0.0008096009,-0.0012783174,0.00040480043,0.0031369093,0.0027141976,0.0065256367,0.00012936871,8.494363e-05,0.00010235034,11.832729,11.832729
26036000,1310988,1310988,0,0,0,0,0,0,0,0,250.0,250.0,250.0,250.0,0.07673034,0.009995179,9.964027e-11,0.001244985,-0.008810492,-9.793434,-0.0007243797,-0.0004261057,0.00221575,0.0032616802,0.003884866,0.0024118912,5.9053444e-05,6.350086e-05,7.61651e-05,11.832729,11.832729
27036000,1310988,1310988,0,0,0,0,0,0,0,0,250.0,250.0,250.0,250.0,0.08242049,0.01023403,1.03897696e-10,0.031507693,-0.0032559426,-9.796882,-6.3915984e-05,0.0044101947,0.0023861923,0.0074459775,0.003094376,0.006149197,8.466751e-05,4.4103548e-05,6.064309e-05,11.832729,11.832729
28036000,1310988,1310988,0,0,0,0,0,0,0,0,250.0,250.0,250.0,250.0,0.091091074,0.010185183,1.4699691e-10,0.021930888,-0.055162236,-9.812588,0.004239753,0.00072437973,0.0008309064,0.009885507,0.006987783,0.0064679254,5.7034464e-05,0.00010253002,0.00013506535,11.832729,11.832729
29036000,1310988,1310988,0,0,0,0,0,0,0,0,250.0,250.0,250.0,250.0,0.078441426,0.010801658,1.2761003e-10,0.04204218,0.0022986045,-9.805309,0.0018109495,-0.0018322548,0.003110572,0.005586547,0.0036282353,0.005540697,7.872595e-05,8.6103966e-05,6.276042e-05,11.832729,11.832729
30036000,1310988,1310988,0,0,0,0,0,0,0,0,250.0,250.0,250.0,250.0,0.08076963,0.0107944235,1.07163334e-10,-0.011875238,-0.0021067276,-9.82724,-0.0028336036,-0.0028549088,-0.0049002166,0.007703831,0.009342686,0.0040321397,3.9971026e-05,5.2008298e-05,0.00011399895,11.832729,11.832729
31036000,1310988,1310988,0,0,0,0,0,0,0,0,250.0,250.0,250.0,250.0,0.08091272,0.010977687,1.3305981e-10,0.029400798,-0.040222418,-9.812492,-0.0031744882,-0.0012783176,0.0018748655,0.0048367935,0.00789993,0.004652695,7.897371e-05,8.061726e-05,9.2748145e-05,11.832729,11.832729
32036000,1310988,1310988,0,0,0,0,0,0,0,0,250.0,250.0,250.0,250.0,0.07577287,0.011198535,1.7262275e-10,-0.0115879355,0.001915532,-9.786539,-0.0016618125,-0.003174488,-0.0021092235,0.0043037757,0.0056223343,0.003785176,7.464354e-05,8.653896e-05,0.00016424833,11.832729,11.832729
33036000,1310988,1310988,0,0,0,0,0,0,0,0,250.0,250.0,250.0,250.0,0.07658241,0.010268408,1.0028152e-10,-0.020207062,0.012833091,-9.7942,0.0013635384,-0.0012357068,-0.0016618128,0.0033758273,0.004580927,0.006720553,4.9507034e-05,8.949981e-05,8.3107174e-05,11.832729,11.832729
34036000,1310988,1310988,0,0,0,0,0,0,0,0,250.0,250.0,250.0,250.0,0.08118185,0.011345654,1.4484777e-10,-0.04912902,-0.0003829014,-9.804639,-0.0032170985,-8.5221014e-05,-0.0020666127,0.007077416,0.0031773977,0.00631339,7.9682955e-05,6.346966e-05,0.0001065831,11.832729,11.832729
35036000,1310988,1310988,0,0,0,0,0,0,0,0,250.0,250.0,250.0,250.0,0.082590654,0.010680467,1.0580791e-10,9.5767435e-05,-0.032752506,-9.830209,-0.0015126754,0.004900216,0.0032170985,0.005986081,0.002060115,0.0060038706,2.7369204e-05,9.328906e-05,5.828746e-05,11.832729,11.832729
36036000,1310988,1310988,0,0,0,0,0,0,0,0,250.0,250.0,250.0,250.0,0.07368812,0.010849449,1.5789779e-10,0.0053630127,-0.045585427,-9.817089,0.0036645099,0.0012783174,-0.00089482195,0.0020589496,0.002445491,0.00712604,6.6558176e-05,7.6881915e-05,0.00012782257,11.832729,11.832729
37036000,1310988,1310988,0,0,0,0,0,0,0,0,250.0,250.0,250.0,250.0,0.07687266,0.009935841,9.531586e-11,-0.028826188,-0.03964781,-9.822356,-0.0038775627,0.004346279,-0.0031318776,0.0056259073,0.0028264914,0.0036375846,7.046374e-05,4.9781273e-05,6.5896216e-05,11.832729,11.832729
38036000,1310988,1310988,0,0,0,0,0,0,0,0,250.0,250.0,250.0,250.0,0.07968338,0.010494202,1.2299764e-10,-0.011013329,-0.030932916,-9.789987,-0.0038775627,0.0007882958,-0.0045380266,0.0028068682,0.007334792,0.0024684388,0.000108337306,6.4260224e-05,0.00010024248,11.832729,11.832729
39036000,1310988,1310988,0,0,0,0,0,0,0,0,250.0,250.0,250.0,250.0,0.082384825,0.010593931,1.062214e-10,0.016089035,-0.00833165,-9.794105,0.0013422332,0.0009587381,0.0007243798,0.002146958,0.003914196,0.004767903,6.473306e-05,9.2154274e-05,4.5506906e-05,11.832729,11.832729
40036000,1310988,1310988,0,0,0,0,0,0,0,0,250.0,250.0,250.0,250.0,0.07993184,0.010716102,1.1113916e-10,0.012545615,-0.063015215,-9.816035,0.0011078749,-0.0024074975,0.00061785337,0.0068071233,0.00426558,0.0031044395,0.00010598262,9.173157e-05,4.5171197e-05,11.832729,11.832729
41036000,1310988,1310988,0,0,0,0,0,0,0,0,250.0,250.0,250.0,250.0,0.078803666,0.010798627,1.0433741e-10,0.023558944,-0.01426927,-9.819291,0.0013848437,0.0002556635,0.0056245965,0.0040314957,0.0070193103,0.0032461146,3.8346392e-05,7.775948e-05,5.1374707e-05,11.832729,11.832729
42036000,1310988,1310988,0,0,0,0,0,0,0,0,250.0,250.0,250.0,250.0,0.08292413,0.010775414,1.9385006e-10,0.008906431,-0.027006427,-9.762692,-0.0015552862,-0.00095873803,0.0015978967,0.005839451,0.0053737103,0.004134783,0.00012870203,9.898664e-05,0.00010023964,11.832729,11.832729
43036000,1310988,1310988,0,0,0,0,0,0,0,0,250.0,250.0,250.0,250.0,0.08261808,0.01133126,1.3555819e-10,-0.0038307218,-9.559648e-05,-9.808278,0.0010013485,-0.006114618,-0.0048149955,0.0038386646,0.004485199,0.002251191,6.826036e-05,7.974536e-05,8.199981e-05,11.832729,11.832729
44036000,1310988,1310988,0,0,0,0,0,0,0,0,250.0,250.0,250.0,250.0,0.07927995,0.010284851,1.4520544e-10,0.021643585,-0.038690127,-9.807991,-0.0008096009,-0.0007669904,-0.00038349515,0.003432863,0.0017624991,0.0069914414,9.664898e-05,0.0001728207,7.8194484e-05,11.832729,11.832729
45036000,1310988,1310988,0,0,0,0,0,0,0,0,250.0,250.0,250.0,250.0,0.07987257,0.010743674,1.6306385e-10,-0.026144681,-0.009480868,-9.81412,0.004197142,0.0014487598,-0.0071159666,0.0053810664,0.006077796,0.009726772,0.00011991688,6.308762e-05,8.6572065e-05,11.832729,11.832729
46036000,1310988,1310988,0,0,0,0,0,0,0,0,250.0,250.0,250.0,250.0,0.079069376,0.010717987,1.2010115e-10,0.01292869,-0.017333848,-9.785198,0.0040480047,0.006072007,0.002066613,0.0028011359,0.003588492,0.006210127,9.934126e-05,4.5604305e-05,7.809519e-05,11.832729,11.832729
47036000,1310988,1310988,0,0,0,0,0,0,0,0,250.0,250.0,250.0,250.0,0.08185059,0.010186418,1.11863394e-10,0.0039264895,-0.005841681,-9.807034,-0.0001278317,-0.005731123,-0.0016831177,0.0047342638,0.0065223286,0.0071742022,8.1049424e-05,7.771599e-05,0.00011141447,11.832729,11.832729
48036000,1310988,1310988,0,0,0,0,0,0,0,0,250.0,250.0,250.0,250.0,0.08232911,0.0101416055,1.10755426e-10,0.017525557,-0.018483065,-9.823984,-0.001257012,-0.0026631611,0.0009374328,0.004660624,0.0041035498,0.004485597,4.4513967e-05,0.00010943615,7.920539e-05,11.832729,11.832729
49036000,1310988,1310988,0,0,0,0,0,0,0,0,250.0,250.0,250.0,250.0,0.07895257,0.011111645,1.653959e-10,0.039264906,-0.01589733,-9.793434,-0.003600594,0.0010013487,0.0027483823,0.0033323201,0.007453238,0.0038430556,0.0001144784,0.00015426787,9.900272e-05,11.832729,11.832729
50036000,1310988,1310988,0,0,0,0,0,0,0,0,250.0,250.0,250.0,250.0,0.08180553,0.010158727,8.419938e-11,0.025570074,-0.031986363,-9.798414,0.0011504856,-0.002087918,-0.00014913715,0.0035973005,0.0042957505,0.006728714,6.41789e-05,6.652508e-05,4.4552737e-05,11.832729,11.832729
51036000,1310988,1310988,0,0,0,0,0,0,0,0,250.0,250.0,250.0,250.0,0.07618455,0.010333987,8.6378474e-11,-0.0016280564,-0.011491996,-9.802437,-0.0006817693,0.0022583606,0.0002556635,0.0056699696,0.0020287219,0.006640905,9.814785e-05,3.4735873e-05,2.3526056e-05,11.832729,11.832729
52036000,1310988,1310988,0,0,0,0,0,0,0,0,250.0,250.0,250.0,250.0,0.07829739,0.010811569,1.3838891e-10,0.0141736735,-0.023750309,-9.813545,-0.003238404,-0.0028122985,0.0031531826,0.0017444617,0.0045541963,0.005134304,7.678546e-05,9.838426e-05,0.0001193873,11.832729,11.832729
53036000,1310988,1310988,0,0,0,0,0,0,0,0,250.0,250.0,250.0,250.0,0.078963935,0.010661446,1.3019441e-10,0.0158975,-0.009768171,-9.824271,0.0011717909,-0.00091612746,0.0063915867,0.0025173347,0.0035940525,0.007413102,5.9363618e-05,7.9612975e-05,0.00015572607,11.832729,11.832729
54036000,1310988,1310988,0,0,0,0,0,0,0,0,250.0,250.0,250.0,250.0,0.08413934,0.01054724,1.2272634e-10,-0.013694834,-0.02518683,-9.809236,0.0023009712,-0.00021305277,0.0004261058,0.0028204918,0.0046407524,0.0057622674,7.24307e-05,0.00010087795,7.579441e-05,11.832729,11.832729
55036000,1310988,1310988,0,0,0,0,0,0,0,0,250.0,250.0,250.0,250.0,0.08850582,0.010809494,1.1748831e-10,0.043861777,0.0050758775,-9.796116,0.002130529,-0.0024074977,0.00040480043,0.002923289,0.0039854664,0.0057575246,3.8086335e-05,9.4686744e-05,8.854376e-05,11.832729,11.832729
56036000,1310988,1310988,0,0,0,0,0,0,0,0,250.0,250.0,250.0,250.0,0.08076248,0.010867428,1.4967072e-10,-0.030933086,0.011205037,-9.828581,0.0008735168,-0.002450108,0.0010865696,0.004502606,0.0051192003,0.004384543,6.456189e-05,0.00015336192,9.687026e-05,11.832729,11.832729
57036000,1310988,1310988,0,0,0,0,0,0,0,0,250.0,250.0,250.0,250.0,0.07531482,0.010730014,1.474757e-10,0.019057846,0.002490142,-9.830976,-1.891749e-10,-0.0020240024,-0.00083090627,0.0066495836,0.002436893,0.0031583086,0.000109743494,0.00015262904,9.017029e-05,11.832729,11.832729
58036000,1310988,1310988,0,0,0,0,0,0,0,0,250.0,250.0,250.0,250.0,0.081072696,0.0110940775,1.5505665e-10,-0.006224924,-0.0276768,-9.807034,-0.001789644,-0.0026844665,-0.001342233,0.005821051,0.0053625135,0.003953648,6.103932e-05,9.635015e-05,0.000111022964,11.832729,11.832729
59036000,1310988,1310988,0,0,0,0,0,0,0,0,250.0,250.0,250.0,250.0,0.08008481,0.011006067,1.4318459e-10,-0.010534488,-0.0075655077,-9.769013,0.0014700651,0.00080960087,0.00046871626,0.004175431,0.0041174786,0.005250957,7.899262e-05,0.00015896777,4.1852887e-05,11.832729,11.832729
60036000,1310988,1310988,0,0,0,0,0,0,0,0,250.0,250.0,250.0,250.0,0.0775818,0.0109673245,1.0111714e-10,0.012258314,0.033327457,-9.790752,0.00012783168,0.0010865696,0.003025351,0.0033119326,0.0048780655,0.0030810107,5.979578e-05,9.48371e-05,7.9854115e-05,11.832729,11.832729
61036000,1310988,1310988,0,0,0,0,0,0,0,0,250.0,250.0,250.0,250.0,0.07899378,0.010600949,1.8078967e-10,0.0018195927,-0.0056501455,-9.804639,0.0005752426,-0.0031531828,0.00053263234,0.005482029,0.0059318165,0.0031339456,0.00011553375,8.186836e-05,0.00016608101,11.832729,11.832729
62036000,1310988,1310988,0,0,0,0,0,0,0,0,250.0,250.0,250.0,250.0,0.08376098,0.011194994,1.7579262e-10,-0.014269444,0.0016282286,-9.797265,-0.0024074977,0.0028336034,0.0011504857,0.0050679734,0.0064748665,0.0060111354,8.8539964e-05,0.00015444281,7.5266726e-05,11.832729,11.832729
63036000,1310988,1310988,0,0,0,0,0,0,0,0,250.0,250.0,250.0,250.0,0.078001924,0.010645081,1.3499467e-10,0.004501099,-0.020206891,-9.800521,0.0036005937,-0.001555286,-0.0025992452,0.0017136035,0.0053625125,0.0060322387,8.364998e-05,8.4114305e-05,0.000101452926,11.832729,11.832729
64036000,1310988,1310988,0,0,0,0,0,0,0,0,250.0,250.0,250.0,250.0,0.08211206,0.010887579,1.2903276e-10,-0.009002199,0.0023943735,-9.817281,-0.00012783162,0.0028336034,0.0031957934,0.0046054805,0.0024739227,0.0043680035,6.8992296e-05,9.694686e-05,0.0001324629,11.832729,11.832729
65036000,1310988,1310988,0,0,0,0,0,0,0,0,250.0,250.0,250.0,250.0,0.07887053,0.01093894,1.8372516e-10,0.03763685,0.03217824,-9.813929,-0.0014913703,0.0057311226,-4.2610565e-05,0.002929881,0.005791473,0.0039272727,0.00013317214,0.00019341712,7.1938965e-05,11.832729,11.832729
66036000,1310988,1310988,0,0,0,0,0,0,0,0,250.0,250.0,250.0,250.0,0.085245505,0.011032996,1.4137633e-10,0.01637634,-0.024133382,-9.798414,0.0024927189,-0.00087351695,0.002002697,0.011379223,0.0037325805,0.0048418595,9.030362e-05,6.869914e-05,9.076605e-05,11.832729,11.832729
67036000,1310988,1310988,0,0,0,0,0,0,0,0,250.0,250.0,250.0,250.0,0.07604034,0.010409509,1.9001445e-10,0.022984335,-0.0026813361,-9.797744,0.006199839,0.0024074975,-0.00019174749,0.004456309,0.00667578,0.006921919,0.00013803944,0.00014825823,7.579157e-05,11.832729,11.832729
68036000,1310988,1310988,0,0,0,0,0,0,0,0,250.0,250.0,250.0,250.0,0.0852947,0.011182507,1.5159443e-10,0.0140779065,0.002585908,-9.760011,-0.00036218995,0.0045806374,0.0020240024,0.004147879,0.004376498,0.007226923,8.571718e-05,9.955404e-05,0.00010397499,11.832729,11.832729
69036000,1310988,1310988,0,0,0,0,0,0,0,0,250.0,250.0,250.0,250.0,0.08134069,0.010827807,1.8353313e-10,0.048171338,-0.0036390158,-9.764895,-0.0027483825,0.0031744882,0.0022370555,0.0035608055,0.005545007,0.005431302,0.00016264543,9.81469e-05,4.8843183e-05,11.832729,11.832729
70036000,1310988,1310988,0,0,0,0,0,0,0,0,250.0,250.0,250.0,250.0,0.07758192,0.01059912,1.3329877e-10,0.014077906,-0.026623353,-9.801383,-0.003387541,0.0008948223,0.00095873815,0.0028332938,0.0050206063,0.0031641796,8.638293e-05,0.00012543477,5.4375276e-05,11.832729,11.832729
71036000,1310988,1310988,0,0,0,0,0,0,0,0,250.0,250.0,250.0,250.0,0.079324566,0.010639195,1.3225437e-10,0.025761612,-0.011970838,-9.762214,0.0018535602,-0.003771036,-0.00406931,0.004555801,0.0057513095,0.003826297,0.00010267754,4.073228e-05,7.111057e-05,11.832729,11.832729
72036000,1310988,1310988,0,0,0,0,0,0,0,0,250.0,250.0,250.0,250.0,0.0756867,0.010617527,9.80685e-11,-0.0029688096,0.0027774454,-9.791615,0.0010865697,-0.00055393745,-0.0023009712,0.0038579055,0.0030828165,0.0039215633,7.9943005e-05,5.7247235e-05,6.543285e-05,11.832729,11.832729
73036000,1310988,1310988,0,0,0,0,0,0,0,0,250.0,250.0,250.0,250.0,0.111401364,0.010644479,1.3305003e-10,0.007948751,0.028251752,-9.794105,0.0019387814,0.0035153725,0.00012783176,0.007310334,0.0058286944,0.007885266,8.2363884e-05,5.3264128e-05,0.00014528318,11.832729,11.832729
74036000,1310988,1310988,0,0,0,0,0,0,0,0,250.0,250.0,250.0,250.0,0.08425949,0.010752057,1.0861371e-10,-0.0132159935,0.007182776,-9.805884,-0.00083090644,0.00085221144,0.0007456852,0.004056546,0.002783462,0.003231867,0.00011130571,4.463501e-05,7.806398e-05,11.832729,11.832729
75036000,1310988,1310988,0,0,0,0,0,0,0,0,250.0,250.0,250.0,250.0,0.08241635,0.010466847,1.2720094e-10,0.0113964,-0.009385098,-9.827048,0.0014061492,-0.0015552859,-0.0014913704,0.0037446949,0.0050304467,0.0055607846,8.245845e-05,0.00011586473,4.8015732e-05,11.832729,11.832729
76036000,1310988,1310988,0,0,0,0,0,0,0,0,250.0,250.0,250.0,250.0,0.083749995,0.010405069,1.0409483e-10,0.0065122284,-0.020398427,-9.809524,0.0015339807,-0.0004900217,0.00031957938,0.004733137,0.0067788637,0.0066512837,5.6770627e-05,7.312104e-05,5.8843507e-05,11.832729,11.832729
77036000,1310988,1310988,0,0,0,0,0,0,0,0,250.0,250.0,250.0,250.0,0.08392665,0.01023696,1.5218304e-10,0.0114921685,-0.024803758,-9.779548,0.005752428,-0.003174488,-0.0012357067,0.004059832,0.006042161,0.0021422808,8.9790134e-05,0.00011906956,7.2596195e-05,11.832729,11.832729
78036000,1310988,1310988,0,0,0,0,0,0,0,0,250.0,250.0,250.0,250.0,0.083656795,0.010589473,1.7804537e-10,-0.015993267,1.7106886e-07,-9.791519,-0.0028122978,-0.0018322546,-0.005006743,0.0029094366,0.010227681,0.0031277603,0.00014509971,0.00017350631,7.491968e-05,11.832729,11.832729
79036000,1310988,1310988,0,0,0,0,0,0,0,0,250.0,250.0,250.0,250.0,0.079487525,0.011404057,1.4860874e-10,-9.5769065e-05,0.010821963,-9.800904,0.0011291803,0.0038562573,-0.0023435818,0.0051778406,0.0063928952,0.0040115933,0.00013178488,8.599047e-05,9.8584744e-05,11.832729,11.832729
80036000,1310988,1310988,0,0,0,0,0,0,0,0,250.0,250.0,250.0,250.0,0.081558526,0.010392559,1.13313595e-10,-0.015131355,-0.0039263186,-9.804831,-0.0018109495,0.0021092235,0.0005326323,0.003958907,0.004701781,0.0037781447,0.00010220188,7.1810355e-05,8.5321895e-05,11.832729,11.832729
81036000,1310988,1310988,0,0,0,0,0,0,0,0,250.0,250.0,250.0,250.0,0.07138886,0.011203568,1.2938933e-10,0.016472107,0.013216166,-9.799085,-0.0010652643,-0.0014274543,-0.0006817691,0.0009731941,0.002690371,0.0039584357,4.1537984e-05,0.00012765708,0.00011795936,11.832729,11.832729
82036000,1310988,1310988,0,0,0,0,0,0,0,0,250.0,250.0,250.0,250.0,0.08216696,0.010684258,1.0675809e-10,-0.010534488,0.00153246,-9.770833,-0.0037923413,-0.0066259447,-0.0023861926,0.003714467,0.0064964383,0.0067102755,5.7456225e-05,5.0499973e-05,4.9366132e-05,11.832729,11.832729
83036000,1310988,1310988,0,0,0,0,0,0,0,0,250.0,250.0,250.0,250.0,0.0829781,0.010373499,1.6692138e-10,0.02432509,-0.0065120566,-9.784719,0.001768339,-0.003962784,0.0041119205,0.0023309425,0.0056913695,0.004297097,0.00011470157,0.00010177822,6.897433e-05,11.832729,11.832729
84036000,1310988,1310988,0,0,0,0,0,0,0,0,250.0,250.0,250.0,250.0,0.07584871,0.010869888,1.3523556e-10,-0.0074699097,-0.014365039,-9.839116,0.00093743263,-0.002364887,-0.00025566338,0.004376211,0.0038673254,0.0026301825,8.443015e-05,0.00013170826,7.473338e-05,11.832729,11.832729
85036000,1310988,1310988,0,0,0,0,0,0,0,0,250.0,250.0,250.0,250.0,0.0796332,0.010909794,1.34693e-10,0.029400798,-0.015897328,-9.791231,0.003387541,0.0003408847,-0.0011291803,0.0038126404,0.009836879,0.0031432088,7.858126e-05,7.635896e-05,0.00011190244,11.832729,11.832729
86036000,1310988,1310988,0,0,0,0,0,0,0,0,250.0,250.0,250.0,250.0,0.08535191,0.0109190075,1.5207988e-10,0.05401319,0.06598437,-9.779931,0.0026418557,0.0035153725,-0.0029188246,0.0047601545,0.006141614,0.005764551,0.00013389274,0.00012012207,0.00012388392,11.832729,11.832729
87036000,1310988,1310988,0,0,0,0,0,0,0,0,250.0,250.0,250.0,250.0,0.07870588,0.010430678,1.4245556e-10,0.020207062,-0.024229148,-9.824176,0.0015978966,-0.000745685,-0.003472762,0.0038558994,0.0043485058,0.0047256052,6.7259854e-05,0.00012435389,0.00010142455,11.832729,11.832729
88036000,1310988,1310988,0,0,0,0,0,0,0,0,250.0,250.0,250.0,250.0,0.0773763,0.0106414445,1.3459209e-10,-0.00067037554,0.013120395,-9.78855,0.0043888893,-0.0040053944,-0.001832255,0.0034997575,0.0049698763,0.004171176,9.398129e-05,6.849205e-05,8.1635735e-05,11.832729,11.832729
89036000,1310988,1310988,0,0,0,0,0,0,0,0,250.0,250.0,250.0,250.0,0.07911434,0.010457411,1.3294646e-10,0.0006703761,-0.0056501445,-9.793721,-0.0014913701,6.391581e-05,-2.130534e-05,0.0057310173,0.005307962,0.0045996374,0.0001729843,2.764439e-05,9.663385e-05,11.832729,11.832729
90036000,1310988,1310988,0,0,0,0,0,0,0,0,250.0,250.0,250.0,250.0,0.07767743,0.010813804,1.4607839e-10,0.045489833,0.0016282285,-9.829348,0.0008522117,0.003025351,-0.0032597093,0.004886702,0.0034864782,0.003961034,8.588929e-05,7.725356e-05,0.00010353337,11.832729,11.832729
91036000,1310988,1310988,0,0,0,0,0,0,0,0,250.0,250.0,250.0,250.0,0.10048104,0.011566407,1.3985231e-10,0.021930886,0.02039877,-9.814024,0.0034727622,-0.0050493535,0.0017896444,0.0056193154,0.0040656216,0.005773747,0.00010532538,7.168364e-05,6.451461e-05,11.832729,11.832729
92036000,1310988,1310988,0,0,0,0,0,0,0,0,250.0,250.0,250.0,250.0,0.080728926,0.01074829,1.6229987e-10,-0.00028730487,0.01848341,-9.813642,0.004623248,0.0025566344,0.007946873,0.0043532825,0.0028658714,0.0054045,6.214669e-05,7.352483e-05,0.00010792121,11.832729,11.832729
93036000,1310988,1310988,0,0,0,0,0,0,0,0,250.0,250.0,250.0,250.0,0.08440966,0.010344815,1.0879478e-10,-0.0114921685,0.0020113003,-9.825133,-0.00019174762,0.00059654814,0.0007882959,0.0060001826,0.003575308,0.004921355,7.3758405e-05,8.577865e-05,8.7381544e-05,11.832729,11.832729
94036000,1310988,1310988,0,0,0,0,0,0,0,0,250.0,250.0,250.0,250.0,0.07656937,0.010742303,1.9740143e-10,0.0020111282,0.0037351262,-9.810576,-0.00042610551,0.0028975192,0.0004261059,0.0041155685,0.0053520035,0.0059189536,8.924637e-05,0.00011014729,0.00012399929,11.832729,11.832729
95036000,1310988,1310988,0,0,0,0,0,0,0,0,250.0,250.0,250.0,250.0,0.07682978,0.010978968,1.3874815e-10,-0.0034476514,-0.011108926,-9.755797,-0.0035153728,0.002727077,0.0045806374,0.002928716,0.0036996014,0.0041531227,8.392706e-05,9.0790636e-05,0.00011158751,11.832729,11.832729
96036000,1310988,1310988,0,0,0,0,0,0,0,0,250.0,250.0,250.0,250.0,0.07817104,0.010805897,1.6161109e-10,0.010534488,-0.01091739,-9.780984,0.001981392,-0.0024501083,-0.0006391586,0.0037880302,0.0030232973,0.0022119293,0.00012384608,8.376157e-05,9.489667e-05,11.832729,11.832729
97036000,1310988,1310988,0,0,0,0,0,0,0,0,250.0,250.0,250.0,250.0,0.081894375,0.010717604,1.5377183e-10,0.0022984338,0.009098138,-9.772748,-0.0013848437,-0.0007669903,-0.0058589545,0.0056493147,0.003536291,0.0052176137,0.00011657586,7.333759e-05,0.000109128814,11.832729,11.832729
98036000,1310988,1310988,0,0,0,0,0,0,0,0,250.0,250.0,250.0,250.0,0.082888156,0.010573567,1.2985199e-10,0.033901896,-0.010630086,-9.800616,-0.00294013,0.0014061491,-0.0049002166,0.003551424,0.005730329,0.009266658,7.442605e-05,9.808543e-05,9.139775e-05,11.832729,11.832729
99036000,1310988,1310988,0,0,0,0,0,0,0,0,250.0,250.0,250.0,250.0,0.08345085,0.010800413,1.3247087e-10,0.03131616,0.00057477923,-9.790178,-0.0014061489,0.0045167212,-0.00221575,0.0065762303,0.0036673099,0.0067522107,0.00015118407,5.596209e-05,8.046784e-05,11.832729,11.832729
100036000,1310988,1310988,0,0,0,0,0,0,0,0,250.0,250.0,250.0,250.0,0.08272581,0.0100174025,1.2574493e-10,-0.0042137946,-0.01723808,-9.819771,0.002450108,0.002279666,0.003238404,0.0029885217,0.0053892247,0.007712258,8.997926e-05,0.000109543005,5.148913e-05,11.832729,11.832729
101036000,1310988,1310988,0,0,0,0,0,0,0,0,250.0,250.0,250.0,250.0,0.083611436,0.01044834,1.0312797e-10,0.025665842,-0.02327147,-9.810673,-0.00034088446,0.0014274543,-0.00025566362,0.0018598703,0.0036502276,0.0054765297,4.7327296e-05,7.39674e-05,0.000119179254,11.832729,11.832729
102036000,1310988,1310988,0,0,0,0,0,0,0,0,250.0,250.0,250.0,250.0,0.0787318,0.009953938,1.2005617e-10,0.023558944,-0.024516456,-9.806363,-0.0003621899,0.0005113269,-0.0017044231,0.005112971,0.005316274,0.004399635,8.027966e-05,5.585239e-05,6.350087e-05,11.832729,11.832729
103036000,1310988,1310988,0,0,0,0,0,0,0,0,250.0,250.0,250.0,250.0,0.08533312,0.010365145,1.2949312e-10,0.020590134,-0.009002026,-9.820728,0.00055393745,-0.0012996226,0.0046871635,0.0033012708,0.0069800457,0.003099367,7.152666e-05,9.853934e-05,6.10658e-05,11.832729,11.832729
104036000,1310988,1310988,0,0,0,0,0,0,0,0,250.0,250.0,250.0,250.0,0.080369085,0.010292306,1.0983495e-10,0.0047884025,-0.044915054,-9.779548,0.004942827,0.0023222766,-0.00059654796,0.004717602,0.0070908675,0.0030202754,9.64693e-05,6.375809e-05,5.9985858e-05,11.832729,11.832729
105036000,1310988,1310988,0,0,0,0,0,0,0,0,250.0,250.0,250.0,250.0,0.08120921,0.011123368,1.1949539e-10,0.012258313,-0.006512057,-9.817089,-0.0005965481,0.0011930962,-0.0010013486,0.0037222623,0.0064327344,0.006128635,4.4926273e-05,0.00011580232,8.646425e-05,11.832729,11.832729
106036000,1310988,1310988,0,0,0,0,0,0,0,0,250.0,250.0,250.0,250.0,0.07998465,0.010257168,7.230225e-11,-0.005363012,0.0022986056,-9.816897,-0.0001278317,0.0004048004,-0.00044741112,0.0040179295,0.0051090545,0.004571208,0.00012450236,3.7265505e-05,4.4532877e-05,11.832729,11.832729
107036000,1310988,1310988,0,0,0,0,0,0,0,0,250.0,250.0,250.0,250.0,0.08515338,0.010551643,1.6452861e-10,0.0016280585,0.002107068,-9.804926,-0.00017044257,0.0003834954,-0.003387541,0.0061256792,0.00564685,0.006375931,0.00011172275,6.909254e-05,7.924321e-05,11.832729,11.832729
108036000,1310988,1310988,0,0,0,0,0,0,0,0,250.0,250.0,250.0,250.0,0.08037629,0.0118108615,1.5162063e-10,0.017142484,-0.01082162,-9.811055,0.004133226,-0.001043959,-0.00021305306,0.0033861455,0.0044372594,0.004033427,0.00013641763,8.1432416e-05,7.203542e-05,11.832729,11.832729
109036000,1310988,1310988,0,0,0,0,0,0,0,0,250.0,250.0,250.0,250.0,0.08401568,0.011090411,1.641051e-10,0.023654712,-0.023079935,-9.797457,0.0048363004,-4.2610467e-05,-0.0049641323,0.005007231,0.0046912725,0.0065450757,6.83691e-05,9.560403e-05,0.00011760947,11.832729,11.832729
110036000,1310988,1310988,0,0,0,0,0,0,0,0,250.0,250.0,250.0,250.0,0.10874825,0.010653119,1.3288598e-10,-0.02030283,0.0065123993,-9.781559,0.002705772,0.0048149955,0.0039627836,0.004021197,0.0067823986,0.002342627,9.7424425e-05,7.999029e-05,7.210824e-05,11.832729,11.832729
111036000,1310988,1310988,0,0,0,0,0,0,0,0,250.0,250.0,250.0,250.0,0.08077727,0.010845232,1.6517737e-10,0.036008794,-0.028730249,-9.803394,-0.00072437996,-0.0018322547,-0.0020240024,0.004955718,0.0029893431,0.004749085,0.00012645515,0.000100052406,5.6692134e-05,11.832729,11.832729
112036000,1310988,1310988,0,0,0,0,0,0,0,0,250.0,250.0,250.0,250.0,0.07968337,0.011005063,1.4873008e-10,0.008140285,0.028443286,-9.804065,0.0045167212,0.00185356,0.002002697,0.0043669827,0.006648074,0.0065084323,7.3220326e-05,0.00017277437,6.518603e-05,11.832729,11.832729
113036000,1310988,1310988,0,0,0,0,0,0,0,0,250.0,250.0,250.0,250.0,0.07537932,0.010446683,1.5300698e-10,0.00248997,-0.05343841,-9.812014,-0.0010226539,0.0018748654,0.0043888893,0.0070589585,0.0034301113,0.004988585,7.524877e-05,6.371648e-05,8.074209e-05,11.832729,11.832729
114036000,1310988,1310988,0,0,0,0,0,0,0,0,250.0,250.0,250.0,250.0,0.07660846,0.010871253,1.3725487e-10,0.025474306,-0.00842742,-9.7872095,-0.001171791,0.0009800433,0.0016192021,0.0052410862,0.0028838324,0.0053889165,9.797006e-05,7.174416e-05,0.000104884704,11.832729,11.832729
115036000,1310988,1310988,0,0,0,0,0,0,0,0,250.0,250.0,250.0,250.0,0.08586588,0.010644544,1.0313732e-10,-0.012354081,1.724265e-07,-9.835955,0.001043959,-0.0016831179,0.0036645099,0.0037630375,0.005144651,0.0052527664,3.4362336e-05,8.309204e-05,0.0001300354,11.832729,11.832729
116036000,1310988,1310988,0,0,0,0,0,0,0,0,250.0,250.0,250.0,250.0,0.08288981,0.0101258755,1.376542e-10,0.031795,-0.010247013,-9.827815,-0.002066613,0.001704423,-0.0020026972,0.006517762,0.0039559454,0.004078798,8.7622684e-05,9.314721e-05,0.000100979145,11.832729,11.832729
117036000,1310988,1310988,0,0,0,0,0,0,0,0,250.0,250.0,250.0,250.0,0.078766935,0.010410686,2.0514009e-10,0.031316157,-0.024803758,-9.821111,0.0024288031,0.0041758367,-0.0021731395,0.0021853638,0.0067037526,0.008302382,0.00015995977,0.00015028098,0.00011130194,11.832729,11.832729
118036000,1310988,1310988,0,0,0,0,0,0,0,0,250.0,250.0,250.0,250.0,0.07627433,0.010971122,1.2466381e-10,0.036870707,0.025282942,-9.835381,0.003323625,-0.00051132694,0.00023435814,0.0020779232,0.006022672,0.004856615,5.7006095e-05,9.873794e-05,6.3053565e-05,11.832729,11.832729
119036000,1310988,1310988,0,0,0,0,0,0,0,0,250.0,250.0,250.0,250.0,0.08048158,0.011498709,1.8187986e-10,0.044340614,0.024325263,-9.817951,0.00074568525,0.0010013485,-0.0010013485,0.0035511563,0.0045373626,0.004913723,9.15396e-05,9.970346e-05,9.937247e-05,11.832729,11.832729
120036000,1310988,1310988,0,0,0,0,0,0,0,0,250.0,250.0,250.0,250.0,0.08456381,0.010811725,1.3916668e-10,0.029879637,-0.0067993626,-9.76614,0.0023009712,0.001171791,0.00023435833,0.0066532325,0.0046610828,0.0037908712,0.00012562392,8.52037e-05,6.163509e-05,11.832729,11.832729
121036000,1310988,1310988,0,0,0,0,0,0,0,0,250.0,250.0,250.0,250.0,0.081857376,0.009800001,1.04365606e-10,0.0272939,0.019919928,-9.790849,0.001533981,-0.0011078749,-0.0008735169,0.004327335,0.0048803585,0.0038792868,8.1806895e-05,6.411366e-05,7.1346985e-05,11.832729,11.832729
122036000,1310988,1310988,0,0,0,0,0,0,0,0,250.0,250.0,250.0,250.0,0.0799608,0.010664599,1.0154868e-10,0.019440917,0.02336758,-9.782612,0.0023222766,-0.00023435807,-0.00014913705,0.004948954,0.0021492317,0.0059101414,8.1701925e-05,7.91061e-05,5.2472613e-05,11.832729,11.832729
123036000,1310988,1310988,0,0,0,0,0,0,0,0,250.0,250.0,250.0,250.0,0.07932864,0.010214633,9.630127e-11,0.0034476507,-0.038402826,-9.790561,-0.00014913696,0.0057311226,0.00014913712,0.010749827,0.0070962175,0.004703534,4.6373123e-05,3.0764113e-05,6.5877306e-05,11.832729,11.832729
124036000,1310988,1310988,0,0,0,0,0,0,0,0,250.0,250.0,250.0,250.0,0.07907305,0.010886734,1.6984036e-10,0.00296881,-0.01723808,-9.795541,0.0014913704,-0.001981392,-0.00044741097,0.003881312,0.0066297697,0.002126609,7.6243596e-05,0.0001531378,0.0001000193,11.832729,11.832729
125036000,1310988,1310988,0,0,0,0,0,0,0,0,250.0,250.0,250.0,250.0,0.076852694,0.010068684,1.4723192e-10,0.018195933,0.035147052,-9.819004,-0.0029827403,-0.0023009714,-0.0050493535,0.0026329914,0.008394675,0.0027427168,0.00012324276,5.186267e-05,6.322e-05,11.832729,11.832729
126036000,1310988,1310988,0,0,0,0,0,0,0,0,250.0,250.0,250.0,250.0,0.079150125,0.011048594,1.29143e-10,0.014748282,-0.05305534,-9.806937,-0.0025140243,0.0010013484,0.004644553,0.0028998635,0.0041480507,0.0015411742,0.00010446011,8.187782e-05,6.9825415e-05,11.832729,11.832729
127036000,1310988,1310988,0,0,0,0,0,0,0,0,250.0,250.0,250.0,250.0,0.08164735,0.010660311,1.5328466e-10,0.03916914,-0.0029686394,-9.806363,0.0018535602,0.0005752428,-0.003557983,0.0056046033,0.0071477117,0.007108086,0.00010910801,9.619507e-05,0.00012091927,11.832729,11.832729
128036000,1310988,1310988,0,0,0,0,0,0,0,0,250.0,250.0,250.0,250.0,0.08212296,0.011173224,1.3372864e-10,0.01695095,0.032465547,-9.814694,-0.0011078751,0.0023648872,-0.0008309063,0.0054283566,0.004342181,0.00532901,5.4184253e-05,5.721414e-05,0.000110407345,11.832729,11.832729
129036000,1310988,1310988,0,0,0,0,0,0,0,0,250.0,250.0,250.0,250.0,0.12138137,0.0108142225,1.6543635e-10,0.014652515,-0.048841543,-9.782325,0.0008735168,-0.00021305322,0.006817693,0.0052240994,0.0048938673,0.0050408617,8.2789426e-05,8.175205e-05,8.099552e-05,11.832729,11.832729
130036000,1310988,1310988,0,0,0,0,0,0,0,0,250.0,250.0,250.0,250.0,0.08236795,0.010723676,9.204671e-11,0.0182917,0.022314131,-9.811247,0.0045380266,-0.0012144013,0.0015765913,0.0051455493,0.0077794194,0.0043612346,5.1753916e-05,6.4411535e-05,7.869001e-05,11.832729,11.832729
131036000,1310988,1310988,0,0,0,0,0,0,0,0,250.0,250.0,250.0,250.0,0.07939525,0.010723567,1.2493948e-10,0.023367409,-0.012353909,-9.785582,-0.0015126753,-0.0012996225,-0.0007030747,0.0058670426,0.0028439746,0.0033313714,7.453385e-05,8.953197e-05,7.5622294e-05,11.832729,11.832729
132036000,1310988,1310988,0,0,0,0,0,0,0,0,250.0,250.0,250.0,250.0,0.081196226,0.011041078,1.3195471e-10,-0.0062249247,0.014652685,-9.786251,-0.0009161274,-0.0014274544,0.0020453078,0.0062715067,0.0030277108,0.00378858,7.0440095e-05,9.134384e-05,0.00012604852,11.832729,11.832729
133036000,1310988,1310988,0,0,0,0,0,0,0,0,250.0,250.0,250.0,250.0,0.07859231,0.010246417,1.3353012e-10,0.03361459,0.0110134985,-9.78606,0.0018322547,-0.0013635387,0.00330232,0.0035690027,0.003303659,0.0046903817,9.787739e-05,0.00014939206,6.915117e-05,11.832729,11.832729
134036000,1310988,1310988,0,0,0,0,0,0,0,0,250.0,250.0,250.0,250.0,0.079600014,0.010353565,1.1997552e-10,-0.012737153,-0.0046924665,-9.806076,0.00025566365,0.0020240024,-0.00059654796,0.0042560264,0.0054754373,0.0051548365,0.00010572729,0.00014066648,5.0812985e-05,11.832729,11.832729
135036000,1310988,1310988,0,0,0,0,0,0,0,0,250.0,250.0,250.0,250.0,0.08457817,0.0104724085,1.141419e-10,-0.0296881,-0.017525386,-9.818334,0.00091612735,0.0012357067,0.0055393754,0.008168865,0.0069066915,0.004153167,3.9067927e-05,6.874264e-05,9.3667324e-05,11.832729,11.832729
136036000,1310988,1310988,0,0,0,0,0,0,0,0,250.0,250.0,250.0,250.0,0.07769734,0.010247192,1.04522994e-10,0.027485434,-0.037540913,-9.821686,-0.0017044231,-0.0034301516,-0.0032170988,0.0037417521,0.0030933446,0.004789514,0.00011737967,5.05709e-05,7.015545e-05,11.832729,11.832729
137036000,1310988,1310988,0,0,0,0,0,0,0,0,250.0,250.0,250.0,250.0,0.08034408,0.010419241,1.6201802e-10,0.0062249247,-0.015993096,-9.830592,0.0021944446,0.002002697,-0.003536678,0.0038902543,0.0045450246,0.00824865,0.00010038906,0.00011164142,0.0001247057,11.832729,11.832729
138036000,1310988,1310988,0,0,0,0,0,0,0,0,250.0,250.0,250.0,250.0,0.081747375,0.010455724,1.14099875e-10,0.042521022,-0.005937449,-9.787688,-0.0008948222,0.0027270769,0.0015765915,0.0061020628,0.0047057173,0.0060560755,7.588236e-05,6.8709545e-05,8.587701e-05,11.832729,11.832729
139036000,1310988,1310988,0,0,0,0,0,0,0,0,250.0,250.0,250.0,250.0,0.08207341,0.01097355,1.2356094e-10,0.030454244,9.593944e-05,-9.788359,-0.00061785354,0.0066685556,-0.0028549086,0.0047981013,0.0045802584,0.0043745795,6.2571286e-05,0.00010570365,8.132367e-05,11.832729,11.832729
140036000,1310988,1310988,0,0,0,0,0,0,0,0,250.0,250.0,250.0,250.0,0.08375123,0.0113073755,1.2257635e-10,0.008714894,-0.007086664,-9.832795,0.0022796663,-0.0028122982,0.001768339,0.0063130073,0.004392051,0.005341444,6.370229e-05,8.148064e-05,8.9287045e-05,11.832729,11.832729
141036000,1310988,1310988,0,0,0,0,0,0,0,0,250.0,250.0,250.0,250.0,0.08159646,0.010702494,1.0805419e-10,0.018674774,-0.009768171,-9.818525,0.0028762142,-0.003387541,0.0009161273,0.0043636383,0.0056342385,0.0035102782,5.9954655e-05,6.862822e-05,7.04401e-05,11.832729,11.832729
142036000,1310988,1310988,0,0,0,0,0,0,0,0,250.0,250.0,250.0,250.0,0.08588779,0.010510723,1.512549e-10,0.038977604,-0.038307056,-9.79468,-0.0006817691,-0.00010652617,-0.0012570121,0.010492088,0.008234786,0.0060943365,5.7579164e-05,0.00013087892,0.00019347858,11.832729,11.832729
143036000,1310988,1310988,0,0,0,0,0,0,0,0,250.0,250.0,250.0,250.0,0.07997231,0.01013607,1.1037667e-10,0.04175488,-0.027006423,-9.821973,-0.0052197957,0.0047297743,0.0040480047,0.003263572,0.0046218364,0.0038329423,3.503659e-05,5.816547e-05,8.125558e-05,11.832729,11.832729
144036000,1310988,1310988,0,0,0,0,0,0,0,0,250.0,250.0,250.0,250.0,0.09018778,0.011047835,1.5164937e-10,-0.016950948,-0.03361442,-9.803681,0.0037710362,0.0052624065,0.0020666127,0.006583873,0.009337509,0.00763064,0.00010692826,5.918205e-05,9.8757795e-05,11.832729,11.832729
145036000,1310988,1310988,0,0,0,0,0,0,0,0,250.0,250.0,250.0,250.0,0.08514864,0.0101006925,7.706459e-11,0.011492168,-0.024899526,-9.802245,-0.00023435819,-0.0015339807,0.0017257285,0.004962654,0.003739784,0.0047518485,4.5180655e-05,4.4264314e-05,0.00010542374,11.832729,11.832729
146036000,1310988,1310988,0,0,0,0,0,0,0,0,250.0,250.0,250.0,250.0,0.0814248,0.010700497,1.4333891e-10,0.0062249247,-0.013981968,-9.7942,-0.0014913701,0.00040480046,-0.00038349512,0.0041725654,0.003409552,0.0034259667,9.461299e-05,4.7265825e-05,0.00013098579,11.832729,11.832729
147036000,1310988,1310988,0,0,0,0,0,0,0,0,250.0,250.0,250.0,250.0,0.08095623,0.010912526,1.1677488e-10,0.035434183,-0.03371019,-9.784815,0.0021092235,-6.3915715e-05,-0.0044315,0.00345604,0.0021963506,0.006488067,5.119503e-05,8.294169e-05,0.0001426221,11.832729,11.832729
148036000,1310988,1310988,0,0,0,0,0,0,0,0,250.0,250.0,250.0,250.0,0.13690059,0.0106300535,1.6612044e-10,0.015418652,0.0031605174,-9.80847,-0.00080960116,-0.0061572283,0.00034088455,0.09617014,0.0035332907,0.9847759,0.000103670485,0.00022357883,8.4420695e-05,11.832729,11.832729
149036000,1310988,1310988,0,0,0,0,0,0,0,0,250.0,250.0,250.0,250.0,0.08344696,0.011115533,1.3916047e-10,0.03083732,0.010821963,-9.82293,0.0029614354,0.0031744882,0.0021731395,0.005915785,0.0059510386,0.0037703607,0.00011423725,7.443455e-05,0.0001064318,11.832729,11.832729
150036000,1310988,1310988,0,0,0,0,0,0,0,0,250.0,250.0,250.0,250.0,0.083890736,0.010741048,1.58949e-10,0.021260511,0.003352054,-9.7942,-0.0026418557,-0.0061572287,-0.0023648872,0.008372034,0.005295599,0.0034412504,0.000110014895,9.837386e-05,8.170666e-05,11.832729,11.832729
151036000,1310988,1310988,0,0,0,0,0,0,0,0,250.0,250.0,250.0,250.0,0.08070112,0.010571804,1.2350407e-10,0.013120226,0.024421029,-9.8042555,-0.0008735167,0.0008522117,-0.0005752429,0.0054098233,0.004460131,0.0063680233,6.163036e-05,8.430532e-05,0.00012964768,11.832729,11.832729
152036000,1310988,1310988,0,0,0,0,0,0,0,0,250.0,250.0,250.0,250.0,0.083885096,0.011164431,1.1654452e-10,-0.0015322883,0.010247355,-9.805406,-0.0045167212,-0.000873517,0.0030253509,0.006465866,0.00418189,0.0065944977,4.78058e-05,0.00015503762,7.732448e-05,11.832729,11.832729
153036000,1310988,1310988,0,0,0,0,0,0,0,0,250.0,250.0,250.0,250.0,0.08392746,0.010704421,1.597864e-10,0.02173935,-0.014077736,-9.7897,0.005070659,-0.0014061494,0.0035153728,0.0034383275,0.0060395054,0.004159662,6.208522e-05,0.00014536829,8.5771084e-05,11.832729,11.832729
154036000,1310988,1310988,0,0,0,0,0,0,0,0,250.0,250.0,250.0,250.0,0.07961739,0.010087321,1.3603493e-10,0.0362961,-0.015897328,-9.813833,0.0029401297,0.0016618125,-0.00624245,0.007923184,0.006688467,0.0036858206,4.9933526e-05,0.00011856931,9.2875816e-05,11.832729,11.832729
155036000,1310988,1310988,0,0,0,0,0,0,0,0,250.0,250.0,250.0,250.0,0.080714986,0.010794763,1.3065496e-10,-0.013024459,0.019632624,-9.808374,0.00034088443,2.1305443e-05,-0.002428803,0.0033935017,0.008188451,0.004456079,5.8935235e-05,7.4434545e-05,0.00014499476,11.832729,11.832729
156036000,1310988,1310988,0,0,0,0,0,0,0,0,250.0,250.0,250.0,250.0,0.07533963,0.010608482,1.173389e-10,0.032561146,0.010343122,-9.805693,0.0024074977,0.0006178534,0.0019600866,0.004378447,0.0030904785,0.0021667797,6.2699895e-05,5.6448156e-05,0.000110729816,11.832729,11.832729
157036000,1310988,1310988,0,0,0,0,0,0,0,0,250.0,250.0,250.0,250.0,0.0774248,0.011552115,1.4195779e-10,0.021260513,-0.014939647,-9.813258,0.0020453075,-0.0017044231,-0.001576591,0.00598696,0.0029813563,0.0053115273,6.205117e-05,0.00010260378,0.00013060658,11.832729,11.832729
158036000,1310988,1310988,0,0,0,0,0,0,0,0,250.0,250.0,250.0,250.0,0.0818351,0.011077382,8.835872e-11,0.062823854,-0.003255944,-9.796595,-0.001320928,0.0013635384,-0.000106526226,0.0051997183,0.005401588,0.0025088096,6.650617e-05,4.9885297e-05,6.60305e-05,11.832729,11.832729
159036000,1310988,1310988,0,0,0,0,0,0,0,0,250.0,250.0,250.0,250.0,0.07857806,0.010708395,1.1418537e-10,0.03169923,-0.008523188,-9.808183,0.003323625,5.6176036e-11,0.0034514568,0.004521886,0.0051743058,0.0040196697,0.00012563715,7.7591154e-05,5.1730276e-05,11.832729,11.832729
160036000,1310988,1310988,0,0,0,0,0,0,0,0,250.0,250.0,250.0,250.0,0.08073384,0.010969357,1.1879302e-10,0.029017724,-0.007469739,-9.799755,-0.0061785337,-0.003323625,-0.0012996227,0.004519039,0.004894498,0.002452103,6.0876668e-05,0.00013180757,2.5889252e-05,11.832729,11.832729
161036000,1310988,1310988,0,0,0,0,0,0,0,0,250.0,250.0,250.0,250.0,0.078727625,0.011056169,1.490558e-10,0.034955345,-0.0186746,-9.8328905,0.0018961708,-0.0011291805,0.003025351,0.0040025096,0.004332589,0.003548001,6.21552e-05,0.00011098041,9.460636e-05,11.832729,11.832729
162036000,1310988,1310988,0,0,0,0,0,0,0,0,250.0,250.0,250.0,250.0,0.081344485,0.010921599,1.5856802e-10,0.02825158,-0.0076612737,-9.824176,0.0035792887,0.0015126753,0.0054115434,0.0031646532,0.0034269015,0.005750725,0.00012502815,0.00011401503,7.425015e-05,11.832729,11.832729
163036000,1310988,1310988,0,0,0,0,0,0,0,0,250.0,250.0,250.0,250.0,0.07410388,0.010880353,1.4266949e-10,0.008619126,-0.0009575093,-9.819962,-0.00083090615,0.0042184475,0.0015126759,0.002039231,0.0034054057,0.0049393037,9.792467e-05,8.903172e-05,8.280834e-05,11.832729,11.832729
164036000,1310988,1310988,0,0,0,0,0,0,0,0,250.0,250.0,250.0,250.0,0.08026443,0.010647326,1.4613279e-10,-0.015035588,-0.011683534,-9.776484,0.00027696876,0.002450108,-0.0006178532,0.004370097,0.008566451,0.0049846442,6.546594e-05,0.00012451939,0.00011935798,11.832729,11.832729
165036000,1310988,1310988,0,0,0,0,0,0,0,0,250.0,250.0,250.0,250.0,0.07919068,0.011381738,1.5396906e-10,-0.019632455,-0.029400624,-9.811822,-0.0028336036,-0.0029401297,0.0044101947,0.0052750586,0.0056354804,0.0036340933,0.00013524597,9.010031e-05,4.8926402e-05,11.832729,11.832729
166036000,1310988,1310988,0,0,0,0,0,0,0,0,250.0,250.0,250.0,250.0,0.08209162,0.011129214,1.09313746e-10,0.054779332,0.0047885743,-9.802819,0.003004046,-0.00046871617,0.0016831179,0.005167733,0.003303659,0.0035458568,5.0589813e-05,0.00010228037,7.2831666e-05,11.832729,11.832729
167036000,1310988,1310988,0,0,0,0,0,0,0,0,250.0,250.0,250.0,250.0,0.08784039,0.011049108,1.3000416e-10,0.008714895,0.0048843427,-9.8218775,0.0010652645,0.003004046,-0.00010652643,0.0074389074,0.004481856,0.0047992477,9.466027e-05,0.0001014898,5.4871747e-05,11.832729,11.832729
168036000,1310988,1310988,0,0,0,0,0,0,0,0,250.0,250.0,250.0,250.0,0.089636296,0.010702916,1.2547863e-10,0.026815057,-0.014843878,-9.830784,-0.0034514568,-0.0006178534,-0.004197142,0.0051742676,0.0039117504,0.00509879,5.697867e-05,0.000116828356,7.5589196e-05,11.832729,11.832729
169036000,1310988,1310988,0,0,0,0,0,0,0,0,250.0,250.0,250.0,250.0,0.076728635,0.010701703,1.14558536e-10,0.0365834,0.022314131,-9.791136,-0.0016192021,0.00068176934,-0.0015978966,0.006712179,0.0028755208,0.0052803843,5.8571153e-05,7.928199e-05,7.896236e-05,11.832729,11.832729
170036000,1310988,1310988,0,0,0,0,0,0,0,0,250.0,250.0,250.0,250.0,0.08378546,0.010923514,1.2769556e-10,0.028251579,-0.0058416813,-9.80349,-0.002876214,-0.00042610583,-0.00330232,0.0045580557,0.007782935,0.006780609,6.770904e-05,0.0001488464,7.796942e-05,11.832729,11.832729
171036000,1310988,1310988,0,0,0,0,0,0,0,0,250.0,250.0,250.0,250.0,0.08114321,0.010490025,1.3466193e-10,-0.031986535,-0.015035416,-9.810673,-0.0035792883,0.0029401297,0.0017470337,0.0037516688,0.003804042,0.004727516,7.597219e-05,5.3408814e-05,0.00015611661,11.832729,11.832729
172036000,1310988,1310988,0,0,0,0,0,0,0,0,250.0,250.0,250.0,250.0,0.08374339,0.011254018,1.2366247e-10,-0.009289503,0.013886542,-9.800713,0.00025566353,0.0045167212,-0.00040480043,0.005345909,0.0042222445,0.005425138,0.00010125906,0.0001121814,4.958269e-05,11.832729,11.832729
173036000,1310988,1310988,0,0,0,0,0,0,0,0,250.0,250.0,250.0,250.0,0.08149403,0.010068007,1.5776574e-10,0.014460977,-0.022409556,-9.824463,-0.0028975194,0.0067537767,-0.0054967646,0.005545657,0.002064013,0.006577288,7.7616685e-05,8.8034045e-05,0.0001394305,11.832729,11.832729
174036000,1310988,1310988,0,0,0,0,0,0,0,0,250.0,250.0,250.0,250.0,0.08135105,0.011148763,1.724515e-10,0.016950948,-0.014652343,-9.783474,0.00330232,0.0024288031,-0.0028975192,0.004083678,0.011303577,0.004487717,7.865502e-05,0.00017109489,6.9223985e-05,11.832729,11.832729
175036000,1310988,1310988,0,0,0,0,0,0,0,0,250.0,250.0,250.0,250.0,0.07746945,0.0110118035,1.7699496e-10,0.029209262,0.005650485,-9.801575,-0.00027696876,-0.00330232,0.0030466563,0.0055473386,0.0046315617,0.004773653,0.00015941696,6.9813126e-05,8.1126025e-05,11.832729,11.832729
176036000,1310988,1310988,0,0,0,0,0,0,0,0,250.0,250.0,250.0,250.0,0.08141064,0.010583022,1.5311544e-10,0.030837318,-0.020589963,-9.789316,-0.0025353292,-0.004261058,-0.00049002166,0.007258553,0.0052635944,0.0075953165,8.568315e-05,9.083035e-05,6.900742e-05,11.832729,11.832729
177036000,1310988,1310988,0,0,0,0,0,0,0,0,250.0,250.0,250.0,250.0,0.081649005,0.010895738,1.2548458e-10,0.016184803,-0.029017555,-9.806555,0.004239753,0.00040480052,0.0026205503,0.0042959414,0.0065573147,0.005207952,0.00012892803,6.116698e-05,3.6003996e-05,11.832729,11.832729
178036000,1310988,1310988,0,0,0,0,0,0,0,0,250.0,250.0,250.0,250.0,0.08161626,0.01077746,1.2896302e-10,0.014748282,-0.008331652,-9.830976,0.0014487598,0.0049854373,-0.0009161273,0.0024078495,0.0068070474,0.004828278,7.438821e-05,7.8864956e-05,9.384511e-05,11.832729,11.832729
179036000,1310988,1310988,0,0,0,0,0,0,0,0,250.0,250.0,250.0,250.0,0.07900753,0.011040627,2.374715e-10,0.06368577,-0.00076597364,-9.800426,-0.0017044231,0.0011078751,0.0038562573,0.005456101,0.0028702663,0.0032229403,0.00012619793,0.00015771005,0.00013140566,11.832729,11.832729
180036000,1310988,1310988,0,0,0,0,0,0,0,0,250.0,250.0,250.0,250.0,0.082822315,0.01090265,1.2472061e-10,-0.001819591,0.0029689816,-9.7938175,0.0031318774,-0.0009800433,0.0003195794,0.0064674905,0.0044301706,0.0048685074,7.859166e-05,4.5573102e-05,0.000108443215,11.832729,11.832729
