timestamp,timestamp_sample,device_id,magnetometer_ga[0],magnetometer_ga[1],magnetometer_ga[2],calibration_count
1248000,1248000,197388,0.0056561097,-0.21644402,0.42905512,0
1380000,1319636,197388,0.010038784,-0.21581237,0.4298007,0
1392000,1392000,197388,0.007851101,-0.21495639,0.42153874,0
1524000,1463636,197388,0.0102068335,-0.2177987,0.4289508,0
1536000,1536000,197388,0.011623987,-0.21909183,0.4227241,0
1664000,1607636,197388,0.010244485,-0.2171345,0.42916885,0
1680000,1680000,197388,0.007826733,-0.2124577,0.43498978,0
1812000,1751636,197388,0.008334399,-0.21587203,0.42830285,0
1824000,1824000,197388,0.013755494,-0.21546198,0.4297465,0
1956000,1895636,197388,0.009916232,-0.21515001,0.4305286,0
1968000,1968000,197388,0.0067678685,-0.21014261,0.42815337,0
2100000,2039272,197388,0.009476639,-0.21523856,0.429559,0
2112000,2112000,197388,0.0068592723,-0.2264844,0.43544698,0
2244000,2184000,197388,0.0094643645,-0.21607432,0.42818922,0
2256000,2256000,197388,0.009598426,-0.21498296,0.4251939,0
2388000,2328000,197388,0.00966748,-0.21524522,0.42815462,0
2400000,2400000,197388,0.0110216355,-0.21137723,0.42361602,0
2532000,2471272,197388,0.010466273,-0.21532777,0.427365,0
2544000,2544000,197388,0.015901394,-0.21525575,0.43650934,0
2676000,2616000,197388,0.008781858,-0.2153973,0.4297381,0
2688000,2688000,197388,0.004656426,-0.21919428,0.4289531,0
2820000,2759636,197388,0.0109252455,-0.21585914,0.42888546,0
2832000,2832000,197388,0.010354972,-0.21860725,0.42534843,0
2964000,2904000,197388,0.011801319,-0.21643943,0.42816472,0
2976000,2976000,197388,0.003865701,-0.2173907,0.4300936,0
3108000,3048000,197388,0.008986926,-0.21562818,0.43075722,0
3120000,3120000,197388,0.012903935,-0.21162248,0.42832938,0
3252000,3192000,197388,0.01089568,-0.21590541,0.43159977,0
3264000,3264000,197388,0.015214064,-0.216379,0.43376076,0
3396000,3335272,197388,0.006957575,-0.21549161,0.42917714,0
3408000,3408000,197388,0.006746046,-0.21840955,0.4280996,0
3540000,3480000,197388,0.009850428,-0.21308978,0.42967784,0
3552000,3552000,197388,0.011176178,-0.21356152,0.43094608,0
3684000,3624000,197388,0.008801581,-0.21626729,0.4297198,0
3696000,3696000,197388,0.00907263,-0.21940787,0.42672274,0
3828000,3768000,197388,0.010846029,-0.21600126,0.42950848,0
3840000,3840000,197388,0.011889619,-0.21622892,0.42781097,0
3972000,3912000,197388,0.009516013,-0.21577719,0.4285837,0
3984000,3984000,197388,0.0069049895,-0.21995589,0.43037337,0
4116000,4055272,197388,0.00799651,-0.21444134,0.42801607,0
4128000,4128000,197388,0.008167073,-0.22039513,0.4315867,0
4260000,4199636,197388,0.010598329,-0.21693484,0.42845884,0
4272000,4272000,197388,0.011967709,-0.21972081,0.42510173,0
4404000,4344000,197388,0.009036995,-0.21455714,0.42861438,0
4416000,4416000,197388,0.0105440505,-0.20994622,0.42719066,0
4548000,4487272,197388,0.010410647,-0.21695375,0.4293929,0
4560000,4560000,197388,0.0057817376,-0.21710688,0.42763823,0
4692000,4631636,197388,0.010181694,-0.21698432,0.42984313,0
4704000,4704000,197388,0.011510804,-0.21479385,0.4320204,0
4836000,4775636,197388,0.012829408,-0.2158644,0.42937446,0
4848000,4848000,197388,0.012440317,-0.21379058,0.4292833,0
4980000,4920000,197388,0.011072164,-0.21636818,0.42884788,0
4992000,4992000,197388,0.00018592148,-0.21382634,0.4331573,0
5124000,5063636,197388,0.010638326,-0.21763237,0.42827243,0
5136000,5136000,197388,0.007988737,-0.21791294,0.4313535,0
5268000,5208000,197388,0.010667646,-0.21510318,0.42904547,0
5280000,5280000,197388,0.0069457865,-0.21301867,0.42866018,0
5412000,5352000,197388,0.009960196,-0.2174454,0.42681727,0
5424000,5424000,197388,0.011253961,-0.22113498,0.43212017,0
5556000,5496000,197388,0.011719449,-0.21576798,0.4310894,0
5568000,5568000,197388,0.009117975,-0.20764518,0.4280289,0
5700000,5639636,197388,0.009458634,-0.21599454,0.42965406,0
5712000,5712000,197388,0.006182937,-0.21847288,0.42707652,0
5844000,5784000,197388,0.008360278,-0.21680287,0.42719188,0
5856000,5856000,197388,0.009596171,-0.21597472,0.4317481,0
5988000,5928000,197388,0.010929837,-0.21691425,0.4289709,0
6000000,6000000,197388,0.009485354,-0.21520244,0.4298198,0
6132000,6072000,197388,0.011676725,-0.21567638,0.42925182,0
6144000,6144000,197388,0.011546408,-0.22074114,0.43010145,0
6276000,6216000,197388,0.011607134,-0.21541198,0.4286488,0
6288000,6288000,197388,0.0074101053,-0.21908641,0.43264544,0
6420000,6359636,197388,0.009974253,-0.21542148,0.43002963,0
6432000,6432000,197388,0.009150046,-0.2142015,0.43373054,0
6564000,6503272,197388,0.008264642,-0.21670869,0.42960972,0
6576000,6576000,197388,0.010819217,-0.21263213,0.42458707,0
6704000,6647272,197388,0.010218048,-0.21505922,0.42872757,0
6720000,6720000,197388,0.0032847107,-0.21615365,0.42591348,0
6852000,6791636,197388,0.0105782775,-0.2157098,0.4277745,0
6864000,6864000,197388,0.012677295,-0.21296278,0.4306088,0
6996000,6936000,197388,0.009377642,-0.21557535,0.42958745,0
7008000,7008000,197388,0.010383647,-0.21142933,0.4321266,0
7140000,7079636,197388,0.010455789,-0.21399458,0.42882285,0
7152000,7152000,197388,0.012127366,-0.21467537,0.42338407,0
7284000,7224000,197388,0.0095125185,-0.21702035,0.42778882,0
7292000,7292000,197388,0.008531988,-0.21579343,0.43161052,0
7416000,7362000,197388,0.009652554,-0.21541123,0.43016815,0
7440000,7434000,197388,0.011697531,-0.21777436,0.4267978,0
7560000,7505600,197388,0.0092986105,-0.21780287,0.42791256,0
7584000,7578000,197388,0.011332997,-0.21554218,0.43415844,0
7704000,7649600,197388,0.009372688,-0.2164206,0.4297676,0
7728000,7722000,197388,0.01031141,-0.21955998,0.43080235,0
7848000,7794000,197388,0.010909541,-0.2155089,0.42948285,0
7872000,7866000,197388,0.010948038,-0.21189788,0.427658,0
7992000,7937200,197388,0.010728686,-0.21506777,0.4293378,0
8004000,8004000,197388,0.013892714,-0.21719795,0.42950895,0
8136000,8076000,197388,0.008604362,-0.21486752,0.43055767,0
8148000,8148000,197388,0.005481605,-0.21304272,0.43378916,0
8280000,8219272,197388,0.010558178,-0.21318725,0.43244252,0
8292000,8292000,197388,0.011640849,-0.21064766,0.42993912,0
8424000,8362909,197388,0.009202777,-0.21713838,0.43048206,0
8436000,8436000,197388,0.011110598,-0.20716718,0.42768207,0
8568000,8507636,197388,0.012351223,-0.21674213,0.42835325,0
8580000,8580000,197388,0.017117437,-0.21163836,0.43269616,0
8712000,8652000,197388,0.009596248,-0.21523646,0.42718655,0
8720000,8720000,197388,0.0073649255,-0.211225,0.43196177,0
8844000,8788800,197388,0.010609358,-0.21697555,0.42931244,0
8856000,8856000,197388,0.006526998,-0.21953362,0.42977136,0
8988000,8928000,197388,0.011488569,-0.21704258,0.42799968,0
9000000,9000000,197388,0.006914685,-0.21707478,0.42752537,0
9132000,9071636,197388,0.005893552,-0.21653031,0.4301501,0
9144000,9144000,197388,0.017270766,-0.21505523,0.42614707,0
9272000,9215636,197388,0.010629882,-0.21603864,0.42809063,0
9288000,9288000,197388,0.008198866,-0.21279456,0.4286737,0
9420000,9360000,197388,0.0085979,-0.21489517,0.43070018,0
9432000,9432000,197388,0.013859528,-0.21667127,0.42616636,0
9564000,9502909,197388,0.008858343,-0.21629408,0.42698035,0
9576000,9576000,197388,0.009697707,-0.21712257,0.43344513,0
9708000,9647272,197388,0.010195267,-0.21653426,0.4292636,0
9720000,9720000,197388,0.006137067,-0.21200605,0.4309583,0
9848000,9791636,197388,0.00869618,-0.21564029,0.42629346,0
9864000,9864000,197388,0.012817923,-0.20988823,0.435837,0
9996000,9935272,197388,0.009106472,-0.21698646,0.42924285,0
10008000,10008000,197388,0.0061730584,-0.21533777,0.4238707,0
10140000,10079636,197388,0.009473026,-0.21631458,0.42993638,0
10152000,10152000,197388,0.010214753,-0.21912782,0.43088898,0
10280000,10223636,197388,0.008237018,-0.21695685,0.4291427,0
10296000,10296000,197388,0.010632566,-0.21027684,0.42874533,0
10428000,10367272,197388,0.008803102,-0.21608381,0.4311959,0
10440000,10440000,197388,0.006391226,-0.21611375,0.42737782,0
10568000,10510545,197388,0.009332955,-0.21509017,0.4276504,0
10584000,10584000,197388,0.011131395,-0.22025545,0.43219674,0
10716000,10656000,197388,0.009157057,-0.21600938,0.4276175,0
10728000,10728000,197388,0.005305911,-0.2163519,0.42223766,0
10860000,10799272,197388,0.01001486,-0.21719205,0.42998323,0
10872000,10872000,197388,0.007047631,-0.21959518,0.43010268,0
11004000,10943636,197388,0.009483491,-0.21595839,0.42944857,0
11016000,11016000,197388,0.007408005,-0.21584798,0.42869678,0
11148000,11088000,197388,0.009602337,-0.21526578,0.42855957,0
11160000,11160000,197388,0.010937045,-0.21992597,0.43479836,0
11292000,11232000,197388,0.011232552,-0.21472706,0.42955852,0
11304000,11304000,197388,0.0065176305,-0.21523821,0.42972714,0
11436000,11376000,197388,0.009199845,-0.21569896,0.42878342,0
11448000,11448000,197388,0.010383061,-0.21967238,0.42820033,0
11580000,11520000,197388,0.008742282,-0.21520226,0.43050027,0
11592000,11592000,197388,0.0061895414,-0.21736248,0.43490314,0
11724000,11663636,197388,0.009599419,-0.2145828,0.42905992,0
11736000,11736000,197388,0.005065791,-0.22012429,0.4199899,0
11868000,11807636,197388,0.009681484,-0.21590494,0.42896843,0
11880000,11880000,197388,0.009935102,-0.21864791,0.4287797,0
12008000,11951636,197388,0.007910293,-0.21643737,0.4314691,0
12024000,12024000,197388,0.014596087,-0.2158001,0.43050855,0
12156000,12096000,197388,0.009204156,-0.2173357,0.42951941,0
12168000,12168000,197388,0.010580442,-0.21324147,0.43060273,0
12300000,12240000,197388,0.01060612,-0.2157061,0.43020207,0
12312000,12312000,197388,0.0063622673,-0.22002816,0.43246537,0
12440000,12383272,197388,0.0083265975,-0.21620707,0.4290136,0
12456000,12456000,197388,0.0124398265,-0.2181385,0.42732212,0
12588000,12528000,197388,0.007963906,-0.21562223,0.42876783,0
12600000,12600000,197388,0.004739561,-0.21051972,0.43088013,0
12732000,12672000,197388,0.0105503695,-0.21523951,0.42912823,0
12744000,12744000,197388,0.006791711,-0.20842385,0.42681196,0
12876000,12816000,197388,0.0093768835,-0.21498215,0.42760274,0
12888000,12888000,197388,0.012325219,-0.21899323,0.43348277,0
13020000,12960000,197388,0.008383113,-0.21459836,0.42851686,0
13032000,13032000,197388,0.008046919,-0.21210876,0.4341723,0
13164000,13103636,197388,0.010232191,-0.21839282,0.42819944,0
13176000,13176000,197388,0.0096275285,-0.21172185,0.42871815,0
13308000,13248000,197388,0.009588085,-0.21817724,0.429148,0
13320000,13320000,197388,0.00938387,-0.22100729,0.42773452,0
13452000,13390909,197388,0.010747897,-0.2153795,0.42814273,0
13464000,13464000,197388,0.008041255,-0.216447,0.4248265,0
13592000,13534545,197388,0.00995905,-0.21678962,0.42832956,0
13608000,13608000,197388,0.010435999,-0.21982743,0.43270066,0
13740000,13680000,197388,0.010132943,-0.21615884,0.42751122,0
13752000,13752000,197388,0.0042621414,-0.21962191,0.42377856,0
13880000,13823636,197388,0.008131412,-0.21417683,0.42997518,0
13896000,13896000,197388,0.004086611,-0.21617948,0.43295676,0
14024000,13967636,197388,0.009637335,-0.21611151,0.42723405,0
14040000,14040000,197388,0.014157398,-0.21615355,0.42555347,0
14172000,14112000,197388,0.009246097,-0.2167697,0.4291672,0
14184000,14184000,197388,0.00943627,-0.21850228,0.42826715,0
14316000,14256000,197388,0.009875373,-0.21737346,0.43208167,0
14328000,14328000,197388,0.017288312,-0.21729593,0.4280453,0
14460000,14399272,197388,0.00801493,-0.21656388,0.43057698,0
14472000,14472000,197388,0.010460281,-0.21654108,0.42747602,0
14604000,14543636,197388,0.008570551,-0.21620949,0.4294103,0
14616000,14616000,197388,0.008726342,-0.21743372,0.4292684,0
14748000,14688000,197388,0.009798005,-0.2167104,0.42855534,0
14760000,14760000,197388,0.0058623757,-0.218787,0.43037027,0
14892000,14831636,197388,0.011396637,-0.21709532,0.42971206,0
14904000,14904000,197388,0.009404894,-0.21581416,0.42712152,0
15036000,14976000,197388,0.010373333,-0.21625552,0.4300301,0
15048000,15048000,197388,0.012169817,-0.21010041,0.4367585,0
15180000,15120000,197388,0.01054848,-0.21513483,0.42765462,0
15192000,15192000,197388,0.006836408,-0.21247767,0.42390627,0
15324000,15264000,197388,0.009346498,-0.21541674,0.4299562,0
15336000,15336000,197388,0.011133097,-0.21489385,0.4272896,0
15468000,15408000,197388,0.008401324,-0.21510582,0.42852512,0
15480000,15480000,197388,0.013600991,-0.21473923,0.43236634,0
15612000,15551636,197388,0.010275738,-0.21749625,0.4291688,0
15624000,15624000,197388,0.006618361,-0.21085176,0.4327778,0
15756000,15696000,197388,0.012212598,-0.2161395,0.4302115,0
15768000,15768000,197388,0.0009398438,-0.21468106,0.42968288,0
15900000,15839636,197388,0.007913971,-0.21487746,0.43057314,0
15912000,15912000,197388,0.009895297,-0.21611173,0.4306519,0
16044000,15983636,197388,0.010235402,-0.2149867,0.43020713,0
16056000,16056000,197388,0.012117363,-0.21039082,0.42607784,0
16188000,16128000,197388,0.010171085,-0.21608026,0.43096995,0
16200000,16200000,197388,0.015905129,-0.20941788,0.4328029,0
16332000,16272000,197388,0.012125319,-0.21531698,0.43073738,0
16344000,16344000,197388,0.0037119684,-0.21441598,0.43162483,0
16476000,16415636,197388,0.0108265905,-0.21597037,0.4294494,0
16488000,16488000,197388,0.00942778,-0.21209039,0.43026435,0
16620000,16560000,197388,0.010416462,-0.21568558,0.43045136,0
16632000,16632000,197388,0.008271578,-0.21867749,0.42710873,0
16764000,16704000,197388,0.009339414,-0.21658419,0.42924067,0
16776000,16776000,197388,0.008069082,-0.21756318,0.4347152,0
16908000,16847636,197388,0.011699319,-0.2163052,0.4293161,0
16920000,16920000,197388,0.008251222,-0.21330683,0.4310565,0
17052000,16992000,197388,0.01126955,-0.21591966,0.43049663,0
17064000,17064000,197388,0.012218973,-0.2160012,0.42974484,0
17196000,17136000,197388,0.009877806,-0.21478526,0.43140897,0
17208000,17208000,197388,0.008171958,-0.21600917,0.42850634,0
17336000,17279636,197388,0.010338478,-0.21856841,0.42871672,0
17352000,17352000,197388,0.005978497,-0.22291058,0.42903233,0
17480000,17423272,197388,0.008476808,-0.21725981,0.42736697,0
17496000,17496000,197388,0.014393534,-0.21374765,0.42646247,0
17624000,17567636,197388,0.009763976,-0.21653585,0.42930418,0
17640000,17640000,197388,0.0083507,-0.21572506,0.43476203,0
17772000,17712000,197388,0.010060934,-0.21559937,0.42974672,0
17784000,17784000,197388,0.011703949,-0.21570906,0.42870513,0
17916000,17855636,197388,0.009695055,-0.21490897,0.42902088,0
17928000,17928000,197388,0.004932746,-0.20564032,0.42707956,0
18060000,17999636,197388,0.010130234,-0.21613874,0.43000114,0
18072000,18072000,197388,0.007878315,-0.20719345,0.4338169,0
18204000,18143272,197388,0.008739412,-0.21598971,0.42972878,0
18216000,18216000,197388,0.01380734,-0.21798836,0.43201333,0
18348000,18287636,197388,0.009042974,-0.21560308,0.43012518,0
18360000,18360000,197388,0.012888559,-0.21840982,0.4323962,0
18492000,18432000,197388,0.009126059,-0.21616496,0.42919254,0
18504000,18504000,197388,0.013436266,-0.21564916,0.44050914,0
18636000,18576000,197388,0.008706288,-0.21619348,0.42761332,0
18648000,18648000,197388,0.011724611,-0.21904354,0.43409157,0
18776000,18719636,197388,0.009497508,-0.21741527,0.42999473,0
18792000,18792000,197388,0.0075378367,-0.2244488,0.42661792,0
18924000,18864000,197388,0.009516828,-0.21544854,0.4309778,0
18936000,18936000,197388,0.0051939767,-0.21381097,0.42901972,0
19068000,19008000,197388,0.009171394,-0.21533084,0.42963874,0
19080000,19080000,197388,0.009439798,-0.21373487,0.432272,0
19212000,19152000,197388,0.010256999,-0.21458681,0.4313857,0
19224000,19224000,197388,0.008626423,-0.21642599,0.43583846,0
19356000,19296000,197388,0.009454292,-0.2167697,0.42890355,0
19368000,19368000,197388,0.009303633,-0.21500775,0.42962968,0
19500000,19440000,197388,0.009722483,-0.21593162,0.42785946,0
19512000,19512000,197388,0.011701904,-0.2125665,0.43064,0
19644000,19583636,197388,0.009381664,-0.21470563,0.42982,0
19656000,19656000,197388,0.011422015,-0.2171006,0.42918795,0
19788000,19728000,197388,0.010387681,-0.21510343,0.42941347,0
19800000,19800000,197388,0.006296341,-0.22254619,0.42702124,0
19932000,19871636,197388,0.010342851,-0.21658807,0.43016067,0
19944000,19944000,197388,0.01011239,-0.20916934,0.4287256,0
20076000,20016000,197388,0.010736036,-0.21709527,0.42835158,0
20088000,20088000,197388,0.01032306,-0.21411647,0.4264361,0
20220000,20159636,197388,0.009777185,-0.21496463,0.42809653,0
20232000,20232000,197388,0.0062597166,-0.22014178,0.4303851,0
20364000,20304000,197388,0.008928426,-0.21451454,0.42964533,0
20376000,20376000,197388,0.0060993102,-0.21827477,0.42698458,0
20508000,20447636,197388,0.010321546,-0.21518926,0.42912692,0
20520000,20520000,197388,0.010253103,-0.21746796,0.42693022,0
20652000,20591636,197388,0.009327238,-0.21588998,0.42987114,0
20664000,20664000,197388,0.011503192,-0.2178164,0.43308178,0
20796000,20735272,197388,0.008571851,-0.21504587,0.42825708,0
20808000,20808000,197388,0.00841049,-0.21630469,0.43022603,0
20940000,20879636,197388,0.0076275966,-0.2149944,0.43045998,0
20952000,20952000,197388,0.009744053,-0.22008799,0.42691803,0
21084000,21023636,197388,0.01061422,-0.21593003,0.4305617,0
21096000,21096000,197388,0.012460736,-0.22202815,0.4351572,0
21228000,21167636,197388,0.009934713,-0.2159005,0.4287361,0
21240000,21240000,197388,0.01267492,-0.21089499,0.42627004,0
21372000,21312000,197388,0.008269486,-0.21348,0.42943302,0
21384000,21384000,197388,0.002265461,-0.21763141,0.43303075,0
21516000,21456000,197388,0.008140268,-0.21656005,0.42907867,0
21528000,21528000,197388,0.010740434,-0.2173261,0.430827,0
21660000,21600000,197388,0.010626549,-0.21525776,0.4295393,0
21672000,21672000,197388,0.011240837,-0.21291064,0.42490923,0
21804000,21743636,197388,0.010226128,-0.21434855,0.42904395,0
21816000,21816000,197388,0.009065591,-0.20983887,0.42864057,0
21948000,21888000,197388,0.010244732,-0.21278295,0.43038863,0
21960000,21960000,197388,0.0061904383,-0.21522512,0.4281193,0
22092000,22031272,197388,0.00897324,-0.21413264,0.42934346,0
22104000,22104000,197388,0.009801945,-0.21952611,0.4332519,0
22236000,22175636,197388,0.009466782,-0.21640947,0.42769718,0
22248000,22248000,197388,0.016471753,-0.21005386,0.42426604,0
22380000,22320000,197388,0.009103835,-0.21581586,0.4293917,0
22392000,22392000,197388,0.01090789,-0.21715254,0.4285467,0
22524000,22463272,197388,0.008681144,-0.21566224,0.4303927,0
22536000,22536000,197388,0.008661624,-0.21910079,0.42619315,0
22668000,22608000,197388,0.008964148,-0.21414241,0.42872587,0
22680000,22680000,197388,0.0023509588,-0.2131408,0.42855203,0
22812000,22751636,197388,0.00906113,-0.21496424,0.43031383,0
22824000,22824000,197388,0.0076398733,-0.21258782,0.42942372,0
22956000,22896000,197388,0.010648723,-0.2147467,0.4284041,0
22968000,22968000,197388,0.012548861,-0.21802731,0.42716095,0
23100000,23040000,197388,0.007943315,-0.21408117,0.4304116,0
23112000,23112000,197388,0.011380625,-0.21280332,0.43406975,0
23244000,23184000,197388,0.010578534,-0.21525876,0.42939365,0
23256000,23256000,197388,0.012306964,-0.21323422,0.42891827,0
23388000,23328000,197388,0.009597743,-0.21572356,0.42844957,0
23400000,23400000,197388,0.01114086,-0.22089486,0.43194875,0
23532000,23472000,197388,0.010528985,-0.21437839,0.4290448,0
23544000,23544000,197388,0.0043401155,-0.22105521,0.42618525,0
23676000,23616000,197388,0.008633466,-0.21468824,0.429072,0
23688000,23688000,197388,0.012208706,-0.21279843,0.43271983,0
23820000,23760000,197388,0.008384338,-0.21597978,0.4304052,0
23832000,23832000,197388,0.012248247,-0.21521375,0.42786312,0
23964000,23904000,197388,0.008223082,-0.21528323,0.4284851,0
23976000,23976000,197388,0.0050515225,-0.2173861,0.42987937,0
24108000,24048000,197388,0.009879757,-0.21584971,0.42804906,0
24120000,24120000,197388,0.005391761,-0.21451996,0.43263552,0
24252000,24191636,197388,0.008369174,-0.21397842,0.4306627,0
24264000,24264000,197388,0.006716747,-0.21358317,0.4277643,0
24392000,24335272,197388,0.007043229,-0.21566527,0.43141627,0
24408000,24408000,197388,0.003152022,-0.21233499,0.42217433,0
24536000,24479636,197388,0.008282677,-0.21540248,0.43047407,0
24552000,24552000,197388,0.01151008,-0.22223555,0.4377949,0
24684000,24624000,197388,0.009699964,-0.21726368,0.428604,0
24696000,24696000,197388,0.0068685813,-0.21625416,0.42822126,0
24828000,24768000,197388,0.009600653,-0.21446618,0.42865857,0
24840000,24840000,197388,0.0029130948,-0.21672986,0.4367347,0
24972000,24912000,197388,0.008818601,-0.21597494,0.42712307,0
24984000,24984000,197388,0.016883478,-0.2195864,0.43295205,0
25112000,25055272,197388,0.00926764,-0.21460432,0.42766443,0
25128000,25128000,197388,0.012287637,-0.21554093,0.43475354,0
25260000,25200000,197388,0.010546001,-0.21533154,0.4286477,0
25272000,25272000,197388,0.011920873,-0.20942542,0.43093166,0
25404000,25344000,197388,0.009668689,-0.21504162,0.430439,0
25416000,25416000,197388,0.013856497,-0.22109248,0.4331245,0
25548000,25488000,197388,0.0093063265,-0.2152533,0.42861965,0
25560000,25560000,197388,0.0100338925,-0.21484621,0.43452343,0
25692000,25631636,197388,0.010336393,-0.21474442,0.42959842,0
25704000,25704000,197388,0.0071233264,-0.21453555,0.43185365,0
25836000,25776000,197388,0.009319648,-0.21523619,0.4298761,0
25848000,25848000,197388,0.01304119,-0.21630709,0.42449626,0
25980000,25919272,197388,0.009740928,-0.2138316,0.42972383,0
25992000,25992000,197388,0.0062398156,-0.21601705,0.42487544,0
26124000,26064000,197388,0.010974062,-0.21567157,0.43053278,0
26136000,26136000,197388,0.007851023,-0.21163988,0.42655283,0
26268000,26208000,197388,0.00863065,-0.21566086,0.43094155,0
26280000,26280000,197388,0.008852934,-0.21531688,0.4253094,0
26412000,26351636,197388,0.008978975,-0.2146172,0.42737672,0
26424000,26424000,197388,0.011016297,-0.2132513,0.42974663,0
26556000,26495636,197388,0.010194203,-0.21462333,0.4303469,0
26568000,26568000,197388,0.0058388314,-0.21698599,0.42461115,0
26700000,26639636,197388,0.008729989,-0.21598563,0.4306272,0
26712000,26712000,197388,0.007843232,-0.2143489,0.42504334,0
26844000,26784000,197388,0.008593244,-0.21674988,0.42971244,0
26856000,26856000,197388,0.011423705,-0.21201354,0.42336628,0
26988000,26928000,197388,0.010274067,-0.21411793,0.42903614,0
27000000,27000000,197388,0.0043420037,-0.21773747,0.4325025,0
27132000,27072000,197388,0.009031895,-0.21435422,0.42773256,0
27144000,27144000,197388,0.010986512,-0.2061951,0.427731,0
27276000,27216000,197388,0.009550521,-0.2138531,0.4270186,0
27288000,27288000,197388,0.0153829595,-0.22104053,0.42715842,0
27420000,27360000,197388,0.009720141,-0.21538629,0.4292526,0
27432000,27432000,197388,0.013706332,-0.21231253,0.42885026,0
27564000,27504000,197388,0.009407866,-0.21387452,0.4290937,0
27576000,27576000,197388,0.011052241,-0.21432984,0.42346337,0
27708000,27648000,197388,0.008177012,-0.2139234,0.4289795,0
27720000,27720000,197388,0.009372751,-0.21630715,0.4324185,0
27852000,27792000,197388,0.008195539,-0.21508692,0.4272597,0
27864000,27864000,197388,0.0096207075,-0.21810995,0.42429,0
27996000,27936000,197388,0.009326905,-0.21515843,0.43174538,0
28008000,28008000,197388,0.009752018,-0.2130537,0.42248967,0
28140000,28080000,197388,0.008805357,-0.21539697,0.42785898,0
28152000,28152000,197388,0.008432291,-0.21182774,0.42934328,0
28284000,28224000,197388,0.009031104,-0.21491821,0.42652842,0
28296000,28296000,197388,0.0043568267,-0.21499993,0.42831227,0
28428000,28368000,197388,0.00908167,-0.21879646,0.4285788,0
28440000,28440000,197388,0.011096621,-0.21683529,0.42889655,0
28572000,28512000,197388,0.009132236,-0.21607764,0.43021628,0
28584000,28584000,197388,0.0127089005,-0.21498862,0.42870063,0
28716000,28656000,197388,0.011390402,-0.21492822,0.42970052,0
28728000,28728000,197388,0.0053234505,-0.21033704,0.43083417,0
28860000,28800000,197388,0.008888932,-0.21616507,0.4325441,0
28872000,28872000,197388,0.012621919,-0.21280187,0.4264966,0
29004000,28944000,197388,0.012537579,-0.21693167,0.42858243,0
29016000,29016000,197388,0.0037812286,-0.2150088,0.42606398,0
29148000,29087272,197388,0.010755817,-0.21470083,0.4304837,0
29160000,29160000,197388,0.009883323,-0.21009555,0.43419868,0
29292000,29232000,197388,0.008628652,-0.21584758,0.4289609,0
29304000,29304000,197388,0.013380486,-0.21026874,0.42732447,0
29436000,29376000,197388,0.011672693,-0.21548216,0.4300457,0
29448000,29448000,197388,0.010005676,-0.22478817,0.4277738,0
29580000,29519636,197388,0.0084929485,-0.21719131,0.4295653,0
29592000,29592000,197388,0.014283247,-0.21458913,0.42782074,0
29724000,29663636,197388,0.009863795,-0.21529707,0.4282236,0
29736000,29736000,197388,0.0046620364,-0.21232128,0.4276255,0
29868000,29808000,197388,0.010368977,-0.21693076,0.42975804,0
29880000,29880000,197388,0.003346819,-0.21304862,0.42503682,0
30012000,29952000,197388,0.009942586,-0.2157133,0.43054283,0
30024000,30024000,197388,0.007957515,-0.21513355,0.4353586,0
30152000,30095636,197388,0.011432269,-0.21587889,0.4317002,0
30168000,30168000,197388,0.008956224,-0.21131063,0.4348901,0
30300000,30240000,197388,0.009158426,-0.21583232,0.43156677,0
30312000,30312000,197388,0.010566363,-0.2148652,0.4334344,0
30444000,30384000,197388,0.010457312,-0.21470684,0.42822027,0
30456000,30456000,197388,0.008598354,-0.21414171,0.43126482,0
30588000,30528000,197388,0.009489434,-0.21542224,0.42981327,0
30600000,30600000,197388,0.0077638826,-0.21491577,0.4278425,0
30732000,30672000,197388,0.009402198,-0.21578425,0.43089786,0
30744000,30744000,197388,0.008070428,-0.21850932,0.42755106,0
30876000,30816000,197388,0.007182002,-0.21556465,0.43144307,0
30888000,30888000,197388,0.006451203,-0.21822251,0.4310775,0
31020000,30960000,197388,0.009938024,-0.21370745,0.42731056,0
31032000,31032000,197388,0.004785698,-0.21011749,0.42306876,0
31164000,31103636,197388,0.009721989,-0.21731362,0.43043852,0
31176000,31176000,197388,0.010786623,-0.22126412,0.4264218,0
31308000,31248000,197388,0.009333496,-0.21556501,0.4285764,0
31320000,31320000,197388,0.01030021,-0.2147607,0.42667782,0
31452000,31392000,197388,0.008438356,-0.21518697,0.42815775,0
31464000,31464000,197388,0.008934587,-0.22077335,0.43363714,0
31596000,31536000,197388,0.010258328,-0.21413225,0.43258914,0
31608000,31608000,197388,0.007544972,-0.21180187,0.4326949,0
31740000,31680000,197388,0.011433607,-0.21597555,0.43006444,0
31752000,31752000,197388,0.00755206,-0.21822222,0.43023205,0
31884000,31824000,197388,0.009510547,-0.2161967,0.42830986,0
31896000,31896000,197388,0.0033605224,-0.21477634,0.42897308,0
32028000,31968000,197388,0.008725527,-0.21483088,0.42653978,0
32040000,32040000,197388,0.0087255705,-0.21425518,0.43264344,0
32168000,32111636,197388,0.010386449,-0.21528034,0.429596,0
32184000,32184000,197388,-0.0024718633,-0.21536124,0.43154445,0
32316000,32256000,197388,0.009615385,-0.21440355,0.42955214,0
32324000,32324000,197388,0.014326299,-0.21169548,0.43027243,0
32448000,32394000,197388,0.0099398745,-0.21445422,0.4309817,0
32472000,32466000,197388,0.0116294045,-0.21535628,0.42812502,0
32592000,32538000,197388,0.010749924,-0.21439658,0.42936474,0
32616000,32610000,197388,0.006018553,-0.21761608,0.42380732,0
32736000,32682000,197388,0.008550639,-0.21561122,0.43050224,0
32760000,32754000,197388,0.013225087,-0.21267469,0.43203402,0
32880000,32826000,197388,0.009295217,-0.21572788,0.4298117,0
32904000,32898000,197388,0.010646774,-0.2187404,0.43016136,0
33024000,32970000,197388,0.010890148,-0.21525228,0.428606,0
33048000,33042000,197388,0.008930236,-0.21389917,0.42760232,0
33168000,33114000,197388,0.010700096,-0.2155314,0.4280509,0
33192000,33186000,197388,0.010928221,-0.21517144,0.427947,0
33312000,33258000,197388,0.00971648,-0.21658312,0.430192,0
33336000,33330000,197388,0.00547442,-0.21175678,0.42727986,0
33456000,33401600,197388,0.009168071,-0.2149391,0.4297926,0
33480000,33474000,197388,0.00999278,-0.21244149,0.4272548,0
33600000,33546000,197388,0.009189851,-0.21459816,0.42965102,0
33624000,33618000,197388,0.0073899175,-0.21465036,0.43326682,0
33740000,33689600,197388,0.008145182,-0.21632282,0.43059865,0
33768000,33762000,197388,0.0080665415,-0.20995134,0.43231094,0
33888000,33833600,197388,0.008519757,-0.21604455,0.42982498,0
33912000,33906000,197388,0.010541798,-0.2145845,0.42520702,0
34032000,33978000,197388,0.009432259,-0.21710782,0.4298516,0
34056000,34050000,197388,0.0064069936,-0.21436036,0.42771944,0
34176000,34122000,197388,0.009800461,-0.2149276,0.43237624,0
34200000,34194000,197388,0.008771752,-0.21382406,0.4271165,0
34320000,34265600,197388,0.009724441,-0.21418579,0.4300227,0
34344000,34338000,197388,0.011137127,-0.21307555,0.43235347,0
34464000,34409600,197388,0.010052222,-0.21667078,0.42882115,0
34488000,34482000,197388,0.011024472,-0.21402325,0.43189633,0
34608000,34553600,197388,0.008726933,-0.2148668,0.42833152,0
34632000,34626000,197388,0.0076724077,-0.2161732,0.430513,0
34752000,34697600,197388,0.00915619,-0.21546958,0.4310313,0
34776000,34768000,197388,0.007520443,-0.21049237,0.43047202,0
34880000,34835555,197388,0.009396607,-0.21307194,0.43111035,0
34920000,34908000,197388,0.011179041,-0.21158549,0.42925996,0
35024000,34979555,197388,0.012853016,-0.2137089,0.43085188,0
35064000,35052000,197388,0.007259713,-0.21811992,0.42904973,0
35168000,35123111,197388,0.010525219,-0.21401408,0.4286515,0
35196000,35190000,197388,0.010059185,-0.2176867,0.42796978,0
35316000,35262000,197388,0.010825698,-0.21620376,0.43098775,0
35340000,35334000,197388,0.008294361,-0.21814954,0.4260047,0
35460000,35405600,197388,0.01025617,-0.21657768,0.43076888,0
35484000,35478000,197388,0.011470979,-0.21110249,0.43284166,0
35604000,35550000,197388,0.0075512463,-0.21615016,0.42642933,0
35628000,35622000,197388,0.005455916,-0.21317345,0.43131196,0
35748000,35694000,197388,0.00847283,-0.21538599,0.42878696,0
35772000,35766000,197388,0.008604559,-0.2168574,0.43047512,0
35892000,35837600,197388,0.009173203,-0.21538296,0.4298496,0
35916000,35910000,197388,0.013686249,-0.20902732,0.42863107,0
36036000,35982000,197388,0.009514797,-0.21514748,0.4297196,0
36060000,36054000,197388,0.01048048,-0.21509165,0.42868623,0
36180000,36125600,197388,0.010428525,-0.21563394,0.42842123,0
36204000,36198000,197388,0.009174227,-0.2144319,0.42857262,0
36324000,36270000,197388,0.008476629,-0.2143194,0.42880398,0
36348000,36342000,197388,0.009300696,-0.21611008,0.42961603,0
36464000,36413600,197388,0.0101040155,-0.21368103,0.4303558,0
36492000,36486000,197388,0.01338914,-0.21684952,0.42616457,0
36612000,36558000,197388,0.009852051,-0.21682405,0.4282464,0
36636000,36630000,197388,0.015816368,-0.21183297,0.4327163,0
36756000,36702000,197388,0.007513681,-0.21573399,0.4293637,0
36780000,36774000,197388,0.012598582,-0.21306498,0.4291988,0
36900000,36845600,197388,0.008325009,-0.21418372,0.4286817,0
36924000,36918000,197388,0.008356206,-0.21709484,0.42854306,0
37044000,36990000,197388,0.009838583,-0.21414535,0.43221527,0
37068000,37062000,197388,0.012888172,-0.21443179,0.43245387,0
37188000,37134000,197388,0.009268798,-0.2156534,0.4289967,0
37212000,37206000,197388,0.007304009,-0.21627676,0.43118167,0
37332000,37277600,197388,0.008067054,-0.21636878,0.42932186,0
37356000,37350000,197388,0.011919388,-0.21678105,0.43028766,0
37472000,37421600,197388,0.008502399,-0.21315129,0.42897758,0
37500000,37494000,197388,0.013428422,-0.21675974,0.42235655,0
37620000,37565600,197388,0.010208825,-0.2148381,0.4297122,0
37644000,37638000,197388,0.0066087293,-0.21609588,0.43169904,0
37764000,37709200,197388,0.0109598925,-0.21316619,0.428248,0
37776000,37776000,197388,0.0066953017,-0.20992844,0.42343518,0
37904000,37847272,197388,0.0083137425,-0.2141351,0.42948043,0
37920000,37920000,197388,0.007685667,-0.21423121,0.42983964,0
38052000,37991636,197388,0.009634725,-0.21611902,0.42888546,0
38064000,38064000,197388,0.010148505,-0.21582203,0.43167546,0
38196000,38135636,197388,0.009829392,-0.21464847,0.42804927,0
38208000,38208000,197388,0.012192651,-0.21109624,0.4268437,0
38340000,38280000,197388,0.010376667,-0.2136299,0.43009442,0
38352000,38352000,197388,0.016338037,-0.21716258,0.42491475,0
38480000,38423272,197388,0.009508474,-0.21588853,0.42977285,0
38496000,38496000,197388,0.0059208334,-0.22048688,0.43194795,0
38624000,38567272,197388,0.008794001,-0.2161124,0.42817333,0
38640000,38640000,197388,0.011545337,-0.21773478,0.4271589,0
38772000,38712000,197388,0.010648299,-0.21639583,0.43119723,0
38784000,38784000,197388,0.0075914115,-0.21121192,0.42575538,0
38916000,38855636,197388,0.010355957,-0.21404774,0.43074203,0
38928000,38928000,197388,0.007429881,-0.2129393,0.42823312,0
39060000,38999636,197388,0.010792937,-0.21466315,0.43035665,0
39072000,39072000,197388,0.008275102,-0.21529683,0.42551726,0
39204000,39142909,197388,0.010233836,-0.2159317,0.4285346,0
39216000,39216000,197388,0.0069145686,-0.2176713,0.43045425,0
39344000,39286909,197388,0.012169349,-0.2147927,0.42955586,0
39360000,39360000,197388,0.0023893232,-0.21894649,0.427972,0
39492000,39431636,197388,0.009742118,-0.21725549,0.43024588,0
39504000,39504000,197388,0.007938083,-0.21052067,0.42967042,0
39636000,39576000,197388,0.0104909185,-0.21499074,0.42881113,0
39648000,39648000,197388,0.008973225,-0.21996844,0.43575582,0
39780000,39719272,197388,0.0095338505,-0.21434297,0.42953748,0
39792000,39792000,197388,0.007253255,-0.22100095,0.42606315,0
39924000,39864000,197388,0.010210463,-0.21638152,0.4284764,0
39936000,39936000,197388,0.010942086,-0.21819098,0.4327387,0
40068000,40008000,197388,0.00871402,-0.2146856,0.42929503,0
40080000,40080000,197388,0.005036751,-0.22093998,0.42703822,0
40208000,40151272,197388,0.011276856,-0.21532762,0.42730325,0
40224000,40224000,197388,0.008258165,-0.21440966,0.43179512,0
40356000,40295636,197388,0.011422776,-0.21411021,0.42988983,0
40368000,40368000,197388,0.0061017238,-0.2134401,0.4285718,0
40500000,40439636,197388,0.011146095,-0.2162486,0.42874345,0
40512000,40512000,197388,0.014248268,-0.21641217,0.43440655,0
40644000,40584000,197388,0.009564586,-0.21537189,0.42710787,0
40656000,40656000,197388,0.009008171,-0.22094277,0.4222059,0
40788000,40727636,197388,0.008148143,-0.2135311,0.4314695,0
40800000,40800000,197388,0.015217947,-0.21439771,0.43151966,0
40928000,40871272,197388,0.010485932,-0.21738128,0.42976376,0
40944000,40944000,197388,0.011408665,-0.21226043,0.42768714,0
41076000,41015636,197388,0.009681997,-0.21751456,0.42863673,0
41088000,41088000,197388,0.010514133,-0.2223115,0.4319921,0
41220000,41159636,197388,0.009143151,-0.21435411,0.43111032,0
41232000,41232000,197388,0.011607489,-0.21522593,0.42735296,0
41364000,41302909,197388,0.008519674,-0.21450399,0.4297548,0
41376000,41376000,197388,0.013976048,-0.21641204,0.4252345,0
41508000,41446909,197388,0.009700508,-0.21358235,0.42976403,0
41520000,41520000,197388,0.014043784,-0.22110713,0.42401546,0
41652000,41591272,197388,0.009177029,-0.21584953,0.42973477,0
41664000,41664000,197388,0.008973649,-0.21516274,0.43129793,0
41796000,41735636,197388,0.0093401745,-0.21657266,0.43007562,0
41808000,41808000,197388,0.012671745,-0.21779768,0.43157622,0
41940000,41879272,197388,0.011973723,-0.21491832,0.4289272,0
41952000,41952000,197388,0.010671566,-0.21558453,0.42982215,0
42084000,42022909,197388,0.01068911,-0.21544726,0.4299465,0
42096000,42096000,197388,0.0058235163,-0.2157394,0.42723015,0
42224000,42167272,197388,0.008435435,-0.21745351,0.42978233,0
42240000,42240000,197388,0.01341111,-0.21681128,0.42961475,0
42372000,42311272,197388,0.007238778,-0.2151602,0.4298308,0
42384000,42384000,197388,0.010449473,-0.21638548,0.43122238,0
42516000,42456000,197388,0.009017833,-0.21539903,0.43118292,0
42528000,42528000,197388,0.009260966,-0.21572602,0.42655003,0
42660000,42599636,197388,0.009989011,-0.2182009,0.43156812,0
42672000,42672000,197388,0.009312759,-0.21243908,0.43030018,0
42804000,42744000,197388,0.010827725,-0.21324787,0.43124112,0
42816000,42816000,197388,0.009415029,-0.21437207,0.42863688,0
42948000,42888000,197388,0.009031788,-0.21730818,0.42864156,0
42960000,42960000,197388,0.01322429,-0.20903075,0.43236044,0
43092000,43032000,197388,0.011188531,-0.21708801,0.4317475,0
43104000,43104000,197388,0.00793099,-0.21686187,0.42797422,0
43236000,43175636,197388,0.008101881,-0.2147345,0.4293452,0
43248000,43248000,197388,0.00965916,-0.2174609,0.42778307,0
43380000,43319636,197388,0.0115920855,-0.21589956,0.43013757,0
43392000,43392000,197388,0.005582214,-0.22420637,0.42664096,0
43524000,43464000,197388,0.011553784,-0.2142371,0.43196958,0
43536000,43536000,197388,0.013843829,-0.21508269,0.4323276,0
43668000,43607636,197388,0.010102554,-0.21704663,0.42883766,0
43680000,43680000,197388,0.013504477,-0.20924479,0.42673796,0
43812000,43752000,197388,0.011236935,-0.21684355,0.42828453,0
43824000,43824000,197388,0.012619953,-0.21637475,0.4270183,0
43956000,43896000,197388,0.0086401235,-0.2139235,0.42748985,0
43968000,43968000,197388,0.014887676,-0.21603936,0.42621052,0
44100000,44039272,197388,0.010004366,-0.21465664,0.42829847,0
44112000,44112000,197388,0.015438727,-0.21724603,0.42477125,0
44244000,44183272,197388,0.0077348663,-0.21349943,0.43082434,0
44256000,44256000,197388,0.009303065,-0.2134514,0.4278379,0
44388000,44327636,197388,0.009279233,-0.2142382,0.42985272,0
44400000,44400000,197388,0.010962149,-0.21119997,0.42797795,0
44532000,44472000,197388,0.010523994,-0.21415724,0.42894828,0
44544000,44544000,197388,0.011763533,-0.21572828,0.4224072,0
44676000,44616000,197388,0.008864111,-0.21275957,0.4318869,0
44688000,44688000,197388,0.010837018,-0.21003562,0.43208468,0
44816000,44759636,197388,0.008241739,-0.21521156,0.42884582,0
44832000,44832000,197388,0.011517001,-0.21178977,0.42393646,0
44964000,44903636,197388,0.008246694,-0.2161885,0.42888054,0
44976000,44976000,197388,0.00987664,-0.21477105,0.43182668,0
45108000,45048000,197388,0.008353799,-0.21738577,0.43047634,0
45120000,45120000,197388,0.007897104,-0.21624823,0.43226597,0
45252000,45192000,197388,0.010690646,-0.21435632,0.4297749,0
45264000,45264000,197388,0.0070958957,-0.22249484,0.42766574,0
45396000,45336000,197388,0.009919711,-0.21498407,0.43283346,0
45408000,45408000,197388,0.007878668,-0.21784674,0.43001398,0
45540000,45479636,197388,0.010009818,-0.2148118,0.4314108,0
45552000,45552000,197388,0.017397253,-0.21206361,0.43018675,0
45684000,45624000,197388,0.008437309,-0.2147195,0.42950076,0
45696000,45696000,197388,0.004438,-0.21158738,0.43279478,0
45828000,45768000,197388,0.011568996,-0.21671721,0.4287321,0
45840000,45840000,197388,0.0071007577,-0.21942495,0.42882288,0
45972000,45912000,197388,0.0077966303,-0.2161907,0.42920548,0
45984000,45984000,197388,0.008793466,-0.21279342,0.4261962,0
46116000,46056000,197388,0.008996261,-0.21465191,0.42711037,0
46128000,46128000,197388,0.0002768771,-0.21495764,0.4273718,0
46260000,46198909,197388,0.008729766,-0.21539883,0.4302804,0
46272000,46272000,197388,0.007867506,-0.22382584,0.4313103,0
46404000,46343636,197388,0.009764162,-0.2155764,0.42980602,0
46416000,46416000,197388,0.013614715,-0.21891256,0.4301518,0
46548000,46487272,197388,0.00961901,-0.21520591,0.4295637,0
46560000,46560000,197388,0.011879912,-0.21968569,0.4306519,0
46692000,46631272,197388,0.009180676,-0.21699336,0.42998043,0
46704000,46704000,197388,0.013941407,-0.21423174,0.4298782,0
46836000,46774181,197388,0.009073877,-0.21561806,0.4299975,0
46848000,46848000,197388,0.010494243,-0.21384606,0.43075442,0
46980000,46920000,197388,0.010535943,-0.21580288,0.43017757,0
46992000,46992000,197388,0.011484745,-0.21480249,0.43546128,0
47124000,47064000,197388,0.010459207,-0.21500151,0.4277702,0
47136000,47136000,197388,0.012387482,-0.2154971,0.4344641,0
47268000,47207272,197388,0.010342526,-0.21576802,0.43020305,0
47280000,47280000,197388,0.0069795325,-0.20624955,0.42900378,0
47412000,47351272,197388,0.0096342955,-0.21363036,0.43151784,0
47424000,47424000,197388,0.006344589,-0.21326199,0.43239024,0
47556000,47495636,197388,0.009283112,-0.2152508,0.42909473,0
47568000,47568000,197388,0.005301653,-0.21730614,0.4272769,0
47700000,47640000,197388,0.0075124064,-0.21369481,0.42890936,0
47712000,47712000,197388,0.013381818,-0.21922706,0.43175337,0
47844000,47784000,197388,0.009078031,-0.21651009,0.43007973,0
47856000,47856000,197388,0.006591777,-0.21376914,0.42576343,0
47988000,47927272,197388,0.008419934,-0.21413231,0.42948213,0
48000000,48000000,197388,0.011050366,-0.21271984,0.43469203,0
48132000,48071636,197388,0.0093497345,-0.21660236,0.43063858,0
48144000,48144000,197388,0.00643458,-0.21975912,0.42652756,0
48276000,48215636,197388,0.009402856,-0.21611333,0.43075502,0
48288000,48288000,197388,0.010574992,-0.21154436,0.43422592,0
48420000,48359636,197388,0.009781167,-0.21528237,0.4302099,0
48432000,48432000,197388,0.010089211,-0.21760626,0.43069217,0
48560000,48503636,197388,0.00858128,-0.21805061,0.43159348,0
48576000,48576000,197388,0.003646755,-0.21697648,0.42701367,0
48708000,48648000,197388,0.009153631,-0.21603724,0.43115872,0
48720000,48720000,197388,0.0060825977,-0.2111246,0.4310711,0
48852000,48792000,197388,0.0087894,-0.21535219,0.42977196,0
48864000,48864000,197388,0.009557627,-0.21432601,0.43139383,0
48996000,48935636,197388,0.009324911,-0.21629226,0.43094373,0
49008000,49008000,197388,0.0063948617,-0.21563785,0.43176216,0
49140000,49079636,197388,0.0097415475,-0.21679184,0.42824677,0
49152000,49152000,197388,0.01211846,-0.21347836,0.42703077,0
49280000,49222909,197388,0.008773764,-0.21643195,0.42808485,0
49296000,49296000,197388,0.005217022,-0.21421091,0.42964473,0
49428000,49368000,197388,0.009621372,-0.21446311,0.4306442,0
49440000,49440000,197388,0.017009847,-0.21062763,0.42916468,0
49572000,49512000,197388,0.010007968,-0.21644756,0.429717,0
49584000,49584000,197388,0.009455124,-0.21100104,0.4311203,0
49716000,49655636,197388,0.009500478,-0.21521582,0.42838445,0
49728000,49728000,197388,0.005497573,-0.21577103,0.42178965,0
49860000,49799272,197388,0.010251433,-0.21445087,0.43015552,0
49872000,49872000,197388,0.008196772,-0.21574146,0.43182704,0
50004000,49943272,197388,0.010844388,-0.21694922,0.42926615,0
50016000,50016000,197388,0.0073802317,-0.22075784,0.42944163,0
50148000,50087272,197388,0.010799216,-0.21435077,0.43113095,0
50160000,50160000,197388,0.01355706,-0.2145674,0.43031874,0
50292000,50230545,197388,0.009799056,-0.21573281,0.42933527,0
50304000,50304000,197388,0.0059143216,-0.21599427,0.43077746,0
50436000,50375272,197388,0.008682047,-0.21539664,0.42989606,0
50448000,50448000,197388,0.007608084,-0.2165207,0.42985097,0
50580000,50519636,197388,0.011018775,-0.21546534,0.42799976,0
50592000,50592000,197388,0.0137197515,-0.20785101,0.42645106,0
50724000,50664000,197388,0.009104125,-0.21735212,0.42912337,0
50736000,50736000,197388,0.013378365,-0.20792677,0.43031192,0
50868000,50807272,197388,0.00994295,-0.21542582,0.43072134,0
50880000,50880000,197388,0.009346178,-0.21945068,0.43079546,0
51012000,50951272,197388,0.009258941,-0.21840891,0.42788216,0
51024000,51024000,197388,0.017707827,-0.21879424,0.42956206,0
51156000,51095636,197388,0.010142264,-0.21573925,0.4294835,0
51168000,51168000,197388,0.0110054035,-0.22071214,0.42853567,0
51300000,51239272,197388,0.009741098,-0.21564329,0.43097532,0
51312000,51312000,197388,0.005309869,-0.21756823,0.42486575,0
51444000,51384000,197388,0.011711058,-0.21504776,0.42889246,0
51456000,51456000,197388,0.007278705,-0.21526429,0.4336372,0
51588000,51527636,197388,0.00944502,-0.21646899,0.42885375,0
51600000,51600000,197388,0.0135876,-0.21473633,0.4251033,0
51732000,51671636,197388,0.008685878,-0.21393079,0.43010205,0
51744000,51744000,197388,0.0062383506,-0.2134604,0.42527273,0
51876000,51816000,197388,0.0100191375,-0.21416232,0.43033952,0
51888000,51888000,197388,0.01214406,-0.21881832,0.43025285,0
52020000,51960000,197388,0.009393662,-0.21528995,0.42781195,0
52032000,52032000,197388,0.011699611,-0.20925835,0.43122807,0
52164000,52104000,197388,0.008354075,-0.21721324,0.4297781,0
52176000,52176000,197388,0.0075661256,-0.21395457,0.430899,0
52308000,52248000,197388,0.009591602,-0.2152985,0.4279759,0
52320000,52320000,197388,0.007634796,-0.20991075,0.43357822,0
52452000,52392000,197388,0.009990031,-0.21553302,0.42977074,0
52464000,52464000,197388,0.011230147,-0.21889958,0.4302144,0
52596000,52536000,197388,0.010892214,-0.2153961,0.42968708,0
52608000,52608000,197388,0.013949803,-0.21473654,0.43375093,0
52740000,52679636,197388,0.008808343,-0.21674868,0.43025345,0
52752000,52752000,197388,0.010201059,-0.21907945,0.4262608,0
52884000,52823636,197388,0.009001171,-0.21554618,0.43058118,0
52896000,52896000,197388,0.006831109,-0.21780129,0.42727417,0
53028000,52968000,197388,0.00993783,-0.21606334,0.43002728,0
53040000,53040000,197388,0.006060812,-0.21712606,0.43153185,0
53172000,53111636,197388,0.009061811,-0.21573767,0.42939413,0
53184000,53184000,197388,0.0039928835,-0.2118273,0.4296438,0
53316000,53256000,197388,0.010173237,-0.21493052,0.4300306,0
53328000,53328000,197388,0.012000777,-0.22061215,0.43276528,0
53460000,53399636,197388,0.0100564025,-0.21382602,0.42822957,0
53472000,53472000,197388,0.008233927,-0.21898915,0.42996296,0
53604000,53543636,197388,0.008968789,-0.21557277,0.42851683,0
53616000,53616000,197388,0.007966843,-0.21698087,0.4291889,0
53748000,53688000,197388,0.012192803,-0.21551998,0.42841128,0
53760000,53760000,197388,0.011249123,-0.21554555,0.42891598,0
53892000,53832000,197388,0.00818633,-0.21636677,0.42941007,0
53904000,53904000,197388,0.0095235305,-0.20922446,0.4245168,0
54036000,53976000,197388,0.008076498,-0.21736439,0.42927694,0
54048000,54048000,197388,0.0066262623,-0.20842257,0.42704356,0
54176000,54119636,197388,0.011166985,-0.2157104,0.43045324,0
54192000,54192000,197388,0.0064663063,-0.21564087,0.43365467,0
54324000,54263636,197388,0.008776505,-0.21493143,0.4294693,0
54336000,54336000,197388,0.011092808,-0.21635172,0.42751262,0
54468000,54407272,197388,0.008406443,-0.21729207,0.42870182,0
54480000,54480000,197388,0.010494322,-0.21601875,0.4310007,0
54612000,54551636,197388,0.00930159,-0.21794078,0.43020123,0
54624000,54624000,197388,0.012898064,-0.21509232,0.44013155,0
54756000,54696000,197388,0.0073958263,-0.21674745,0.42978254,0
54768000,54768000,197388,0.01089065,-0.21370137,0.43256786,0
54900000,54840000,197388,0.009638805,-0.212962,0.43122748,0
54912000,54912000,197388,0.012524167,-0.21500634,0.42952305,0
55044000,54984000,197388,0.008821592,-0.21559489,0.4307037,0
55056000,55056000,197388,0.014574351,-0.21912754,0.43374747,0
55188000,55128000,197388,0.008037229,-0.21498697,0.42917427,0
55200000,55200000,197388,0.0042969496,-0.21456316,0.43135044,0
55332000,55271636,197388,0.008989036,-0.21491641,0.42818448,0
55344000,55344000,197388,0.017669497,-0.21183708,0.43343753,0
55476000,55416000,197388,0.010837468,-0.21561782,0.42918155,0
55488000,55488000,197388,0.011077089,-0.21372654,0.42328423,0
55620000,55559272,197388,0.0103907725,-0.21543135,0.43074402,0
55632000,55632000,197388,0.017344382,-0.21890274,0.4277596,0
55760000,55703636,197388,0.008598122,-0.21603405,0.42793024,0
55776000,55776000,197388,0.0013552066,-0.21419789,0.42660025,0
55908000,55848000,197388,0.007698494,-0.21668272,0.43016812,0
55920000,55920000,197388,0.008526832,-0.22073181,0.43040973,0
56048000,55991272,197388,0.009659034,-0.2144253,0.42817715,0
56064000,56064000,197388,0.0048232786,-0.2147136,0.43181193,0
56196000,56135272,197388,0.009299347,-0.21650293,0.42882323,0
56208000,56208000,197388,0.009769893,-0.20759237,0.42840147,0
56340000,56279272,197388,0.0089067975,-0.21644256,0.42895114,0
56352000,56352000,197388,0.003626207,-0.21090277,0.43157676,0
56484000,56422181,197388,0.010127944,-0.21698484,0.42734793,0
56496000,56496000,197388,0.0106050335,-0.22147799,0.4274414,0
56628000,56567636,197388,0.009803215,-0.21599868,0.42867532,0
56640000,56640000,197388,0.01094936,-0.22126378,0.4269091,0
56772000,56712000,197388,0.01004813,-0.21489465,0.43026808,0
56784000,56784000,197388,0.011324333,-0.21006621,0.42829293,0
56916000,56856000,197388,0.010313862,-0.21676986,0.42890915,0
56928000,56928000,197388,0.0068369284,-0.21548642,0.42877057,0
57060000,56999636,197388,0.010058679,-0.21615636,0.4321097,0
57072000,57072000,197388,0.011579158,-0.2137805,0.42975724,0
57204000,57144000,197388,0.0101007465,-0.21556957,0.42874092,0
57216000,57216000,197388,0.0030683987,-0.21675155,0.43305132,0
57348000,57288000,197388,0.010223861,-0.21599834,0.4298756,0
57360000,57360000,197388,0.010630733,-0.21921806,0.43208987,0
57492000,57432000,197388,0.010392698,-0.21559608,0.42750597,0
57504000,57504000,197388,0.01095109,-0.21658185,0.42584777,0
57636000,57576000,197388,0.00904895,-0.21757539,0.43065184,0
57648000,57648000,197388,0.014597078,-0.21486047,0.42748496,0
57776000,57719636,197388,0.0077908705,-0.21738371,0.43048233,0
57792000,57792000,197388,0.01756682,-0.21703057,0.4306611,0
57924000,57863636,197388,0.007598115,-0.2158049,0.4273683,0
57936000,57936000,197388,0.0068645673,-0.2191438,0.43301272,0
58068000,58008000,197388,0.008851943,-0.21753976,0.4296403,0
58076000,58076000,197388,0.009858065,-0.21424404,0.42391735,0
58200000,58145600,197388,0.010036311,-0.2165912,0.43010673,0
58224000,58218000,197388,0.010762017,-0.21784091,0.4227731,0
58344000,58290000,197388,0.009759806,-0.2148463,0.42925072,0
58368000,58362000,197388,0.00720976,-0.21340814,0.43121552,0
58488000,58434000,197388,0.010102475,-0.21519215,0.43037826,0
58512000,58506000,197388,0.010801738,-0.21699387,0.43057808,0
58632000,58578000,197388,0.010545733,-0.2161763,0.4295395,0
58656000,58650000,197388,0.00874193,-0.21376598,0.43308014,0
58776000,58721600,197388,0.007137671,-0.21583627,0.42947158,0
58800000,58794000,197388,0.008269397,-0.21853527,0.42793426,0
58920000,58866000,197388,0.007908958,-0.21364509,0.43059453,0
58944000,58938000,197388,0.009166291,-0.2131196,0.42786396,0
59064000,59010000,197388,0.00988898,-0.21667178,0.42976376,0
59088000,59082000,197388,0.010253727,-0.21354634,0.42926168,0
59208000,59153600,197388,0.007476752,-0.2172765,0.4297944,0
59232000,59226000,197388,0.008754505,-0.21544632,0.42685905,0
59352000,59298000,197388,0.010896305,-0.21773317,0.42883825,0
59376000,59370000,197388,0.010705041,-0.21512212,0.42971298,0
59496000,59442000,197388,0.010765263,-0.21390758,0.43044853,0
59520000,59514000,197388,0.0099739395,-0.21582848,0.42776525,0
59640000,59585600,197388,0.007762264,-0.21470682,0.42932907,0
59664000,59658000,197388,0.008122729,-0.21201387,0.42822587,0
59784000,59729200,197388,0.009396113,-0.21804236,0.4285739,0
59808000,59800000,197388,0.011006571,-0.21908507,0.43169224,0
59916000,59867555,197388,0.010353622,-0.21609206,0.4272448,0
59952000,59940000,197388,0.006882145,-0.21915805,0.4248795,0
60056000,60011111,197388,0.00865852,-0.21438232,0.43244323,0
60084000,60078000,197388,0.010650972,-0.2154648,0.42211503,0
60204000,60149200,197388,0.010051593,-0.21631472,0.4300683,0
60216000,60216000,197388,0.0125825,-0.21446669,0.43439743,0
60348000,60287636,197388,0.008165275,-0.21561092,0.4297343,0
60360000,60360000,197388,0.007765206,-0.2165988,0.42785412,0
60492000,60432000,197388,0.009948547,-0.21411699,0.42896342,0
60504000,60504000,197388,0.0071855616,-0.21659128,0.4298723,0
60636000,60575636,197388,0.008177958,-0.21596257,0.43110567,0
60648000,60648000,197388,0.010466078,-0.21629874,0.43519217,0
60780000,60719636,197388,0.0076930965,-0.21529242,0.4304363,0
60792000,60792000,197388,0.0041063307,-0.21331652,0.4310827,0
60924000,60863272,197388,0.009072956,-0.21576175,0.42862177,0
60936000,60936000,197388,0.009935596,-0.21749885,0.42898697,0
61064000,61007272,197388,0.0089019025,-0.21661589,0.429909,0
61080000,61080000,197388,0.0084474115,-0.21363804,0.4297902,0
61208000,61151272,197388,0.008169609,-0.21607473,0.43091798,0
61224000,61224000,197388,0.0062599564,-0.2176512,0.42341992,0
61356000,61295636,197388,0.0086136395,-0.2158167,0.42936087,0
61368000,61368000,197388,0.0021268274,-0.21518159,0.43135402,0
61500000,61439636,197388,0.009889087,-0.21579182,0.43071315,0
61512000,61512000,197388,0.010714892,-0.2126916,0.42505607,0
61644000,61583636,197388,0.0109041985,-0.21753721,0.43118757,0
61656000,61656000,197388,0.014035168,-0.21384493,0.43472767,0
61788000,61727272,197388,0.009295979,-0.2177402,0.43144673,0
61800000,61800000,197388,0.008818584,-0.21472606,0.4304914,0
61932000,61871272,197388,0.007417354,-0.21730547,0.4301646,0
61944000,61944000,197388,0.0046360386,-0.21742183,0.43081647,0
62076000,62015636,197388,0.0087617505,-0.21564715,0.42801294,0
62088000,62088000,197388,0.015839465,-0.21655497,0.4298968,0
62220000,62159636,197388,0.007124357,-0.21516098,0.42821145,0
62232000,62232000,197388,0.011884117,-0.22425297,0.43200934,0
62364000,62303636,197388,0.009709572,-0.21621427,0.42892212,0
62376000,62376000,197388,0.005865521,-0.2192954,0.42991605,0
62508000,62447636,197388,0.007498419,-0.21750686,0.42684945,0
62520000,62520000,197388,0.010826007,-0.21804363,0.4335299,0
62652000,62591636,197388,0.008805513,-0.21610293,0.42804113,0
62664000,62664000,197388,0.0072249104,-0.21299572,0.42827427,0
62796000,62735636,197388,0.010909751,-0.21646203,0.42920768,0
62808000,62808000,197388,0.012025947,-0.21468478,0.4297373,0
62936000,62879272,197388,0.008413754,-0.21679723,0.42966303,0
62952000,62952000,197388,0.013694796,-0.22019441,0.43208018,0
63084000,63023636,197388,0.008049307,-0.21517217,0.4312954,0
63096000,63096000,197388,0.0140497815,-0.20968379,0.42537403,0
63228000,63167272,197388,0.009140991,-0.21621054,0.4306743,0
63240000,63240000,197388,0.013473334,-0.2194203,0.43133932,0
63372000,63311636,197388,0.008973253,-0.21631311,0.42955214,0
63380000,63380000,197388,0.009617993,-0.22175826,0.43449488,0
63504000,63449600,197388,0.009263509,-0.21549205,0.42786667,0
63528000,63520000,197388,0.0112907905,-0.2134991,0.4285432,0
63632000,63587555,197388,0.011570122,-0.21450387,0.4315278,0
63672000,63660000,197388,0.009800218,-0.2147094,0.42865238,0
63780000,63732000,197388,0.010328067,-0.21735469,0.43091097,0
63816000,63804000,197388,0.006646632,-0.21227324,0.42690763,0
63924000,63876000,197388,0.008662803,-0.214273,0.42982298,0
63960000,63948000,197388,0.010165317,-0.21211307,0.42794487,0
64068000,64019555,197388,0.008764497,-0.21724871,0.43001002,0
64104000,64092000,197388,0.013713937,-0.21745443,0.43086523,0
64208000,64163111,197388,0.009964278,-0.21691363,0.4313998,0
64236000,64230000,197388,0.011103137,-0.2137079,0.4307615,0
64356000,64301200,197388,0.01046913,-0.21522574,0.42854306,0
64368000,64368000,197388,0.009898875,-0.22057353,0.42916873,0
64500000,64439272,197388,0.010354909,-0.21775934,0.42744672,0
64512000,64512000,197388,0.0077679968,-0.21381958,0.42895064,0
64644000,64584000,197388,0.009084813,-0.21672647,0.42897248,0
64656000,64656000,197388,0.009268976,-0.21836407,0.43239632,0
64784000,64726909,197388,0.011131453,-0.21514204,0.42941216,0
64800000,64800000,197388,0.0046172594,-0.21556404,0.4226197,0
64932000,64871272,197388,0.009545691,-0.2174325,0.42829978,0
64944000,64944000,197388,0.0065200767,-0.21186872,0.42441112,0
65072000,65014909,197388,0.0094500175,-0.21482113,0.42976102,0
65088000,65088000,197388,0.0101405205,-0.22144309,0.42473868,0
65220000,65159636,197388,0.00922391,-0.21415901,0.43208444,0
65232000,65232000,197388,0.009755198,-0.21423559,0.42780894,0
65364000,65302909,197388,0.008478497,-0.21547875,0.42858347,0
65376000,65376000,197388,0.01104855,-0.21586905,0.43244842,0
65504000,65446909,197388,0.0076192003,-0.21556947,0.42899585,0
65520000,65520000,197388,0.006089501,-0.21442649,0.43447095,0
65652000,65591272,197388,0.00809798,-0.21521902,0.42955837,0
65664000,65664000,197388,0.006337507,-0.21664815,0.44139767,0
65796000,65736000,197388,0.009669212,-0.213437,0.42933258,0
65808000,65808000,197388,0.016429812,-0.21972291,0.43068123,0
65940000,65878909,197388,0.008793764,-0.21600555,0.42887092,0
65952000,65952000,197388,0.00044059922,-0.20969695,0.4252076,0
66084000,66023636,197388,0.008408044,-0.21799,0.42902374,0
66096000,66096000,197388,0.009028353,-0.21725924,0.42962456,0
66228000,66168000,197388,0.007557043,-0.21525319,0.43029565,0
66240000,66240000,197388,0.011378302,-0.2145359,0.43141538,0
66372000,66312000,197388,0.006973479,-0.21546,0.4287704,0
66384000,66384000,197388,0.009544504,-0.21979396,0.43083856,0
66516000,66456000,197388,0.010200619,-0.21559171,0.4291242,0
66528000,66528000,197388,0.014343629,-0.21546105,0.42255715,0
66660000,66599636,197388,0.011298822,-0.215357,0.4305869,0
66672000,66672000,197388,0.007812544,-0.21549831,0.43130827,0
66804000,66743272,197388,0.007649061,-0.21598396,0.4301171,0
66816000,66816000,197388,0.007219729,-0.21210417,0.42626792,0
66948000,66887272,197388,0.0082235485,-0.21730441,0.4298811,0
66960000,66960000,197388,0.004450548,-0.21646793,0.42885217,0
67092000,67031636,197388,0.00785463,-0.21635549,0.42953375,0
67104000,67104000,197388,0.007029248,-0.21746707,0.43784744,0
67236000,67175636,197388,0.010076877,-0.21597473,0.4314034,0
67248000,67248000,197388,0.010248498,-0.20790176,0.42796516,0
67380000,67320000,197388,0.008815763,-0.21619156,0.429151,0
67392000,67392000,197388,0.009861643,-0.21856308,0.42987865,0
67524000,67463272,197388,0.00890735,-0.21726353,0.42834735,0
67536000,67536000,197388,0.012097616,-0.21270388,0.42800122,0
67668000,67608000,197388,0.009355019,-0.21640451,0.42899016,0
67680000,67680000,197388,0.012467357,-0.21058594,0.42717567,0
67812000,67751636,197388,0.008162911,-0.21596842,0.42974386,0
67824000,67824000,197388,0.006101085,-0.21273445,0.43304655,0
67956000,67894545,197388,0.00691681,-0.21622561,0.42765403,0
67968000,67968000,197388,0.005752455,-0.20877151,0.42764306,0
68100000,68040000,197388,0.011658879,-0.21640897,0.4305961,0
68112000,68112000,197388,0.00945474,-0.21475902,0.4265071,0
68240000,68183636,197388,0.011352414,-0.21600498,0.42797247,0
68256000,68256000,197388,0.012630611,-0.21161313,0.42800173,0
68388000,68327636,197388,0.0071632215,-0.21468556,0.42842644,0
68400000,68400000,197388,0.0146215325,-0.2109465,0.4311165,0
68532000,68472000,197388,0.008822463,-0.21458787,0.4276753,0
68544000,68544000,197388,0.01321726,-0.21267647,0.43752474,0
68676000,68616000,197388,0.008220883,-0.21685499,0.42971188,0
68688000,68688000,197388,0.007973134,-0.2133269,0.43146574,0
68820000,68760000,197388,0.00918224,-0.21736881,0.4290613,0
68832000,68832000,197388,0.011859647,-0.21144627,0.42432916,0
68964000,68904000,197388,0.008851228,-0.2140026,0.42971247,0
68976000,68976000,197388,0.008241033,-0.21388301,0.43249068,0
69108000,69048000,197388,0.007957636,-0.21375033,0.43008012,0
69120000,69120000,197388,0.004839928,-0.20715643,0.42476702,0
69252000,69191272,197388,0.009089892,-0.21684003,0.42886743,0
69264000,69264000,197388,0.007466832,-0.21413046,0.4320604,0
69396000,69335272,197388,0.009261354,-0.21489942,0.43075204,0
69408000,69408000,197388,0.0059843715,-0.2132173,0.43315896,0
69540000,69479636,197388,0.008131006,-0.21634302,0.42922685,0
69552000,69552000,197388,0.0069391862,-0.21723247,0.42679027,0
69684000,69623636,197388,0.009903229,-0.21723899,0.4282193,0
69696000,69696000,197388,0.0063083204,-0.2124206,0.43190885,0
69828000,69768000,197388,0.0092536975,-0.21631211,0.42964283,0
69840000,69840000,197388,0.008741662,-0.2164769,0.428069,0
69972000,69911636,197388,0.007192684,-0.217537,0.43084425,0
69984000,69984000,197388,0.010793713,-0.21902028,0.43594378,0
70116000,70056000,197388,0.0072540385,-0.21632743,0.42804956,0
70128000,70128000,197388,0.009797331,-0.21168539,0.43269637,0
70260000,70200000,197388,0.007899371,-0.2151051,0.4303171,0
70272000,70272000,197388,0.008791359,-0.22287938,0.42852557,0
70404000,70343636,197388,0.0070074997,-0.21639737,0.43010738,0
70416000,70416000,197388,0.015212216,-0.21175216,0.43538904,0
70548000,70488000,197388,0.011191003,-0.21818396,0.43047136,0
70560000,70560000,197388,0.0051825265,-0.21656051,0.42725575,0
70692000,70632000,197388,0.008668148,-0.21774663,0.42931068,0
70704000,70704000,197388,0.017813034,-0.2213796,0.4326483,0
70836000,70776000,197388,0.006838591,-0.216435,0.4291003,0
70848000,70848000,197388,0.004895185,-0.21243624,0.4244588,0
70980000,70919272,197388,0.008580391,-0.2154022,0.4304074,0
70992000,70992000,197388,0.0043991837,-0.22045907,0.43059105,0
71124000,71063636,197388,0.00993708,-0.21908897,0.43208683,0
71136000,71136000,197388,0.0019815022,-0.22013319,0.43499205,0
71268000,71208000,197388,0.008976867,-0.21808991,0.43109193,0
71280000,71280000,197388,0.006051696,-0.21131223,0.42907816,0
71412000,71351636,197388,0.009484604,-0.21556287,0.4288175,0
