timestamp,timestamp_sample,time_last_fuse,device_id,observation,observation_variance,innovation,innovation_filtered,innovation_variance,test_ratio,test_ratio_filtered,estimator_instance,innovation_rejected,fused
2832000,2672893,2680000,0,-488.107,1.0,0.0,0.0,1.0,0.0,0.0,0,0,1
3232000,3073330,3080000,0,-488.106,1.0,-0.0026855469,-0.0011943005,1.925047,1.4985945e-07,-6.66446e-08,0,0,1
3632000,3473591,3480000,0,-488.1,1.0,-0.011413574,-0.0057378463,1.4032164,3.7134594e-06,-1.6880385e-06,0,0,1
4032000,3873755,3880000,0,-488.101,1.0,-0.009338379,-0.0073384475,1.2550534,2.7793342e-06,-2.1731694e-06,0,0,1
4432000,4273851,4280000,0,-488.103,1.0,-0.0073547363,-0.007345688,1.1902992,1.8177665e-06,-2.0151915e-06,0,0,1
4832000,4673910,4680000,0,-488.11,1.0,0.0010375977,-0.003619478,1.1584953,3.717266e-08,-1.1029549e-06,0,0,1
5232000,5073946,5080000,0,-488.101,1.0,-0.008483887,-0.0057815453,1.1395298,2.5265274e-06,-1.7356854e-06,0,0,1
5632000,5473967,5480000,0,-488.102,1.0,-0.011810303,-0.008461071,1.1295061,4.9396194e-06,-3.1596976e-06,0,0,1
6032000,5873980,5880000,0,-488.101,1.0,-0.017089844,-0.01229615,1.126015,1.0375094e-05,-6.3665984e-06,0,0,1
6432000,6273988,6280000,0,-488.098,1.0,-0.024749756,-0.017831147,1.1242732,2.179365e-05,-1.3223143e-05,0,0,1
6832000,6673993,6680000,0,-488.103,1.0,-0.025970459,-0.021448644,1.1254618,2.3971128e-05,-1.8000059e-05,0,0,1
7232000,7073996,7080000,0,-488.096,1.0,-0.030059814,-0.025275847,1.1333479,3.189109e-05,-2.4173876e-05,0,0,1
7632000,7473998,7480000,0,-488.109,1.0,-0.017730713,-0.021922445,1.1406927,1.1024114e-05,-1.8329521e-05,0,0,1
8032000,7877999,7880000,0,-488.109,1.0,-0.013092041,-0.017976109,1.147101,5.976859e-06,-1.2809076e-05,0,0,1
8432000,8274000,8280000,0,-488.104,1.0,-0.009094238,-0.014050634,1.1488218,2.8796517e-06,-8.4206185e-06,0,0,1
8824000,8670000,8672000,0,-488.101,1.0,-0.012207031,-0.013235827,1.1448318,5.2064106e-06,-7.0000533e-06,0,0,1
9232000,9074000,9080000,0,-488.105,1.0,-0.01461792,-0.013853488,1.1412852,7.489227e-06,-7.2186663e-06,0,0,1
9624000,9470000,9472000,0,-488.103,1.0,-0.012451172,-0.013233714,1.1385299,5.446732e-06,-6.4355345e-06,0,0,1
10032000,9874000,9880000,0,-488.106,1.0,-0.01663208,-0.014752452,1.1358554,9.741595e-06,-7.913021e-06,0,0,1
10432000,10274000,10280000,0,-488.101,1.0,-0.02420044,-0.018951558,1.1327925,2.0680267e-05,-1.3587353e-05,0,0,1
10832000,10674000,10680000,0,-488.094,1.0,-0.03100586,-0.024309026,1.1313648,3.398951e-05,-2.2654978e-05,0,0,1
11232000,11074000,11080000,0,-488.092,1.0,-0.03366089,-0.028465409,1.1286708,4.015539e-05,-3.043294e-05,0,0,1
11632000,11474000,11480000,0,-488.096,1.0,-0.026519775,-0.027600683,1.1274389,2.4952074e-05,-2.7997e-05,0,0,1
12032000,11874000,11880000,0,-488.097,1.0,-0.02532959,-0.026591308,1.1249809,2.2812408e-05,-2.5692738e-05,0,0,1
12432000,12274000,12280000,0,-488.113,1.0,-0.006591797,-0.017702635,1.1238724,1.5465025e-06,-1.4961077e-05,0,0,1
12832000,12674000,12680000,0,-488.11,1.0,-0.013366699,-0.015775552,1.1215984,6.37193e-06,-1.1143678e-05,0,0,1
13232000,13074000,13080000,0,-488.103,1.0,-0.02545166,-0.020076044,1.1205919,2.312303e-05,-1.6467835e-05,0,0,1
13632000,13474000,13480000,0,-488.103,1.0,-0.034362793,-0.02642571,1.1185348,4.2226726e-05,-2.791623e-05,0,0,1
14032000,13874000,13880000,0,-488.105,1.0,-0.035003662,-0.030238133,1.116615,4.3891807e-05,-3.501649e-05,0,0,1
14432000,14274000,14280000,0,-488.109,1.0,-0.03427124,-0.032030623,1.1147949,4.2142925e-05,-3.8183793e-05,0,0,1
14832000,14674000,14680000,0,-488.11,1.0,-0.03262329,-0.03229403,1.1140944,3.8211452e-05,-3.8196085e-05,0,0,1
15232000,15074000,15080000,0,-488.11,1.0,-0.032714844,-0.03248106,1.112397,3.848486e-05,-3.832443e-05,0,0,1
15632000,15474000,15480000,0,-488.107,1.0,-0.03378296,-0.033059683,1.1117774,4.1061754e-05,-3.9541017e-05,0,0,1
16032000,15874000,15880000,0,-488.108,1.0,-0.036743164,-0.034696784,1.1102109,4.8641574e-05,-4.3585707e-05,0,0,1
16432000,16274000,16280000,0,-488.116,1.0,-0.029876709,-0.03255453,1.1087177,3.220361e-05,-3.8526996e-05,0,0,1
16832000,16674000,16680000,0,-488.099,1.0,-0.046325684,-0.038675044,1.1082687,7.745663e-05,-5.5829056e-05,0,0,1
17232000,17074000,17080000,0,-488.106,1.0,-0.039642334,-0.03910495,1.1069819,5.678556e-05,-5.6254168e-05,0,0,1
17632000,17474000,17480000,0,-488.098,1.0,-0.04852295,-0.043290727,1.1057726,8.517037e-05,-6.9105816e-05,0,0,1
18032000,17874000,17880000,0,-488.101,1.0,-0.038757324,-0.04127588,1.1046584,5.439257e-05,-6.256659e-05,0,0,1
18432000,18274000,18280000,0,-488.106,1.0,-0.033996582,-0.038040638,1.1036355,4.1889467e-05,-5.337676e-05,0,0,1
18832000,18674000,18680000,0,-488.105,1.0,-0.035125732,-0.036745124,1.103522,4.472288e-05,-4.953059e-05,0,0,1
19232000,19074000,19080000,0,-488.102,1.0,-0.033843994,-0.035455734,1.1025712,4.1554355e-05,-4.5985595e-05,0,0,1
19632000,19474000,19480000,0,-488.097,1.0,-0.03289795,-0.03431894,1.1025034,3.9266095e-05,-4.299915e-05,0,0,1
20032000,19874000,19880000,0,-488.1,1.0,-0.025970459,-0.030608503,1.10162,2.4489924e-05,-3.4772827e-05,0,0,1
20432000,20274000,20280000,0,-488.103,1.0,-0.017547607,-0.02480366,1.1008097,1.1188801e-05,-2.4291036e-05,0,0,1
20832000,20674000,20680000,0,-488.098,1.0,-0.024902344,-0.02484752,1.1008457,2.2532739e-05,-2.350957e-05,0,0,1
21232000,21074000,21080000,0,-488.113,1.0,-0.007659912,-0.017208584,1.1000832,2.1334479e-06,-1.4009071e-05,0,0,1
21632000,21474000,21480000,0,-488.099,1.0,-0.025238037,-0.02077723,1.1001512,2.3158944e-05,-1.8075682e-05,0,0,1
22032000,21874000,21880000,0,-488.107,1.0,-0.012451172,-0.017076759,1.0994327,5.6404247e-06,-1.25489005e-05,0,0,1
22432000,22274000,22280000,0,-488.113,1.0,-0.007659912,-0.012891494,1.0987356,2.1360645e-06,-7.920973e-06,0,0,1
22832000,22674000,22680000,0,-488.1,1.0,-0.020843506,-0.016425721,1.0988513,1.581476e-05,-1.1429323e-05,0,0,1
23232000,23074000,23080000,0,-488.097,1.0,-0.024749756,-0.020125292,1.0981917,2.2311237e-05,-1.626573e-05,0,0,1
23632000,23474000,23480000,0,-488.095,1.0,-0.028259277,-0.023740398,1.098332,2.9083618e-05,-2.1962569e-05,0,0,1
24032000,23874000,23880000,0,-488.107,1.0,-0.013824463,-0.019333314,1.0977057,6.96419e-06,-1.5296622e-05,0,0,1
24432000,24274000,24280000,0,-488.104,1.0,-0.013305664,-0.016654357,1.0978677,6.450347e-06,-1.1364944e-05,0,0,1
24832000,24674000,24680000,0,-488.105,1.0,-0.0115356445,-0.014379374,1.097271,4.8509837e-06,-8.46985e-06,0,0,1
25232000,25074000,25080000,0,-488.104,1.0,-0.009246826,-0.012098242,1.0974517,3.1164486e-06,-6.0905604e-06,0,0,1
25632000,25474000,25480000,0,-488.102,1.0,-0.011505127,-0.011834635,1.0968812,4.827066e-06,-5.5290075e-06,0,0,1
26032000,25874000,25880000,0,-488.094,1.0,-0.018341064,-0.014726382,1.0963223,1.2273567e-05,-8.52659e-06,0,0,1
26432000,26274000,26280000,0,-488.105,1.0,-0.0069885254,-0.011287334,1.0965581,1.7815559e-06,-5.528797e-06,0,0,1
26832000,26674000,26680000,0,-488.106,1.0,-0.010284424,-0.010841596,1.0960765,3.859927e-06,-4.7870767e-06,0,0,1
27232000,27074000,27080000,0,-488.097,1.0,-0.020446777,-0.015110565,1.0956142,1.5263427e-05,-9.443233e-06,0,0,1
27632000,27474000,27480000,0,-488.104,1.0,-0.016296387,-0.015637597,1.0958927,9.693366e-06,-9.554403e-06,0,0,1
28032000,27874000,27880000,0,-488.106,1.0,-0.018371582,-0.016852701,1.095434,1.2324432e-05,-1.0785527e-05,0,0,1
28432000,28274000,28280000,0,-488.097,1.0,-0.02746582,-0.021569643,1.094976,2.7557548e-05,-1.823976e-05,0,0,1
28832000,28674000,28680000,0,-488.092,1.0,-0.032958984,-0.026631573,1.0952551,3.9672752e-05,-2.7765534e-05,0,0,1
29232000,29074000,29080000,0,-488.11,1.0,-0.013946533,-0.020993777,1.0948007,7.1065274e-06,-1.8583753e-05,0,0,1
29632000,29474000,29480000,0,-488.099,1.0,-0.028259277,-0.024222888,1.0950787,2.9170022e-05,-2.3288761e-05,0,0,1
30032000,29874000,29880000,0,-488.107,1.0,-0.025024414,-0.024579123,1.0946546,2.2882883e-05,-2.310837e-05,0,0,1
30424000,30270000,30272000,0,-488.113,1.0,-0.01852417,-0.02190305,1.0939673,1.2546806e-05,-1.8440536e-05,0,0,1
30832000,30674000,30680000,0,-488.1,1.0,-0.031951904,-0.026393909,1.094569,3.730872e-05,-2.6872778e-05,0,0,1
31232000,31074000,31080000,0,-488.102,1.0,-0.030456543,-0.028199524,1.0941495,3.3911307e-05,-3.0001014e-05,0,0,1
31632000,31474000,31480000,0,-488.093,1.0,-0.038085938,-0.032593485,1.0944482,5.3014424e-05,-4.02292e-05,0,0,1
32032000,31874000,31880000,0,-488.109,1.0,-0.028778076,-0.030897748,1.0940282,3.0279938e-05,-3.5807305e-05,0,0,1
32432000,32274000,32280000,0,-488.103,1.0,-0.030853271,-0.030877981,1.093616,3.4817498e-05,-3.536739e-05,0,0,1
32832000,32674000,32680000,0,-488.102,1.0,-0.026641846,-0.028995255,1.0939417,2.5953412e-05,-3.11834e-05,0,0,1
33232000,33074000,33080000,0,-488.106,1.0,-0.019897461,-0.02495179,1.0935545,1.4481544e-05,-2.3760353e-05,0,0,1
33632000,33474000,33480000,0,-488.103,1.0,-0.019805908,-0.022664731,1.0938731,1.4344406e-05,-1.9575487e-05,0,0,1
34032000,33874000,33880000,0,-488.093,1.0,-0.02368164,-0.023116691,1.0934827,2.0515005e-05,-1.9993051e-05,0,0,1
34432000,34274000,34280000,0,-488.094,1.0,-0.018798828,-0.021197641,1.0930902,1.2931995e-05,-1.6854803e-05,0,0,1
34832000,34674000,34680000,0,-488.088,1.0,-0.030334473,-0.025258455,1.0934038,3.366296e-05,-2.4325096e-05,0,0,1
35232000,35074000,35080000,0,-488.108,1.0,-0.0060424805,-0.016718023,1.0930125,1.3361813e-06,-1.41078e-05,0,0,1
35632000,35474000,35480000,0,-488.104,1.0,-0.009735107,-0.013614505,1.0926601,3.4694162e-06,-9.37963e-06,0,0,1
36032000,35878000,35880000,0,-488.096,1.0,-0.014343262,-0.013940188,1.0930253,7.528797e-06,-8.552488e-06,0,0,1
36432000,36274000,36280000,0,-488.098,1.0,-0.010284424,-0.012324471,1.0926905,3.871888e-06,-6.48383e-06,0,0,1
36832000,36674000,36680000,0,-488.102,1.0,-0.007293701,-0.010088573,1.0923493,1.9480244e-06,-4.4679164e-06,0,0,1
37232000,37074000,37080000,0,-488.113,1.0,0.0059814453,-0.0029463419,1.0926992,1.3096994e-06,-1.9000868e-06,0,0,1
37632000,37474000,37480000,0,-488.104,1.0,-0.0013427734,-0.0022336447,1.0923626,6.602351e-08,-1.0849475e-06,0,0,1
38032000,37874000,37880000,0,-488.102,1.0,-0.0037841797,-0.0029227715,1.0920402,5.245234e-07,-8.358701e-07,0,0,1
38432000,38274000,38280000,0,-488.101,1.0,-0.0038452148,-0.0033327464,1.0924029,5.4140014e-07,-7.0499453e-07,0,0,1
38832000,38674000,38680000,0,-488.1,1.0,-0.006591797,-0.0047812136,1.0920824,1.5915205e-06,-1.0990061e-06,0,0,1
39232000,39074000,39080000,0,-488.11,1.0,0.0024719238,-0.0015575967,1.0917745,2.2387069e-07,-5.110608e-07,0,0,1
39632000,39474000,39480000,0,-488.102,1.0,-0.0047302246,-0.0029676538,1.0915006,8.1997297e-07,-6.483551e-07,0,0,1
40032000,39874000,39880000,0,-488.115,1.0,0.0036315918,-3.4655444e-05,1.0919201,4.8312904e-07,-1.4547322e-07,0,0,1
40432000,40274000,40280000,0,-488.109,1.0,-0.007507324,-0.0033558419,1.0916482,2.065131e-06,-9.986545e-07,0,0,1
40832000,40674000,40680000,0,-488.109,1.0,-0.0138549805,-0.008022126,1.091393,7.0354304e-06,-3.6816662e-06,0,0,1
41224000,41070000,41072000,0,-488.109,1.0,-0.016906738,-0.011948807,1.0908897,1.0480906e-05,-6.686687e-06,0,0,1
41632000,41474000,41480000,0,-488.102,1.0,-0.025512695,-0.018010546,1.0915985,2.3851173e-05,-1.4357541e-05,0,0,1
42032000,41874000,41880000,0,-488.096,1.0,-0.032440186,-0.024423718,1.0913386,3.857155e-05,-2.5119323e-05,0,0,1
42424000,42270000,42272000,0,-488.1,1.0,-0.027618408,-0.025835657,1.0908395,2.7970254e-05,-2.6379334e-05,0,0,1
42832000,42674000,42680000,0,-488.11,1.0,-0.017822266,-0.022254452,1.0908648,1.1647022e-05,-1.9795425e-05,0,0,1
43232000,43074000,43080000,0,-488.105,1.0,-0.023590088,-0.022848068,1.0912969,2.0397465e-05,-2.0062998e-05,0,0,1
43624000,43470000,43472000,0,-488.096,1.0,-0.034820557,-0.02813948,1.0907855,4.446231e-05,-3.0846622e-05,0,0,1
44032000,43874000,43880000,0,-488.109,1.0,-0.023254395,-0.025956322,1.0914677,1.981797e-05,-2.5917889e-05,0,0,1
44432000,44274000,44280000,0,-488.102,1.0,-0.033355713,-0.02924494,1.0911845,4.078517e-05,-3.2525568e-05,0,0,1
44832000,44674000,44680000,0,-488.096,1.0,-0.0395813,-0.03383888,1.0915656,5.7410354e-05,-4.3585474e-05,0,0,1
45232000,45074000,45080000,0,-488.097,1.0,-0.039916992,-0.036540262,1.0912704,5.8404083e-05,-5.0171522e-05,0,0,1
45632000,45474000,45480000,0,-488.1,1.0,-0.034942627,-0.035830203,1.090992,4.476613e-05,-4.7769125e-05,0,0,1
46032000,45874000,45880000,0,-488.097,1.0,-0.040100098,-0.037727933,1.0907328,5.8970185e-05,-5.2747375e-05,0,0,1
46432000,46274000,46280000,0,-488.1,1.0,-0.034423828,-0.036259443,1.0911332,4.3441072e-05,-4.861124e-05,0,0,1
46832000,46674000,46680000,0,-488.098,1.0,-0.036071777,-0.036176037,1.0908537,4.7712103e-05,-4.8211623e-05,0,0,1
47232000,47074000,47080000,0,-488.1,1.0,-0.03213501,-0.034380026,1.0912353,3.785284e-05,-4.3607717e-05,0,0,1
47632000,47474000,47480000,0,-488.104,1.0,-0.029449463,-0.032188665,1.0909467,3.1798838e-05,-3.8359325e-05,0,0,1
48032000,47874000,47880000,0,-488.097,1.0,-0.033447266,-0.032748044,1.0906739,4.1028565e-05,-3.9545655e-05,0,0,1
48432000,48274000,48280000,0,-488.107,1.0,-0.025238037,-0.029410262,1.09106,2.3351915e-05,-3.234844e-05,0,0,1
48832000,48674000,48680000,0,-488.108,1.0,-0.031188965,-0.030200796,1.0907713,3.567206e-05,-3.3825603e-05,0,0,1
49232000,49074000,49080000,0,-488.11,1.0,-0.030303955,-0.030246645,1.0911427,3.366488e-05,-3.375417e-05,0,0,1
49632000,49474000,49480000,0,-488.092,1.0,-0.047058105,-0.037718408,1.0908413,8.120211e-05,-5.4842145e-05,0,0,1
50032000,49874000,49880000,0,-488.097,1.0,-0.04171753,-0.039495796,1.0905515,6.383384e-05,-5.8838454e-05,0,0,1
50424000,50270000,50272000,0,-488.104,1.0,-0.029663086,-0.03515009,1.0906817,3.226968e-05,-4.7096004e-05,0,0,1
50832000,50674000,50680000,0,-488.104,1.0,-0.026641846,-0.031347733,1.0906672,2.6031328e-05,-3.7682144e-05,0,0,1
51232000,51074000,51080000,0,-488.106,1.0,-0.024230957,-0.028184721,1.0903703,2.1539077e-05,-3.0507446e-05,0,0,1
51632000,51478000,51480000,0,-488.107,1.0,-0.021453857,-0.02517668,1.0907475,1.6878994e-05,-2.4416855e-05,0,0,1
52032000,51874000,51880000,0,-488.104,1.0,-0.021270752,-0.023450399,1.0904717,1.65963e-05,-2.096045e-05,0,0,1
52432000,52274000,52280000,0,-488.109,1.0,-0.013671875,-0.019104388,1.0901879,6.858273e-06,-1.4692815e-05,0,0,1
52832000,52674000,52680000,0,-488.114,1.0,-0.010375977,-0.015225094,1.0905621,3.948822e-06,-9.917707e-06,0,0,1
53232000,53074000,53080000,0,-488.104,1.0,-0.023162842,-0.018752983,1.0902674,1.9683877e-05,-1.4258228e-05,0,0,1
53632000,53474000,53480000,0,-488.114,1.0,-0.01550293,-0.017308515,1.0906312,8.814742e-06,-1.18389e-05,0,0,1
54032000,53874000,53880000,0,-488.111,1.0,-0.016357422,-0.016885806,1.090328,9.815954e-06,-1.0939813e-05,0,0,1
54432000,54274000,54280000,0,-488.116,1.0,-0.013153076,-0.015226815,1.0900271,6.3485913e-06,-8.89927e-06,0,0,1
54832000,54674000,54680000,0,-488.106,1.0,-0.029510498,-0.02157512,1.0904069,3.1946587e-05,-1.9142522e-05,0,0,1
55232000,55074000,55080000,0,-488.109,1.0,-0.03112793,-0.025820814,1.090122,3.5553745e-05,-2.6436399e-05,0,0,1
55632000,55474000,55480000,0,-488.107,1.0,-0.035461426,-0.030105531,1.0904917,4.612645e-05,-3.5187535e-05,0,0,1
56032000,55874000,55880000,0,-488.107,1.0,-0.039978027,-0.03449331,1.090198,5.8640453e-05,-4.5611054e-05,0,0,1
56432000,56274000,56280000,0,-488.111,1.0,-0.038604736,-0.036320608,1.0905591,5.4662807e-05,-4.9634054e-05,0,0,1
56832000,56678000,56680000,0,-488.11,1.0,-0.041107178,-0.03845974,1.0902762,6.19953e-05,-5.515833e-05,0,0,1
57232000,57074000,57080000,0,-488.111,1.0,-0.0418396,-0.03995352,1.0900011,6.424038e-05,-5.917227e-05,0,0,1
57632000,57474000,57480000,0,-488.099,1.0,-0.054473877,-0.04640701,1.0903766,0.00010885792,-8.125478e-05,0,0,1
58024000,57870000,57872000,0,-488.102,1.0,-0.052459717,-0.04908209,1.0898443,0.00010100605,-8.998414e-05,0,0,1
58432000,58274000,58280000,0,-488.1,1.0,-0.05618286,-0.052255444,1.0898226,0.00011585423,-0.00010154555,0,0,1
58832000,58674000,58680000,0,-488.098,1.0,-0.055786133,-0.05382464,1.0901852,0.00011418584,-0.000107163454,0,0,1
59232000,59074000,59080000,0,-488.1,1.0,-0.051116943,-0.05262122,1.089886,9.589781e-05,-0.000102156504,0,0,1
59632000,59474000,59480000,0,-488.105,1.0,-0.038879395,-0.04651374,1.0896101,5.5491677e-05,-8.141658e-05,0,0,1
60032000,59874000,59880000,0,-488.106,1.0,-0.03353882,-0.040747106,1.0899882,4.127943e-05,-6.357785e-05,0,0,1
60432000,60274000,60280000,0,-488.1,1.0,-0.041015625,-0.04086645,1.089734,6.175017e-05,-6.2765546e-05,0,0,1
60832000,60674000,60680000,0,-488.107,1.0,-0.03375244,-0.03770467,1.0894749,4.1826654e-05,-5.345937e-05,0,0,1
61224000,61070000,61072000,0,-488.118,1.0,-0.020202637,-0.029969396,1.0896167,1.4983124e-05,-3.6454243e-05,0,0,1
61632000,61474000,61480000,0,-488.113,1.0,-0.025939941,-0.028168622,1.0896127,2.4701641e-05,-3.1201973e-05,0,0,1
62032000,61874000,61880000,0,-488.106,1.0,-0.031433105,-0.029619504,1.0899878,3.625876e-05,-3.3449433e-05,0,0,1
62432000,62274000,62280000,0,-488.106,1.0,-0.029632568,-0.02962531,1.0897044,3.2232198e-05,-3.290844e-05,0,0,1
62832000,62674000,62680000,0,-488.098,1.0,-0.034362793,-0.031730857,1.0900695,4.3329404e-05,-3.753998e-05,0,0,1
63232000,63074000,63080000,0,-488.102,1.0,-0.025115967,-0.028790906,1.0898002,2.31533e-05,-3.11459e-05,0,0,1
63632000,63474000,63480000,0,-488.103,1.0,-0.021453857,-0.025529996,1.0895325,1.6897817e-05,-2.4813418e-05,0,0,1
64032000,63874000,63880000,0,-488.103,1.0,-0.019165039,-0.022701126,1.0899099,1.3479967e-05,-1.977633e-05,0,0,1
64432000,64278000,64280000,0,-488.103,1.0,-0.016021729,-0.019716086,1.0896319,9.423211e-06,-1.5149493e-05,0,0,1
64832000,64674000,64680000,0,-488.111,1.0,-0.0057678223,-0.013551451,1.0899998,1.220836e-06,-8.993524e-06,0,0,1
65232000,65074000,65080000,0,-488.109,1.0,-0.0074157715,-0.010824482,1.0897135,2.018647e-06,-5.8935784e-06,0,0,1
65632000,65474000,65480000,0,-488.108,1.0,-0.007293701,-0.009255246,1.0894223,1.953258e-06,-4.1423245e-06,0,0,1
66032000,65874000,65880000,0,-488.105,1.0,-0.008422852,-0.008885293,1.0897808,2.6039888e-06,-3.4586196e-06,0,0,1
66432000,66274000,66280000,0,-488.102,1.0,-0.0069274902,-0.008015159,1.0894842,1.7619391e-06,-2.7045394e-06,0,0,1
66832000,66674000,66680000,0,-488.1,1.0,-0.0025634766,-0.005592189,1.0898371,2.411888e-07,-1.6097168e-06,0,0,1
67232000,67074000,67080000,0,-488.099,1.0,-0.0020141602,-0.0040019536,1.0895368,1.489382e-07,-9.604819e-07,0,0,1
67632000,67474000,67480000,0,-488.106,1.0,0.0074157715,0.0010725912,1.0898855,2.0183284e-06,3.6343386e-07,0,0,1
68032000,67874000,67880000,0,-488.099,1.0,0.0015563965,0.0012876157,1.0895828,8.8928346e-08,2.414314e-07,0,0,1
68432000,68274000,68280000,0,-488.097,1.0,0.0,0.00071534206,1.0899287,0.0,1.3412854e-07,0,0,1
68832000,68674000,68680000,0,-488.097,1.0,-0.0047912598,-0.0017320365,1.0896248,8.4271835e-07,-3.0002565e-07,0,0,1
69232000,69074000,69080000,0,-488.112,1.0,0.012023926,0.004381725,1.089319,5.308814e-06,2.192792e-06,0,0,1
69632000,69474000,69480000,0,-488.101,1.0,0.0026855469,0.0036278681,1.0890359,2.6490082e-07,1.3359513e-06,0,0,1
70032000,69874000,69880000,0,-488.101,1.0,0.0057678223,0.0045789587,1.0894313,1.221473e-06,1.285072e-06,0,0,1
70432000,70274000,70280000,0,-488.109,1.0,0.015167236,0.0092848595,1.0891783,8.448389e-06,4.4687686e-06,0,0,1
70824000,70670000,70672000,0,-488.104,1.0,0.008575439,0.008971321,1.0893202,2.7003323e-06,3.687183e-06,0,0,1
71232000,71074000,71080000,0,-488.106,1.0,0.0132751465,0.010894712,1.0893223,6.471161e-06,4.9313503e-06,0,0,1
71632000,71474000,71480000,0,-488.098,1.0,0.012512207,0.011613599,1.089052,5.7501506e-06,5.2952614e-06,0,0,1
72032000,71874000,71880000,0,-488.113,1.0,0.030273438,0.01990686,1.0894417,3.364957e-05,1.7897177e-05,0,0,1
72232000,72074000,72080000,0,-488.117,1.0,0.029876709,0.022755388,1.0851041,3.290441e-05,2.2184959e-05,0,0,1
72632000,72474000,72480000,0,-488.107,1.0,0.020690918,0.021837845,1.0853498,1.5777921e-05,1.9337385e-05,0,0,1
73032000,72874000,72880000,0,-488.104,1.0,0.021606445,0.021735001,1.0861565,1.7192311e-05,1.8384018e-05,0,0,1
73432000,73274000,73280000,0,-488.103,1.0,0.024963379,0.023169836,1.0863312,2.2945866e-05,2.0411506e-05,0,0,1
73832000,73674000,73680000,0,-488.099,1.0,0.022888184,0.023044657,1.0870719,1.9276331e-05,1.9906984e-05,0,0,1
74232000,74074000,74080000,0,-488.106,1.0,0.031402588,0.026759293,1.0871656,3.628233e-05,2.7184917e-05,0,0,1
74632000,74474000,74480000,0,-488.106,1.0,0.031463623,0.028850107,1.0872145,3.642187e-05,3.129023e-05,0,0,1
75032000,74874000,74880000,0,-488.103,1.0,0.028930664,0.02888591,1.0878462,3.07758e-05,3.1061594e-05,0,0,1
75432000,75274000,75280000,0,-488.101,1.0,0.03036499,0.029543279,1.0878174,3.3903947e-05,3.232486e-05,0,0,1
75832000,75674000,75680000,0,-488.104,1.0,0.03665161,0.03270254,1.0883822,4.9370177e-05,3.990056e-05,0,0,1
76232000,76074000,76080000,0,-488.101,1.0,0.03765869,0.034905273,1.0882852,5.2125197e-05,4.533373e-05,0,0,1
76632000,76474000,76480000,0,-488.103,1.0,0.043518066,0.03873318,1.0881727,6.961476e-05,5.61253e-05,0,0,1
77032000,76874000,76880000,0,-488.101,1.0,0.044647217,0.04136164,1.0886791,7.3240095e-05,6.373187e-05,0,0,1
77432000,77274000,77280000,0,-488.108,1.0,0.058532715,0.04899323,1.0885258,0.00012589793,9.136123e-05,0,0,1
77832000,77674000,77680000,0,-488.097,1.0,0.0501709,0.049516637,1.088986,9.245735e-05,9.184839e-05,0,0,1
78232000,78074000,78080000,0,-488.102,1.0,0.064331055,0.056100823,1.0887892,0.00015203988,0.00011860017,0,0,1
78632000,78474000,78480000,0,-488.1,1.0,0.0664978,0.060721703,1.0892131,0.00016239092,0.00013806272,0,0,1
79032000,78874000,78880000,0,-488.105,1.0,0.074523926,0.06685603,1.0890052,0.00020399592,0.00016736636,0,0,1
79432000,79274000,79280000,0,-488.109,1.0,0.07925415,0.072366305,1.0887887,0.00023075992,0.00019554127,0,0,1
79832000,79674000,79680000,0,-488.107,1.0,0.07733154,0.07457308,1.0885588,0.00021974623,0.00020629904,0,0,1
80232000,80074000,80080000,0,-488.096,1.0,0.0664978,0.070984066,1.0889827,0.00016242528,0.00018679959,0,0,1
80632000,80474000,80480000,0,-488.097,1.0,0.06719971,0.06930213,1.0887574,0.00016590659,0.00017751381,0,0,1
81032000,80874000,80880000,0,-488.106,1.0,0.07885742,0.07354893,1.0891593,0.00022837773,0.00020012,0,0,1
81432000,81274000,81280000,0,-488.107,1.0,0.0803833,0.076586425,1.0889138,0.00023735488,0.00021666884,0,0,1
81832000,81674000,81680000,0,-488.094,1.0,0.065338135,0.07158718,1.0886654,0.00015685524,0.00019008502,0,0,1
82232000,82074000,82080000,0,-488.102,1.0,0.07623291,0.07365195,1.0890691,0.00021344675,0.00020046801,0,0,1
82632000,82474000,82480000,0,-488.102,1.0,0.07598877,0.074690536,1.0888449,0.00021212545,0.00020564909,0,0,1
83032000,82874000,82880000,0,-488.101,1.0,0.077819824,0.07608133,1.0886229,0.00022251692,0.0002131459,0,0,1
83432000,83274000,83280000,0,-488.094,1.0,0.07330322,0.07484662,1.089028,0.00019736361,0.00020613155,0,0,1
83832000,83674000,83680000,0,-488.099,1.0,0.08276367,0.07836531,1.0887887,0.00025164938,0.00022636169,0,0,1
84232000,84074000,84080000,0,-488.106,1.0,0.08807373,0.082680166,1.0885402,0.00028504163,0.00025244168,0,0,1
84632000,84474000,84480000,0,-488.113,1.0,0.09283447,0.08719319,1.0889249,0.00031657793,0.00028094667,0,0,1
85032000,84874000,84880000,0,-488.11,1.0,0.08810425,0.08759811,1.0886904,0.00028519984,0.00028283696,0,0,1
85432000,85274000,85280000,0,-488.102,1.0,0.07702637,0.082899556,1.08845,0.00021803708,0.000254037,0,0,1
85832000,85674000,85680000,0,-488.093,1.0,0.06427002,0.07461976,1.0888629,0.00015174125,0.00020857222,0,0,1
86232000,86074000,86080000,0,-488.104,1.0,0.07467651,0.07464498,1.0886371,0.0002049014,0.00020694075,0,0,1
86632000,86474000,86480000,0,-488.106,1.0,0.07272339,0.07379094,1.0884014,0.00019436546,0.00020135174,0,0,1
87032000,86874000,86880000,0,-488.099,1.0,0.06390381,0.06939666,1.0887961,0.00015002613,0.00017854036,0,0,1
87432000,87274000,87280000,0,-488.111,1.0,0.07254028,0.07079382,1.088546,0.00019336224,0.00018512786,0,0,1
87832000,87674000,87680000,0,-488.098,1.0,0.05267334,0.062740274,1.088928,0.00010191604,0.00014814483,0,0,1
88232000,88074000,88080000,0,-488.095,1.0,0.04345703,0.054169945,1.0886662,6.938816e-05,0.00011314186,0,0,1
88632000,88474000,88480000,0,-488.107,1.0,0.052124023,0.053260647,1.0890374,9.979139e-05,0.00010720832,0,0,1
89032000,88874000,88880000,0,-488.1,1.0,0.042175293,0.048333824,1.0887665,6.534938e-05,8.860434e-05,0,0,1
89432000,89274000,89280000,0,-488.105,1.0,0.04360962,0.046234176,1.088502,6.988683e-05,8.028545e-05,0,0,1
89832000,89674000,89680000,0,-488.105,1.0,0.042053223,0.044375975,1.0888875,6.496442e-05,7.3476105e-05,0,0,1
90232000,90074000,90080000,0,-488.107,1.0,0.043395996,0.04394043,1.088632,6.919556e-05,7.157364e-05,0,0,1
90632000,90474000,90480000,0,-488.1,1.0,0.034454346,0.03972439,1.0890079,4.360306e-05,5.914227e-05,0,0,1
91032000,90874000,90880000,0,-488.091,1.0,0.025238037,0.033286013,1.0887436,2.3401599e-05,4.3257525e-05,0,0,1
91432000,91274000,91280000,0,-488.094,1.0,0.029785156,0.03173008,1.0884739,3.2601813e-05,3.852165e-05,0,0,1
91832000,91674000,91680000,0,-488.106,1.0,0.045532227,0.03786437,1.0888397,7.616121e-05,5.5250348e-05,0,0,1
92232000,92074000,92080000,0,-488.105,1.0,0.03930664,0.03850538,1.0885637,5.6772496e-05,5.592686e-05,0,0,1
92632000,92474000,92480000,0,-488.099,1.0,0.029205322,0.03437202,1.0889235,3.1331892e-05,4.4995762e-05,0,0,1
93032000,92874000,92880000,0,-488.096,1.0,0.022949219,0.02929522,1.0886427,1.9351313e-05,3.359823e-05,0,0,1
93432000,93274000,93280000,0,-488.111,1.0,0.034423828,0.0315746,1.0889977,4.352626e-05,3.8010687e-05,0,0,1
93832000,93674000,93680000,0,-488.107,1.0,0.02709961,0.029585715,1.0887136,2.698189e-05,3.3108998e-05,0,0,1
94232000,94074000,94080000,0,-488.108,1.0,0.02029419,0.02545615,1.0884484,1.5135458e-05,2.5120757e-05,0,0,1
94624000,94470000,94472000,0,-488.106,1.0,0.015197754,0.020922305,1.0879556,8.491954e-06,1.7771421e-05,0,0,1
95032000,94874000,94880000,0,-488.097,1.0,0.003753662,0.013249593,1.0886117,5.1772287e-07,1.0060698e-05,0,0,1
95432000,95274000,95280000,0,-488.109,1.0,0.013397217,0.013315204,1.0883695,6.596488e-06,8.521049e-06,0,0,1
95832000,95674000,95680000,0,-488.112,1.0,0.014434814,0.013812808,1.0887558,7.655118e-06,8.13619e-06,0,0,1
96232000,96074000,96080000,0,-488.107,1.0,0.0043945312,0.009626907,1.0885032,7.0966826e-07,4.8355137e-06,0,0,1
96632000,96474000,96480000,0,-488.108,1.0,0.0028076172,0.0065961117,1.0888798,2.895715e-07,2.8150946e-06,0,0,1
97032000,96874000,96880000,0,-488.107,1.0,0.00015258789,0.0037323232,1.08863,8.5549967e-10,1.5643217e-06,0,0,1
97432000,97274000,97280000,0,-488.118,1.0,0.008483887,0.0058441292,1.0883912,2.6452376e-06,2.0447287e-06,0,0,1
97832000,97674000,97680000,0,-488.108,1.0,-0.0060424805,0.00056119123,1.0887792,1.3413764e-06,5.3979295e-07,0,0,1
98232000,98074000,98080000,0,-488.113,1.0,0.0028686523,0.0015867295,1.0885359,3.0239391e-07,4.3428224e-07,0,0,1
98632000,98474000,98480000,0,-488.102,1.0,-0.006378174,-0.001953228,1.0883148,1.4951962e-06,-4.2326383e-07,0,0,1
99032000,98874000,98880000,0,-488.102,1.0,-0.0043945312,-0.0030382518,1.0881071,7.099266e-07,-5.506695e-07,0,0,1
99432000,99274000,99280000,0,-488.109,1.0,0.0015563965,-0.0009961857,1.0885209,8.90151e-08,-2.6636522e-07,0,0,1
99832000,99674000,99680000,0,-488.107,1.0,-0.002532959,-0.001679196,1.0882959,2.3581386e-07,-2.5278683e-07,0,0,1
100232000,100074000,100080000,0,-488.095,1.0,-0.015136719,-0.0076603177,1.0886942,8.418167e-06,-3.8818453e-06,0,0,1
100624000,100470000,100472000,0,-488.096,1.0,-0.013580322,-0.010276748,1.0882151,6.778996e-06,-5.1622824e-06,0,0,1
101032000,100874000,100880000,0,-488.098,1.0,-0.0072021484,-0.008902702,1.0882251,1.9066255e-06,-3.7073207e-06,0,0,1
101432000,101274000,101280000,0,-488.108,1.0,0.0059509277,-0.002301088,1.088604,1.301246e-06,-1.4812908e-06,0,0,1
101832000,101674000,101680000,0,-488.102,1.0,-0.0010681152,-0.0017531001,1.0883439,4.19305e-08,-8.415751e-07,0,0,1
102232000,102074000,102080000,0,-488.108,1.0,0.0064697266,0.0019014898,1.0881119,1.5387154e-06,2.1633184e-07,0,0,1
102632000,102474000,102480000,0,-488.1,1.0,-0.003479004,-0.00048984087,1.0885245,4.4476604e-07,-7.748946e-08,0,0,1
103032000,102874000,102880000,0,-488.099,1.0,-0.0043029785,-0.002184569,1.0883119,6.805264e-07,-3.455059e-07,0,0,1
103432000,103274000,103280000,0,-488.106,1.0,0.0017700195,-0.00042697391,1.0881065,1.1517141e-07,-1.407604e-07,0,0,1
103832000,103678000,103680000,0,-488.102,1.0,-0.005859375,-0.0028547281,1.0878916,1.2623418e-06,-6.4199804e-07,0,0,1
104232000,104074000,104080000,0,-488.102,1.0,-0.007659912,-0.0049784477,1.0883229,2.1565018e-06,-1.3113546e-06,0,0,1
104632000,104474000,104480000,0,-488.108,1.0,-0.0020751953,-0.0036881133,1.0881164,1.583079e-07,-7.9888935e-07,0,0,1
105032000,104874000,104880000,0,-488.107,1.0,-0.0043029785,-0.0039613866,1.0885288,6.803908e-07,-7.4622335e-07,0,0,1
105432000,105274000,105280000,0,-488.103,1.0,-0.01171875,-0.007409104,1.0883031,5.047458e-06,-2.6578834e-06,0,0,1
105832000,105678000,105680000,0,-488.105,1.0,-0.013336182,-0.010057931,1.0880837,6.5382374e-06,-4.3920236e-06,0,0,1
106232000,106074000,106080000,0,-488.106,1.0,-0.017913818,-0.013529953,1.0884968,1.1792589e-05,-7.662809e-06,0,0,1
106632000,106474000,106480000,0,-488.109,1.0,-0.015319824,-0.014325451,1.0882723,8.626407e-06,-8.091075e-06,0,0,1
107032000,106874000,106880000,0,-488.105,1.0,-0.014465332,-0.014387621,1.0880376,7.692595e-06,-7.913973e-06,0,0,1
107432000,107274000,107280000,0,-488.108,1.0,-0.011810303,-0.013242146,1.088428,5.126044e-06,-6.674893e-06,0,0,1
107832000,107674000,107680000,0,-488.11,1.0,-0.011169434,-0.01232094,1.0881789,4.585873e-06,-5.7464395e-06,0,0,1
108232000,108074000,108080000,0,-488.101,1.0,-0.02432251,-0.017654972,1.0879437,2.1750557e-05,-1.285938e-05,0,0,1
108632000,108474000,108480000,0,-488.1,1.0,-0.026733398,-0.021689828,1.0883408,2.6266574e-05,-1.8818133e-05,0,0,1
109032000,108874000,108880000,0,-488.093,1.0,-0.033721924,-0.027037427,1.0881258,4.1802818e-05,-2.9033548e-05,0,0,1
109432000,109274000,109280000,0,-488.102,1.0,-0.02758789,-0.027282078,1.0879039,2.7983786e-05,-2.8566987e-05,0,0,1
109832000,109674000,109680000,0,-488.093,1.0,-0.0362854,-0.031283554,1.0883048,4.8391972e-05,-3.7378093e-05,0,0,1
110232000,110074000,110080000,0,-488.097,1.0,-0.03112793,-0.031214388,1.0880673,3.5620884e-05,-3.659711e-05,0,0,1
110632000,110474000,110480000,0,-488.098,1.0,-0.03338623,-0.03217965,1.0884545,4.0962314e-05,-3.85372e-05,0,0,1
111032000,110874000,110880000,0,-488.101,1.0,-0.03265381,-0.032390386,1.0882043,3.919379e-05,-3.8829017e-05,0,0,1
111432000,111274000,111280000,0,-488.109,1.0,-0.027130127,-0.030052492,1.0885801,2.7046011e-05,-3.3592125e-05,0,0,1
111832000,111674000,111680000,0,-488.097,1.0,-0.042816162,-0.035725236,1.0883195,6.737814e-05,-4.8608134e-05,0,0,1
112232000,112074000,112080000,0,-488.097,1.0,-0.046081543,-0.04032804,1.0886862,7.802096e-05,-6.1680505e-05,0,0,1
112632000,112474000,112480000,0,-488.112,1.0,-0.03302002,-0.03708003,1.0884178,4.0069972e-05,-5.2075822e-05,0,0,1
113032000,112874000,112880000,0,-488.108,1.0,-0.040771484,-0.03872068,1.0881449,6.1106344e-05,-5.608939e-05,0,0,1
113432000,113274000,113280000,0,-488.099,1.0,-0.055664062,-0.046251073,1.0885032,0.00011386233,-8.176625e-05,0,0,1
113832000,113674000,113680000,0,-488.099,1.0,-0.05596924,-0.050570257,1.0882256,0.00011514361,-9.6600634e-05,0,0,1
114232000,114074000,114080000,0,-488.106,1.0,-0.04623413,-0.04864309,1.0885794,7.854622e-05,-8.8576446e-05,0,0,1
114632000,114474000,114480000,0,-488.103,1.0,-0.047973633,-0.048345555,1.0883151,8.458835e-05,-8.680396e-05,0,0,1
115032000,114874000,114880000,0,-488.099,1.0,-0.05090332,-0.049482338,1.0880597,9.525757e-05,-9.0561116e-05,0,0,1
115432000,115274000,115280000,0,-488.104,1.0,-0.039215088,-0.044919115,1.0884321,5.651517e-05,-7.542958e-05,0,0,1
115832000,115674000,115680000,0,-488.104,1.0,-0.038482666,-0.04205847,1.0881704,5.44369e-05,-6.60995e-05,0,0,1
116232000,116074000,116080000,0,-488.1,1.0,-0.040863037,-0.041527167,1.0885369,6.135898e-05,-6.39926e-05,0,0,1
116632000,116474000,116480000,0,-488.11,1.0,-0.031280518,-0.0369731,1.0882697,3.5964273e-05,-5.1535564e-05,0,0,1
117032000,116874000,116880000,0,-488.1,1.0,-0.039001465,-0.037874594,1.0886307,5.589092e-05,-5.3471278e-05,0,0,1
117424000,117270000,117272000,0,-488.097,1.0,-0.03970337,-0.03868285,1.0881215,5.7947847e-05,-5.544976e-05,0,0,1
117832000,117674000,117680000,0,-488.097,1.0,-0.041107178,-0.03976629,1.08813,6.211758e-05,-5.8429625e-05,0,0,1
118232000,118074000,118080000,0,-488.105,1.0,-0.032287598,-0.036442425,1.0878842,3.833088e-05,-4.9496848e-05,0,0,1
118632000,118474000,118480000,0,-488.096,1.0,-0.04071045,-0.038339324,1.0882839,6.0915747e-05,-5.4571916e-05,0,0,1
119032000,118874000,118880000,0,-488.101,1.0,-0.035308838,-0.036992442,1.0880506,4.583294e-05,-5.0687926e-05,0,0,1
119432000,119274000,119280000,0,-488.101,1.0,-0.032440186,-0.034969218,1.0884392,3.8674298e-05,-4.5348534e-05,0,0,1
119832000,119674000,119680000,0,-488.1,1.0,-0.03366089,-0.034387738,1.0881948,4.164899e-05,-4.370429e-05,0,0,1
120232000,120074000,120080000,0,-488.105,1.0,-0.026885986,-0.031053625,1.0879437,2.6576974e-05,-3.6092148e-05,0,0,1
120632000,120474000,120480000,0,-488.109,1.0,-0.025909424,-0.028767314,1.0883191,2.4672847e-05,-3.10169e-05,0,0,1
121032000,120874000,120880000,0,-488.105,1.0,-0.032989502,-0.030643841,1.0880592,4.000912e-05,-3.5013443e-05,0,0,1
121432000,121274000,121280000,0,-488.101,1.0,-0.036895752,-0.03342247,1.0878105,5.0056384e-05,-4.1699197e-05,0,0,1
121832000,121674000,121680000,0,-488.101,1.0,-0.040771484,-0.0366887,1.0881994,6.110329e-05,-5.0323237e-05,0,0,1
122232000,122074000,122080000,0,-488.1,1.0,-0.046051025,-0.040849734,1.0879701,7.796894e-05,-6.261022e-05,0,0,1
122632000,122474000,122480000,0,-488.108,1.0,-0.04107666,-0.04095059,1.0877459,6.2047286e-05,-6.236003e-05,0,0,1
123032000,122874000,122880000,0,-488.104,1.0,-0.04714966,-0.04370573,1.0881432,8.17205e-05,-7.0964685e-05,0,0,1
123432000,123274000,123280000,0,-488.114,1.0,-0.037078857,-0.040760454,1.0879058,5.055003e-05,-6.189151e-05,0,0,1
123832000,123674000,123680000,0,-488.112,1.0,-0.03894043,-0.039951555,1.0882913,5.5733497e-05,-5.9154612e-05,0,0,1
124232000,124074000,124080000,0,-488.106,1.0,-0.043670654,-0.04160449,1.0880423,7.0112204e-05,-6.402465e-05,0,0,1
124632000,124474000,124480000,0,-488.119,1.0,-0.029144287,-0.03606662,1.0884175,3.1215575e-05,-4.944284e-05,0,0,1
125032000,124874000,124880000,0,-488.112,1.0,-0.03604126,-0.03605535,1.088159,4.7749363e-05,-4.8690184e-05,0,0,1
125432000,125274000,125280000,0,-488.106,1.0,-0.04159546,-0.03851762,1.0885257,6.3578926e-05,-5.5307402e-05,0,0,1
125832000,125674000,125680000,0,-488.101,1.0,-0.0435791,-0.040767167,1.0882597,6.980459e-05,-6.17506e-05,0,0,1
126232000,126074000,126080000,0,-488.096,1.0,-0.04537964,-0.042817153,1.0879893,7.571073e-05,-6.79551e-05,0,0,1
126632000,126474000,126480000,0,-488.11,1.0,-0.029907227,-0.03707941,1.0883482,3.2873384e-05,-5.2363226e-05,0,0,1
127032000,126874000,126880000,0,-488.103,1.0,-0.03466797,-0.036007658,1.088073,4.4183358e-05,-4.872773e-05,0,0,1
127432000,127274000,127280000,0,-488.103,1.0,-0.033721924,-0.034991775,1.0878065,4.181509e-05,-4.5655444e-05,0,0,1
127832000,127674000,127680000,0,-488.114,1.0,-0.017150879,-0.027062487,1.0882008,1.08124395e-05,-3.0169664e-05,0,0,1
128232000,128074000,128080000,0,-488.118,1.0,-0.011260986,-0.020039598,1.0879737,4.662238e-06,-1.8833029e-05,0,0,1
128632000,128478000,128480000,0,-488.107,1.0,-0.02432251,-0.021953642,1.0877395,2.1754639e-05,-2.0138705e-05,0,0,1
129032000,128874000,128880000,0,-488.108,1.0,-0.02508545,-0.023337789,1.0875211,2.3145474e-05,-2.146759e-05,0,0,1
129432000,129274000,129280000,0,-488.101,1.0,-0.032836914,-0.027559623,1.0879533,3.964372e-05,-2.954587e-05,0,0,1
129832000,129674000,129680000,0,-488.102,1.0,-0.028198242,-0.027843453,1.0877541,2.9239727e-05,-2.9409806e-05,0,0,1
130232000,130074000,130080000,0,-488.118,1.0,-0.009796143,-0.019822426,1.0881696,3.5275536e-06,-1.7906583e-05,0,0,1
130632000,130474000,130480000,0,-488.106,1.0,-0.023254395,-0.021347746,1.0879526,1.9882002e-05,-1.8784547e-05,0,0,1
131032000,130874000,130880000,0,-488.099,1.0,-0.025756836,-0.023307342,1.0877256,2.4396393e-05,-2.1278702e-05,0,0,1
131432000,131274000,131280000,0,-488.102,1.0,-0.019012451,-0.021398501,1.0881193,1.3288003e-05,-1.772728e-05,0,0,1
131832000,131674000,131680000,0,-488.108,1.0,-0.008148193,-0.015509475,1.0879039,2.441137e-06,-1.0933438e-05,0,0,1
132232000,132074000,132080000,0,-488.103,1.0,-0.007446289,-0.011925837,1.0876814,2.0390978e-06,-6.9803978e-06,0,0,1
132632000,132474000,132480000,0,-488.109,1.0,0.0037841797,-0.004943607,1.0880789,5.2643304e-07,-3.644028e-06,0,0,1
133032000,132874000,132880000,0,-488.107,1.0,0.00592041,-0.00011515431,1.0878414,1.288837e-06,-1.4516434e-06,0,0,1
133432000,133274000,133280000,0,-488.104,1.0,0.007293701,0.0031776705,1.0876217,1.956492e-06,6.3083576e-08,0,0,1
133832000,133674000,133680000,0,-488.11,1.0,0.020111084,0.010703633,1.0880241,1.4869365e-05,6.6436537e-06,0,0,1
134232000,134074000,134080000,0,-488.105,1.0,0.019500732,0.014613455,1.0877922,1.3983501e-05,9.905809e-06,0,0,1
134632000,134474000,134480000,0,-488.103,1.0,0.024261475,0.018901464,1.0881808,2.1636815e-05,1.511959e-05,0,0,1
135032000,134874000,134880000,0,-488.112,1.0,0.03765869,0.02723801,1.0879357,5.2141942e-05,3.157397e-05,0,0,1
135432000,135274000,135280000,0,-488.104,1.0,0.03137207,0.02907537,1.0876901,3.6194382e-05,3.3627486e-05,0,0,1
135832000,135674000,135680000,0,-488.104,1.0,0.03579712,0.032062814,1.0880876,4.7107744e-05,3.9618713e-05,0,0,1
136232000,136074000,136080000,0,-488.102,1.0,0.030975342,0.031579494,1.0878525,3.527948e-05,3.7690166e-05,0,0,1
136632000,136474000,136480000,0,-488.107,1.0,0.033843994,0.032585938,1.0882378,4.210168e-05,3.965084e-05,0,0,1
137032000,136874000,136880000,0,-488.11,1.0,0.035980225,0.03409451,1.0880075,4.75944e-05,4.318131e-05,0,0,1
137432000,137274000,137280000,0,-488.101,1.0,0.02331543,0.029303806,1.0877817,1.9989646e-05,3.2873904e-05,0,0,1
137832000,137674000,137680000,0,-488.109,1.0,0.028167725,0.02879888,1.0881747,2.9165198e-05,3.122559e-05,0,0,1
138232000,138074000,138080000,0,-488.111,1.0,0.024932861,0.02708065,1.0879523,2.2855693e-05,2.7505635e-05,0,0,1
138632000,138474000,138480000,0,-488.102,1.0,0.0105896,0.019751294,1.0877337,4.123789e-06,1.7113704e-05,0,0,1
139032000,138874000,138880000,0,-488.111,1.0,0.015838623,0.018012328,1.0881326,9.221742e-06,1.3606164e-05,0,0,1
139432000,139274000,139280000,0,-488.11,1.0,0.011352539,0.015052422,1.0878996,4.738678e-06,9.665059e-06,0,0,1
139832000,139674000,139680000,0,-488.11,1.0,0.0048828125,0.010532595,1.0876842,8.767934e-07,5.7591633e-06,0,0,1
140232000,140074000,140080000,0,-488.11,1.0,0.002532959,0.006977201,1.0880884,2.3585882e-07,3.3043611e-06,0,0,1
140632000,140474000,140480000,0,-488.103,1.0,-0.0078125,0.00040400028,1.0878608,2.2442266e-06,8.3832197e-07,0,0,1
141032000,140874000,140880000,0,-488.115,1.0,0.0025634766,0.0013637675,1.0882511,2.4154028e-07,5.730857e-07,0,0,1
141432000,141274000,141280000,0,-488.106,1.0,-0.008392334,-0.0029722776,1.0880101,2.589361e-06,-8.324463e-07,0,0,1
141832000,141674000,141680000,0,-488.108,1.0,-0.007904053,-0.0051641776,1.0877779,2.297309e-06,-1.4834965e-06,0,0,1
142232000,142074000,142080000,0,-488.097,1.0,-0.02041626,-0.011942881,1.0881759,1.5321923e-05,-7.633908e-06,0,0,1
142632000,142474000,142480000,0,-488.101,1.0,-0.013122559,-0.012467182,1.0879431,6.33127e-06,-7.054958e-06,0,0,1
143032000,142874000,142880000,0,-488.104,1.0,-0.0037231445,-0.008580943,1.0877024,5.097646e-07,-4.145983e-06,0,0,1
143432000,143274000,143280000,0,-488.109,1.0,0.0045776367,-0.0027326848,1.0880836,7.7033627e-07,-1.9609522e-06,0,0,1
143824000,143670000,143672000,0,-488.113,1.0,0.011810303,0.003694796,1.087603,5.1299326e-06,1.1729653e-06,0,0,1
144232000,144074000,144080000,0,-488.115,1.0,0.0152282715,0.0088491365,1.087645,8.528527e-06,4.4601857e-06,0,0,1
144632000,144474000,144480000,0,-488.107,1.0,0.008483887,0.008686803,1.0874596,2.6475038e-06,3.6545493e-06,0,0,1
145032000,144874000,144880000,0,-488.112,1.0,0.01739502,0.012557122,1.0878885,1.1125651e-05,6.9750395e-06,0,0,1
145432000,145274000,145280000,0,-488.109,1.0,0.016998291,0.014530975,1.0876861,1.06259295e-05,8.597657e-06,0,0,1
145832000,145674000,145680000,0,-488.106,1.0,0.014678955,0.014596744,1.0880969,7.9210495e-06,8.296943e-06,0,0,1
146224000,146070000,146072000,0,-488.112,1.0,0.024475098,0.018962624,1.0876404,2.203046e-05,1.4366666e-05,0,0,1
146632000,146474000,146480000,0,-488.108,1.0,0.02468872,0.021521632,1.0876765,2.2415963e-05,1.7963917e-05,0,0,1
147024000,146870000,146872000,0,-488.106,1.0,0.02319336,0.022260476,1.0872498,1.9790556e-05,1.8771227e-05,0,0,1
147432000,147274000,147280000,0,-488.105,1.0,0.025543213,0.02372754,1.087931,2.3988863e-05,2.1103002e-05,0,0,1
147832000,147674000,147680000,0,-488.103,1.0,0.021697998,0.02282552,1.0877243,1.7313325e-05,1.9418701e-05,0,0,1
148232000,148074000,148080000,0,-488.104,1.0,0.024749756,0.023680735,1.0875076,2.2530432e-05,2.0801694e-05,0,0,1
148632000,148474000,148480000,0,-488.103,1.0,0.023742676,0.023708265,1.087931,2.0726116e-05,2.0768104e-05,0,0,1
149032000,148874000,148880000,0,-488.106,1.0,0.02709961,0.025215529,1.0877337,2.7006197e-05,2.354059e-05,0,0,1
149432000,149274000,149280000,0,-488.111,1.0,0.034606934,0.029389486,1.0875416,4.4049437e-05,3.2655633e-05,0,0,1
149832000,149674000,149680000,0,-488.105,1.0,0.02520752,0.027530834,1.0879607,2.3361838e-05,2.8525057e-05,0,0,1
150232000,150074000,150080000,0,-488.1,1.0,0.018249512,0.023405802,1.0877475,1.2247133e-05,2.1290423e-05,0,0,1
150632000,150474000,150480000,0,-488.105,1.0,0.028900146,0.025847733,1.0881484,3.0702377e-05,2.5473513e-05,0,0,1
151032000,150874000,150880000,0,-488.108,1.0,0.02923584,0.027353559,1.0879172,3.1426447e-05,2.8119262e-05,0,0,1
151432000,151274000,151280000,0,-488.104,1.0,0.021087646,0.024568709,1.0876769,1.6353712e-05,2.2890128e-05,0,0,1
151832000,151674000,151680000,0,-488.108,1.0,0.024658203,0.024608484,1.0880573,2.2352757e-05,2.2651297e-05,0,0,1
152232000,152074000,152080000,0,-488.107,1.0,0.01586914,0.02072433,1.0878044,9.260107e-06,1.6699656e-05,0,0,1
152632000,152474000,152480000,0,-488.102,1.0,0.0028381348,0.012774909,1.088174,2.9609268e-07,9.409183e-06,0,0,1
153032000,152874000,152880000,0,-488.09,1.0,-0.015075684,0.00039686728,1.0879118,8.356421e-06,1.5133583e-06,0,0,1
153432000,153274000,153280000,0,-488.101,1.0,-0.010955811,-0.004648768,1.0882733,4.4117514e-06,-1.1200241e-06,0,0,1
153832000,153674000,153680000,0,-488.112,1.0,-0.0018310547,-0.0033964508,1.0880045,1.2326278e-07,-6.7701905e-07,0,0,1
154232000,154074000,154080000,0,-488.104,1.0,-0.009918213,-0.0062950123,1.0877482,3.6174163e-06,-1.9838624e-06,0,0,1
154632000,154474000,154480000,0,-488.102,1.0,-0.016662598,-0.010902829,1.0881262,1.0206249e-05,-5.6382564e-06,0,0,1
155032000,154874000,154880000,0,-488.104,1.0,-0.013061523,-0.011862248,1.0878917,6.272808e-06,-5.9202794e-06,0,0,1
155432000,155274000,155280000,0,-488.106,1.0,-0.011627197,-0.011757781,1.0876633,4.9718224e-06,-5.498743e-06,0,0,1
155832000,155674000,155680000,0,-488.111,1.0,-0.0065612793,-0.009448225,1.0874532,1.5835305e-06,-3.7586483e-06,0,0,1
156232000,156074000,156080000,0,-488.098,1.0,-0.019226074,-0.013793936,1.0878619,1.35915025e-05,-8.128806e-06,0,0,1
156632000,156474000,156480000,0,-488.102,1.0,-0.015838623,-0.014702686,1.0876472,9.225859e-06,-8.6163855e-06,0,0,1
157032000,156874000,156880000,0,-488.097,1.0,-0.0206604,-0.01735056,1.0874456,1.5701095e-05,-1.1765145e-05,0,0,1
157432000,157274000,157280000,0,-488.098,1.0,-0.020904541,-0.018930107,1.087858,1.6068268e-05,-1.3677644e-05,0,0,1
157832000,157674000,157680000,0,-488.106,1.0,-0.008544922,-0.014314469,1.087646,2.685274e-06,-8.792146e-06,0,0,1
158232000,158074000,158080000,0,-488.101,1.0,-0.013214111,-0.013825421,1.0874462,6.422855e-06,-7.739128e-06,0,0,1
158632000,158474000,158480000,0,-488.097,1.0,-0.016784668,-0.015140642,1.0878597,1.0358875e-05,-8.90346e-06,0,0,1
159032000,158874000,158880000,0,-488.106,1.0,-0.0067443848,-0.011408972,1.0876418,1.6728568e-06,-5.6898584e-06,0,0,1
159432000,159274000,159280000,0,-488.093,1.0,-0.020874023,-0.015615662,1.0880394,1.6018716e-05,-1.02804615e-05,0,0,1
159832000,159674000,159680000,0,-488.105,1.0,-0.0057678223,-0.011238843,1.0878073,1.2232965e-06,-6.255055e-06,0,0,1
160232000,160074000,160080000,0,-488.105,1.0,-0.009155273,-0.010312812,1.0875956,3.082728e-06,-4.8451316e-06,0,0,1
160632000,160474000,160480000,0,-488.109,1.0,-0.0043640137,-0.0076689017,1.0874008,7.005555e-07,-3.0030976e-06,0,0,1
161032000,160874000,160880000,0,-488.109,1.0,-0.0057678223,-0.0068239775,1.0878184,1.2232841e-06,-2.2120694e-06,0,0,1
161432000,161274000,161280000,0,-488.101,1.0,-0.012786865,-0.00947415,1.0876045,6.0133593e-06,-3.9015317e-06,0,0,1
161832000,161674000,161680000,0,-488.112,1.0,-0.0018005371,-0.006063655,1.0880053,1.19188165e-07,-2.22049e-06,0,0,1
162232000,162074000,162080000,0,-488.104,1.0,-0.007385254,-0.0066510323,1.0877864,2.0056134e-06,-2.1249894e-06,0,0,1
162632000,162474000,162480000,0,-488.107,1.0,-0.00592041,-0.0063263113,1.0875752,1.2891525e-06,-1.7535062e-06,0,0,1
163032000,162874000,162880000,0,-488.107,1.0,-0.008117676,-0.0071224733,1.0873601,2.424097e-06,-2.0515465e-06,0,0,1
163432000,163274000,163280000,0,-488.096,1.0,-0.018981934,-0.012393344,1.0877806,1.3249502e-05,-7.028416e-06,0,0,1
163832000,163674000,163680000,0,-488.093,1.0,-0.020446777,-0.015972648,1.0875701,1.5376323e-05,-1.0738597e-05,0,0,1
164232000,164074000,164080000,0,-488.102,1.0,-0.01586914,-0.015926644,1.0879735,9.258668e-06,-1.008085e-05,0,0,1
164632000,164474000,164480000,0,-488.102,1.0,-0.017425537,-0.01659282,1.0877622,1.1166019e-05,-1.0563148e-05,0,0,1
165032000,164874000,164880000,0,-488.103,1.0,-0.015380859,-0.01605417,1.0875533,8.70103e-06,-9.7355405e-06,0,0,1
165432000,165274000,165280000,0,-488.109,1.0,-0.012176514,-0.014330767,1.0879577,5.451222e-06,-7.831399e-06,0,0,1
165832000,165674000,165680000,0,-488.107,1.0,-0.016784668,-0.01542139,1.0877317,1.0360094e-05,-8.955263e-06,0,0,1
166232000,166074000,166080000,0,-488.105,1.0,-0.022521973,-0.018577205,1.087508,1.865694e-05,-1.3267119e-05,0,0,1
166632000,166474000,166480000,0,-488.118,1.0,-0.011688232,-0.015515439,1.0879159,5.0229905e-06,-9.603062e-06,0,0,1
167032000,166874000,166880000,0,-488.105,1.0,-0.026855469,-0.020555453,1.0876938,2.6522766e-05,-1.7122931e-05,0,0,1
167432000,167274000,167280000,0,-488.108,1.0,-0.024261475,-0.022202574,1.0874641,2.1651074e-05,-1.913544e-05,0,0,1
167824000,167670000,167672000,0,-488.111,1.0,-0.026550293,-0.02412411,1.0870305,2.5939218e-05,-2.2142467e-05,0,0,1
168232000,168074000,168080000,0,-488.104,1.0,-0.035980225,-0.029422639,1.0870967,4.7634276e-05,-3.3534823e-05,0,0,1
168632000,168474000,168480000,0,-488.096,1.0,-0.048553467,-0.03792523,1.0875399,8.670722e-05,-5.7167003e-05,0,0,1
169032000,168874000,168880000,0,-488.102,1.0,-0.039855957,-0.03878333,1.0873518,5.843545e-05,-5.773076e-05,0,0,1
169432000,169274000,169280000,0,-488.104,1.0,-0.037841797,-0.038364872,1.087774,5.265805e-05,-5.5476223e-05,0,0,1
169832000,169674000,169680000,0,-488.108,1.0,-0.03012085,-0.034700863,1.0875646,3.3368706e-05,-4.565066e-05,0,0,1
170232000,170074000,170080000,0,-488.098,1.0,-0.039978027,-0.03704627,1.0879681,5.876064e-05,-5.147732e-05,0,0,1
170632000,170474000,170480000,0,-488.106,1.0,-0.03189087,-0.03475498,1.0877403,3.7399644e-05,-4.5220575e-05,0,0,1
171032000,170874000,170880000,0,-488.099,1.0,-0.03918457,-0.03672369,1.088128,5.6443012e-05,-5.0208324e-05,0,0,1
171432000,171274000,171280000,0,-488.099,1.0,-0.042175293,-0.039146625,1.0879018,6.540132e-05,-5.6960766e-05,0,0,1
171832000,171674000,171680000,0,-488.1,1.0,-0.038513184,-0.038865097,1.087679,5.4547905e-05,-5.5888384e-05,0,0,1
172232000,172074000,172080000,0,-488.109,1.0,-0.029541016,-0.03472106,1.0880712,3.2081414e-05,-4.5307508e-05,0,0,1
172632000,172474000,172480000,0,-488.107,1.0,-0.03149414,-0.033286873,1.087834,3.6471774e-05,-4.1380514e-05,0,0,1
173032000,172874000,172880000,0,-488.092,1.0,-0.047180176,-0.039461676,1.087589,8.186802e-05,-5.9374965e-05,0,0,1
173432000,173274000,173280000,0,-488.104,1.0,-0.03768921,-0.03867391,1.0879647,5.22251e-05,-5.619725e-05,0,0,1
173832000,173674000,173680000,0,-488.103,1.0,-0.04220581,-0.040243644,1.0877111,6.5507484e-05,-6.033513e-05,0,0,1
174232000,174074000,174080000,0,-488.11,1.0,-0.03451538,-0.037697747,1.0874807,4.381913e-05,-5.2994685e-05,0,0,1
174632000,174474000,174480000,0,-488.104,1.0,-0.04031372,-0.038860403,1.0878915,5.9755817e-05,-5.5999633e-05,0,0,1
175032000,174874000,174880000,0,-488.105,1.0,-0.03640747,-0.03777021,1.0876749,4.874633e-05,-5.2775944e-05,0,0,1
175432000,175274000,175280000,0,-488.108,1.0,-0.031036377,-0.034777395,1.0874494,3.5431778e-05,-4.5067427e-05,0,0,1
175832000,175674000,175680000,0,-488.114,1.0,-0.027557373,-0.031568497,1.0878414,2.7923512e-05,-3.744791e-05,0,0,1
176232000,176074000,176080000,0,-488.106,1.0,-0.03479004,-0.033000294,1.0876096,4.4514018e-05,-4.0588402e-05,0,0,1
176632000,176474000,176480000,0,-488.116,1.0,-0.021972656,-0.028099122,1.0874037,1.7759647e-05,-3.0442287e-05,0,0,1
177032000,176874000,176880000,0,-488.109,1.0,-0.025665283,-0.027017415,1.0878258,2.4221039e-05,-2.7677288e-05,0,0,1
177432000,177274000,177280000,0,-488.106,1.0,-0.022827148,-0.025155075,1.0876201,1.9163996e-05,-2.3893603e-05,0,0,1
177832000,177674000,177680000,0,-488.1,1.0,-0.028656006,-0.026711045,1.087404,3.0206498e-05,-2.6699334e-05,0,0,1
178232000,178074000,178080000,0,-488.101,1.0,-0.026245117,-0.026503965,1.0878196,2.5327956e-05,-2.6089832e-05,0,0,1
178632000,178474000,178480000,0,-488.108,1.0,-0.01776123,-0.022618305,1.0876155,1.1601942e-05,-1.965077e-05,0,0,1
179032000,178874000,178880000,0,-488.103,1.0,-0.023651123,-0.023077335,1.0874003,2.0576623e-05,-2.006226e-05,0,0,1
179432000,179274000,179280000,0,-488.095,1.0,-0.029388428,-0.025882266,1.0878005,3.175875e-05,-2.52607e-05,0,0,1
179832000,179674000,179680000,0,-488.104,1.0,-0.016601562,-0.02175751,1.0875695,1.01368005e-05,-1.8538967e-05,0,0,1
180232000,180074000,180080000,0,-488.093,1.0,-0.025726318,-0.023521425,1.0873363,2.4347333e-05,-2.1120464e-05,0,0,1
180632000,180474000,180480000,0,-488.094,1.0,-0.019256592,-0.021625943,1.0877625,1.363593e-05,-1.7794004e-05,0,0,1
