timestamp,gyro_rad[0],gyro_rad[1],gyro_rad[2],gyro_integral_dt,accelerometer_timestamp_relative,accelerometer_m_s2[0],accelerometer_m_s2[1],accelerometer_m_s2[2],accelerometer_integral_dt,accelerometer_clipping,gyro_clipping,accel_calibration_count,gyro_calibration_count
1264000,-0.005060009,-0.0055926363,-3.813049e-10,4000,0,-0.032321732,0.15083474,-0.061052147,4000,0,0,0,1
1268000,-0.0069242185,-0.009853697,-0.00079894497,4000,0,-0.05865795,0.1173159,0.0011971019,4000,0,0,0,1
1272000,0.0018642164,-0.0058589596,-0.0015978774,4000,0,0.029927526,0.07422027,0.14724344,4000,0,0,0,1
1280000,0.0039947387,0.0037284272,0.0013315891,4000,0,-0.029927526,-0.02394202,0.065840565,4000,0,0,0,1
1284000,-0.0010652727,-0.0010652558,-0.006924219,4000,0,-0.06943185,-0.08499418,0.06943185,4000,0,0,0,1
1288000,0.002663164,-8.8443e-09,-0.007989484,4000,0,0.0,-0.082599975,0.10654198,4000,0,0,0,1
1292000,0.00053263863,0.0023968422,0.0015978991,4000,0,0.04908113,-0.050278243,0.083797075,4000,0,0,0,1
1296000,-0.00559264,0.00878843,0.0053263283,4000,0,0.031124622,0.023942016,0.031124622,4000,0,0,0,1
1300000,-0.0074568805,0.008522094,-0.004793684,4000,0,0.020350715,0.026336217,0.033518832,4000,0,0,0,1
1304000,-0.005592653,-0.0021305296,-0.0037284049,4000,0,-0.031124625,-0.04908113,0.043095633,4000,0,0,0,1
1308000,0.0058589363,-0.010918954,0.0077231927,4000,0,-0.08499418,-0.084994175,0.04668694,4000,0,0,0,1
1312000,0.013848433,-0.013049476,0.010918986,4000,0,-0.05985505,-0.062249243,0.07062895,4000,0,0,0,1
1316000,0.007190539,-0.0074568507,0.00532632,4000,0,-0.04668694,0.026336215,0.053869545,4000,0,0,0,1
1320000,0.0026631672,-0.011451602,0.0058589345,4000,0,-0.0071826037,0.08020575,0.00957681,4000,0,0,0,1
1324000,0.0026631507,-0.018375818,0.012250536,4000,0,0.03232173,0.04548984,-0.027533323,4000,0,0,0,1
1328000,0.0021304805,-0.012783182,0.016511604,4000,0,0.025139121,0.029927526,-0.010773908,4000,0,0,0,1
1332000,0.0069242003,-0.012783153,0.021038996,4000,0,0.07661447,0.039504327,-0.027533323,4000,0,0,0,1
1336000,0.007989485,-0.00985368,0.016511612,4000,0,0.12808979,0.027533324,-0.077811554,4000,0,0,0,1
1340000,0.0013315695,-0.004793714,0.011451586,4000,0,0.07541736,0.0131681105,-0.06943185,4000,0,0,0,1
1344000,-0.0021305021,-0.010918973,0.009054741,4000,0,0.0023942017,0.0131681105,-0.05865795,4000,0,0,0,1
1348000,-0.0039947093,-0.013582133,0.0023968401,4000,0,-0.009576809,0.039504327,-0.07182605,4000,0,0,0,1
1352000,-0.006924207,-0.012250549,-0.0005326476,4000,0,-0.039504327,0.020350719,-0.083797075,4000,0,0,0,1
1360000,-0.0005326252,0.0013315753,-0.0031957973,4000,0,-0.05985505,-0.022744918,0.035913028,4000,0,0,0,1
1364000,0.006924219,-0.0002663234,0.0010652614,4000,0,0.04668694,-0.08259997,0.002394202,4000,0,0,0,1
1368000,0.00958738,-0.00079895,0.0021305284,4000,0,0.06344634,-0.062249243,-0.027533324,4000,0,0,0,1
1372000,0.0031957896,0.004793683,0.0029294938,4000,0,0.05746084,0.01316811,0.002394202,4000,0,0,0,1
1376000,-0.0007989556,0.013848434,0.0039947587,4000,0,0.02274492,0.016759416,0.009576809,4000,0,0,0,1
1380000,-1.2246259e-08,0.010120012,0.00026631364,4000,0,-0.02633622,0.010773908,0.035913024,4000,0,0,0,1
1384000,0.001331591,-0.0063915877,0.0029294726,4000,0,-0.02274492,0.020350711,0.077811554,4000,0,0,0,1
1388000,0.0021305212,-0.013049493,0.0098536955,4000,0,0.004788404,0.031124622,0.047884032,4000,0,0,0,1
1392000,0.0047936523,-0.00719053,0.014114771,4000,0,0.05626375,0.06105215,-0.013168108,4000,0,0,0,1
1400000,0.0037284521,-0.007456837,-0.0021305357,4000,0,0.062249243,0.10893619,-0.013168108,4000,0,0,0,1
1408000,0.012516858,-0.0039947485,0.0034621086,4000,0,0.0,0.06464346,-0.008379708,4000,0,0,0,1
1412000,0.0005326547,-0.009321027,-0.008788472,4000,0,0.026336217,0.06943185,-0.035913028,4000,0,0,0,1
1416000,-0.0023968222,-0.0018642043,-0.009054759,4000,0,0.0035913028,0.017956512,-0.034715924,4000,0,0,0,1
1420000,0.0010652913,0.00878843,-0.00053263846,4000,0,-0.059855048,-0.07062895,-0.083797075,4000,0,0,0,1
1424000,-0.0053263293,0.009853698,-0.0029294584,4000,0,-0.06823474,-0.10773909,-0.07062895,4000,0,0,0,1
1432000,0.001065256,-0.007456858,-0.0023968287,4000,0,0.040701427,-0.050278243,0.043095633,4000,0,0,0,1
1436000,0.005060035,-0.005326322,-0.013049479,4000,0,0.038307235,-0.01915362,0.06823475,4000,0,0,0,1
1440000,0.013582135,-0.004261088,-0.017044218,4000,0,0.02873042,0.040701427,0.015562315,4000,0,0,0,1
1444000,0.019174736,-0.0063916575,-0.008522119,4000,0,0.015562311,0.022744922,-0.099359386,4000,0,0,0,1
1448000,0.0058589475,-0.0045273723,-0.002929494,4000,0,-0.021547817,-0.0035913002,-0.12808979,4000,0,0,0,1
1452000,-0.002130524,-0.0026631495,-0.0050600152,4000,0,0.021547817,0.027533324,-0.10773909,4000,0,0,0,1
1456000,4.5391544e-09,-0.00053263654,-0.006125271,4000,0,0.03351883,0.026336221,-0.07422027,4000,0,0,0,1
1464000,-0.016511612,-0.0013315657,-0.011717896,4000,0,-0.07661447,-0.020350713,0.014365209,4000,0,0,0,1
1468000,-0.013049512,-0.0063915867,-0.009054721,4000,0,-0.01436521,-0.03351883,0.0035913016,4000,0,0,0,1
1472000,-0.00372843,-0.0053263362,-0.0055926237,4000,0,-0.020350713,-0.03232173,0.08858546,4000,0,0,0,1
1476000,-0.0005326289,0.0002663152,-0.0015978982,4000,0,-0.10893619,-0.017956516,0.13407533,4000,0,0,0,1
1480000,0.0002663162,0.00079894747,-0.0045273746,4000,0,-0.12449849,-0.014365212,0.099359386,4000,0,0,0,1
1484000,0.013848431,-0.0037284466,-0.0055926424,4000,0,-0.25258827,0.044292778,-2.3786395,4000,0,0,0,1
1488000,0.014647372,-0.009853713,-0.002663189,4000,0,-0.13287821,-0.037110005,-7.333441,4000,0,0,0,1
1492000,0.002663174,-0.013315774,-0.0074569085,4000,0,0.20470428,-0.3028664,-9.815032,4000,0,0,0,1
1496000,0.0026631502,-0.011717914,-0.003994741,4000,0,0.035913035,-0.24301134,-9.767147,4000,0,0,0,1
1500000,0.0031958043,-0.0069242185,-0.0050600003,4000,0,-0.06703766,-0.055066474,-9.740809,4000,0,0,0,1
1504000,-0.0074568214,0.00079897454,-0.012516876,4000,0,0.06823475,-0.07781139,-9.773131,4000,0,0,0,1
1508000,-0.02050631,0.007723251,-0.0013315942,4000,0,0.056263745,-0.084993996,-9.76954,4000,0,0,0,1
1512000,-0.011185248,0.009321133,0.00932103,4000,0,0.014365211,-0.0119708385,-9.781511,4000,0,0,0,1
1516000,-0.0021305415,0.0066579063,0.0026631432,4000,0,0.03351883,0.023942187,-9.846155,4000,0,0,0,1
1520000,-0.005592656,0.0013315708,-0.006924208,4000,0,0.02513912,0.028730595,-9.832989,4000,0,0,0,1
1524000,0.00026629845,-0.0047937185,-0.014913695,4000,0,-0.04668694,0.053869717,-9.753977,4000,0,0,0,1
1528000,0.0037284556,0.00053261535,-0.01677791,4000,0,-0.03351883,0.08260014,-9.7444,4000,0,0,0,1
1532000,0.003994802,0.010918944,-0.003994729,4000,0,0.026336217,0.074220434,-9.749191,4000,0,0,0,1
1536000,0.00506003,0.0063915756,0.004261048,4000,0,0.059855048,0.0323219,-9.75757,4000,0,0,0,1
1540000,0.0045273844,-0.010652635,-0.0023968727,4000,0,0.06943185,0.06584072,-9.8198185,4000,0,0,0,1
1544000,0.0026631686,-0.01731054,-0.0058589727,4000,0,0.05746084,0.10175375,-9.831791,4000,0,0,0,1
1548000,-0.0031958045,-0.014114747,-0.002929509,4000,0,0.047884032,0.035913195,-9.809044,4000,0,0,0,1
1552000,-0.0063916096,-0.0109189525,0.0023968264,4000,0,0.025139121,0.004788574,-9.738417,4000,0,0,0,1
1560000,-0.0031957875,-0.010119992,0.019174775,4000,0,-0.10295069,-0.027533151,-9.779117,4000,0,0,0,1
1564000,0.0055926987,-0.015978917,0.012516895,4000,0,-0.1161188,0.026336389,-9.793484,4000,0,0,0,1
1568000,0.014647423,-0.0034620413,-0.0039946707,4000,0,-0.0071826056,0.06823491,-9.792285,4000,0,0,0,1
1572000,0.0098537225,0.0050600674,-0.015179984,4000,0,0.028730422,0.07541753,-9.853339,4000,0,0,0,1
1576000,-0.0010653073,-0.003728374,-0.0141147645,4000,0,-0.027533323,0.07900883,-9.827001,4000,0,0,0,1
1580000,-0.0029295224,-0.011185267,-0.0061252713,4000,0,-0.02274492,0.063446514,-9.753977,4000,0,0,0,1
1584000,-0.0029295038,-0.012783168,1.3372269e-09,4000,0,-0.0011971011,0.04549001,-9.779117,4000,0,0,0,1
1588000,-0.0050600083,-0.003994742,0.00053261453,4000,0,-0.050278243,-0.022744749,-9.823412,4000,0,0,0,1
1592000,0.00053263013,0.0023968476,0.0013315773,4000,0,-0.1400608,-0.11252732,-9.764753,4000,0,0,0,1
1596000,0.0018642214,-0.006391588,0.0069242176,4000,0,-0.14844054,-0.07422008,-9.740809,4000,0,0,0,1
1600000,-0.004261069,-0.0111853,0.017310532,4000,0,-0.08140285,0.034716096,-9.841368,4000,0,0,0,1
1604000,0.0023968108,-0.005858916,0.018375829,4000,0,-0.06943185,0.04908131,-9.874886,4000,0,0,0,1
1608000,0.0173105,0.004793787,0.011451632,4000,0,-0.077811554,-0.0059853327,-9.809044,4000,0,0,0,1
1612000,0.016777866,0.015712684,0.005592703,4000,0,-0.013168108,-0.039504156,-9.800665,4000,0,0,0,1
1616000,0.0077231308,0.015180044,-0.0015978521,4000,0,0.020350715,-0.014365039,-9.797075,4000,0,0,0,1
1620000,0.007989487,0.0058589517,-0.0002663414,4000,0,-0.0023942022,0.038307402,-9.738417,4000,0,0,0,1
1624000,0.0061252736,0.00026631277,0.0010652533,4000,0,0.03232173,0.087388545,-9.71208,4000,0,0,0,1
1632000,-0.0042610615,-0.0026631586,-0.001331578,4000,0,-0.0059855045,-0.027533153,-9.783907,4000,0,0,0,1
1640000,-0.0039947517,-0.013049509,0.0106526185,4000,0,0.010773908,-0.03351866,-9.862916,4000,0,0,0,1
1644000,-0.013049516,-0.010652673,0.014647345,4000,0,-0.011971008,-0.10175341,-9.853339,4000,0,0,0,1
1648000,-0.005592671,-0.0029294484,0.013049482,4000,0,-0.0011971008,-0.10773892,-9.795878,4000,0,0,0,1
1652000,0.004261033,0.00506003,0.0029294724,4000,0,-0.023942016,-0.029927352,-9.773131,4000,0,0,0,1
1656000,0.009587383,0.008788433,0.006657899,4000,0,-0.058657948,1.70636e-07,-9.776724,4000,0,0,0,1
1664000,0.0031957862,0.0061252736,0.0071905376,4000,0,0.04070143,-0.0011969287,-9.872493,4000,0,0,0,1
1668000,0.0063915798,0.001597914,-0.0015979083,4000,0,-0.015562313,-0.016759243,-9.91439,4000,0,0,0,1
1672000,0.0047936887,0.002130537,-0.004793688,4000,0,-0.09816227,-0.037109964,-9.816229,4000,0,0,0,1
1676000,0.0013315687,-0.003728414,-0.008522125,4000,0,-0.077811554,-0.05746067,-9.824608,4000,0,0,0,1
1680000,-0.0021305375,-0.007456841,-0.010386336,4000,0,0.026336217,0.017956687,-9.866505,4000,0,0,0,1
1684000,-0.0018641663,0.008255802,-0.0071905465,4000,0,0.058657948,0.123301566,-9.755177,4000,0,0,0,1
1688000,0.001065309,0.01970739,-0.0010652796,4000,0,0.06943185,0.07661464,-9.707291,4000,0,0,0,1
1692000,-0.0005326361,0.008788435,-0.0010652578,4000,0,0.08619127,-0.008379537,-9.791088,4000,0,0,0,1
1696000,0.00026631108,0.0010652642,-0.0018642141,4000,0,0.07182605,0.013168281,-9.843762,4000,0,0,0,1
1700000,0.002929483,0.008255799,0.0018642128,4000,0,0.08619127,0.056263912,-9.829395,4000,0,0,0,1
1704000,0.0055926535,0.00878843,0.007190529,4000,0,0.083797075,0.04189871,-9.832989,4000,0,0,0,1
1708000,0.011717933,-0.0037284077,0.0050599645,4000,0,0.01197101,0.0143653825,-9.829395,4000,0,0,0,1
1712000,0.023435842,-0.010918905,-0.004527388,4000,0,-0.016759414,-0.062249076,-9.773131,4000,0,0,0,1
1716000,0.031691633,-0.006391583,-0.0066578384,4000,0,0.034715924,-0.123301215,-9.773131,4000,0,0,0,1
1720000,0.021305298,0.0013315644,-0.0029294183,4000,0,0.05865795,-0.07781139,-9.800665,4000,0,0,0,1
1724000,0.008522125,0.008522124,-0.0021304723,4000,0,0.08738836,-0.056263573,-9.804258,4000,0,0,0,1
1728000,0.008255806,0.007989478,0.0002663155,4000,0,0.1388637,-0.034715753,-9.797075,4000,0,0,0,1
1732000,0.006924237,-0.0005326501,0.0066578826,4000,0,0.09337388,0.0011972715,-9.77313,4000,0,0,0,1
1740000,-3.6265945e-08,0.016511606,-0.0026631434,4000,0,-0.071826056,-0.123301215,-9.78989,4000,0,0,0,1
1744000,-0.0061253007,0.012250548,-0.0074568186,4000,0,-0.14724344,-0.057460666,-9.841368,4000,0,0,0,1
1748000,-0.012783204,-0.0037284046,-0.005059946,4000,0,-0.065840565,0.020350888,-9.856928,4000,0,0,0,1
1752000,-0.007989501,-0.006125234,0.005592656,4000,0,0.07541737,0.0359132,-9.861719,4000,0,0,0,1
1756000,0.0031957242,0.011185348,0.023702113,4000,0,0.09816227,-0.002394031,-9.8198185,4000,0,0,0,1
1760000,0.006391549,0.01757689,0.026897926,4000,0,0.06344634,0.040701605,-9.763554,4000,0,0,0,1
1764000,0.007989437,0.009587439,0.0066578775,4000,0,0.02873042,0.09935955,-9.795877,4000,0,0,0,1
1768000,0.0063915714,0.0007989747,-0.0045273933,4000,0,0.05267244,0.031124793,-9.836578,4000,0,0,0,1
1772000,0.005060002,-0.0037284507,0.0079894755,4000,0,0.1364695,-0.03351866,-9.855732,4000,0,0,0,1
1776000,0.009321048,-0.0026631674,0.018109508,4000,0,0.10534487,0.020350887,-9.854535,4000,0,0,0,1
1780000,0.005592648,-0.0026631516,0.0077231643,4000,0,0.0035913019,0.037110306,-9.800665,4000,0,0,0,1
1784000,-0.0074568526,0.0010652505,-0.002663166,4000,0,-0.007182605,-0.038307063,-9.791088,4000,0,0,0,1
1788000,-0.0114515945,0.001331583,-0.003195793,4000,0,0.0011971012,-0.0861911,-9.813835,4000,0,0,0,1
1792000,-0.0029294833,-0.004527381,-0.0023968264,4000,0,-0.017956512,-0.0885853,-9.782708,4000,0,0,0,1
1796000,0.006657889,-0.0029294754,0.007989497,4000,0,0.015562311,-0.047883864,-9.715671,4000,0,0,0,1
1804000,0.0029293995,0.017310547,0.0098537225,4000,0,-0.01197101,0.08260013,-9.660606,4000,0,0,0,1
1808000,0.0034620543,0.014114768,-0.0015979029,4000,0,-0.067037664,0.035913195,-9.716867,4000,0,0,0,1
1812000,-0.0039947806,0.0018642247,-0.008255779,4000,0,-0.02274492,0.0323219,-9.7444,4000,0,0,0,1
1816000,-0.00479369,0.00053264335,-0.0015978944,4000,0,0.028730419,0.07541753,-9.787498,4000,0,0,0,1
1820000,0.0013315814,0.00026632095,0.0034621092,4000,0,0.043095633,0.046687115,-9.837775,4000,0,0,0,1
1824000,0.0063915877,-0.0005326216,-0.0071905367,4000,0,0.04548984,-0.027533151,-9.902418,4000,0,0,0,1
1828000,0.0047936984,0.0023968567,-0.01065264,4000,0,0.029927526,-0.06105198,-9.927559,4000,0,0,0,1
1832000,0.0045273895,0.0050599966,-0.0037284214,4000,0,0.07062895,-0.06823458,-9.871296,4000,0,0,0,1
1836000,0.011451596,0.0077231606,-0.004527382,4000,0,0.11133039,-0.123301215,-9.794682,4000,0,0,0,1
1840000,0.010652645,0.0063915853,-0.0037284286,4000,0,0.07422027,-0.16400266,-9.747993,4000,0,0,0,1
1844000,0.012250547,0.0029294607,0.0005326166,4000,0,0.026336217,-0.08140269,-9.770737,4000,0,0,0,1
1848000,0.015446338,0.0039947364,0.0021305305,4000,0,-0.040701427,-0.0011969301,-9.799467,4000,0,0,0,1
1852000,0.011984234,0.0031957682,0.0066579035,4000,0,-0.06464346,-0.010773738,-9.795877,4000,0,0,0,1
1856000,0.0021305163,0.0058589587,0.00053265406,4000,0,-0.08140286,-0.02753315,-9.901223,4000,0,0,0,1
1860000,-0.008788439,0.007989486,-0.0018641899,4000,0,-0.1400608,-0.014365037,-9.96347,4000,0,0,0,1
1864000,-0.004793663,-0.0021304954,0.010652665,4000,0,-0.11611879,0.034716096,-9.824608,4000,0,0,0,1
1868000,0.0018642202,-0.005059977,0.014913714,4000,0,-0.104147784,0.053869717,-9.791088,4000,0,0,0,1
1872000,0.0021304989,-0.00026631763,0.018908449,4000,0,-0.1221043,-0.022744745,-9.903616,4000,0,0,0,1
1876000,-0.00399478,0.005592596,0.025566354,4000,0,-0.062249243,-0.05865778,-9.886856,4000,0,0,0,1
1880000,-0.009321141,0.014381026,0.024501083,4000,0,-0.016759416,-0.020350544,-9.800665,4000,0,0,0,1
1884000,-0.0029295124,0.015712691,0.019441042,4000,0,-0.0059855045,-0.032321554,-9.815031,4000,0,0,0,1
1888000,0.0074568028,0.010919014,0.004261008,4000,0,0.02873042,-0.008379534,-9.872493,4000,0,0,0,1
1892000,0.0170442,0.0058589964,-0.006657951,4000,0,0.043095633,0.063446514,-9.8677025,4000,0,0,0,1
1896000,0.019707384,-0.00186424,-0.0029295268,4000,0,-0.0071826037,0.05267261,-9.806652,4000,0,0,0,1
1900000,0.015712643,-0.008255827,0.0018641684,4000,0,-0.04908113,0.06584073,-9.756374,4000,0,0,0,1
1904000,0.0077231633,-0.00559265,0.0029294698,4000,0,-0.041898537,0.116118975,-9.744401,4000,0,0,0,1
1908000,-0.0013315881,-0.0005326447,0.004261055,4000,0,-0.023942018,0.04549001,-9.7803135,4000,0,0,0,1
1912000,-0.006391589,-0.00026632144,0.008788433,4000,0,0.016759414,-0.011970838,-9.803061,4000,0,0,0,1
1916000,0.0002663134,0.00053266634,0.015712649,4000,0,0.022744918,0.056263916,-9.781511,4000,0,0,0,1
1920000,0.010918961,0.0010653193,0.0231695,4000,0,-0.015562311,0.10295086,-9.815032,4000,0,0,0,1
1924000,0.010386362,-0.003462084,0.0149136875,4000,0,0.011971009,0.02394219,-9.852142,4000,0,0,0,1
1928000,0.007989505,-0.0031957356,-0.005326324,4000,0,0.07541737,-0.084993996,-9.815032,4000,0,0,0,1
1932000,0.0085221315,-0.00079892005,-0.016245276,4000,0,0.095768064,-0.05985488,-9.812637,4000,0,0,0,1
1940000,-0.0074568447,0.001331614,-0.0013315884,4000,0,0.088585466,-0.08140269,-9.786301,4000,0,0,0,1
1944000,-0.0010652606,0.009321065,-2.2533085e-08,4000,0,0.1604115,-0.123301215,-9.809044,4000,0,0,0,1
1948000,0.01011999,0.011717908,-0.0071905716,4000,0,0.08619127,-0.056263577,-9.757571,4000,0,0,0,1
1952000,0.010918959,0.0042610434,-0.0034621384,4000,0,-0.0047884043,0.016759584,-9.713276,4000,0,0,0,1
1956000,0.011185274,-0.007989508,0.0031957487,4000,0,-0.010773908,0.0395045,-9.794682,4000,0,0,0,1
1960000,0.016245272,-0.0005326305,0.0042611,4000,0,-0.017956512,0.043095805,-9.797075,4000,0,0,0,1
1964000,0.0117179,0.0074568717,-0.0005325897,4000,0,0.0023942024,0.029927693,-9.721657,4000,0,0,0,1
1968000,-0.002929493,-0.0034620853,-0.006125278,4000,0,0.017956512,-0.01795634,-9.804258,4000,0,0,0,1
1972000,-0.00079895277,-0.0045273774,-0.0039947387,4000,0,-0.0071826046,-0.0921766,-9.931149,4000,0,0,0,1
1976000,0.015446342,0.00079892715,-0.0029294542,4000,0,-0.08259997,-0.15682004,-9.883265,4000,0,0,0,1
1980000,0.01677792,0.006125289,-0.0066578765,4000,0,-0.1436521,-0.14724326,-9.794681,4000,0,0,0,1
1984000,0.0069242385,0.013582137,-0.005326261,4000,0,-0.09935938,-0.0945708,-9.806652,4000,0,0,0,1
1988000,-0.00079893635,0.0061252723,0.000266334,4000,0,-0.071826056,-0.087388195,-9.829395,4000,0,0,0,1
1992000,-0.0021305317,-0.00692422,-0.0015978907,4000,0,-0.14604634,-0.06703748,-9.862916,4000,0,0,0,1
1996000,0.0069242367,-0.0074568614,-0.009054727,4000,0,-0.17717093,0.0011972733,-9.837774,4000,0,0,0,1
2000000,0.010386356,0.0026631479,-0.0074568195,4000,0,-0.09097968,0.06584073,-9.788693,4000,0,0,0,1
2008000,0.0005326517,0.014913695,0.009321079,4000,0,-0.01436521,-0.04908096,-9.734824,4000,0,0,0,1
2012000,0.002663166,0.008788441,0.006391576,4000,0,0.016759416,-0.0945708,-9.7240505,4000,0,0,0,1
2016000,0.007723177,0.0045273853,0.0061252527,4000,0,0.040701427,0.0359132,-9.783907,4000,0,0,0,1
2020000,0.009054761,-0.0042610434,0.001597872,4000,0,0.051475342,0.06584073,-9.7719345,4000,0,0,0,1
2028000,-0.0077231815,-0.013315792,-0.0023968827,4000,0,-0.041898537,-0.027533151,-9.801862,4000,0,0,0,1
2032000,-0.0021305536,0.00026633195,0.005592629,4000,0,-0.11133039,-0.003591132,-9.785105,4000,0,0,0,1
2036000,0.005592624,0.007989502,0.011185273,4000,0,-0.06105215,-0.016759243,-9.801862,4000,0,0,0,1
2044000,0.0029294223,0.015446342,0.0037284386,4000,0,0.04908113,-0.059854884,-9.683351,4000,0,0,0,1
2048000,0.005326304,0.0045273835,-0.0023968683,4000,0,-0.019153617,-0.02394185,-9.672577,4000,0,0,0,1
2052000,0.005059996,-0.012516863,-0.00026634627,4000,0,0.0011971015,-0.015562142,-9.742006,4000,0,0,0,1
2056000,0.0034621072,-0.018642128,0.00026629883,4000,0,0.084994175,-0.040701255,-9.798271,4000,0,0,0,1
2060000,-0.00026634004,-0.010386334,0.003994728,4000,0,0.06105215,-0.015562142,-9.78989,4000,0,0,0,1
2064000,-0.007989483,-0.0018642236,0.0002662886,4000,0,-0.021547817,0.021547986,-9.745598,4000,0,0,0,1
2068000,-0.009587375,0.0037284049,-0.0077231834,4000,0,-0.020350713,-0.008379537,-9.745598,4000,0,0,0,1
2072000,-0.0026631576,0.005592619,-0.008522131,4000,0,0.020350715,-0.029927354,-9.785105,4000,0,0,0,1
2080000,-0.0061253184,-0.01597895,-0.0031958031,4000,0,0.039504327,-0.089782394,-9.786301,4000,0,0,0,1
2084000,-0.007456906,-0.015978947,0.0069242115,4000,0,0.011971008,-0.102950506,-9.7719345,4000,0,0,0,1
2088000,-0.003994729,-0.015446332,0.0042610755,4000,0,0.029927524,0.009576982,-9.862916,4000,0,0,0,1
2092000,-0.00026631434,-0.01091896,0.0026631742,4000,0,0.09457098,0.031124797,-9.861719,4000,0,0,0,1
2096000,0.002663158,-0.0058589526,0.0023968553,4000,0,0.11372458,-0.03351866,-9.837775,4000,0,0,0,1
2100000,0.0007989515,-0.005060006,0.0005326292,4000,0,0.07302317,-0.058657777,-9.776725,4000,0,0,0,1
2104000,-0.0106526585,-0.0039947457,0.008255782,4000,0,0.02633622,-0.02633605,-9.71208,4000,0,0,0,1
2108000,-0.019707404,-0.0021305385,0.012783157,4000,0,-0.005985504,0.038307402,-9.750386,4000,0,0,0,1
2112000,-0.009853707,0.001331577,0.005858939,4000,0,-0.03351883,0.090979844,-9.76954,4000,0,0,0,1
2116000,0.0034621144,-0.00053260033,0.007723168,4000,0,-0.07541737,0.108936355,-9.803061,4000,0,0,0,1
2120000,0.011984256,-0.012250527,0.014381059,4000,0,-0.057460837,0.13886388,-9.889252,4000,0,0,0,1
2128000,0.016511535,-0.009321124,0.021837942,4000,0,0.043095633,0.057461016,-9.89045,4000,0,0,0,1
2132000,-8.109004e-09,-0.0055927257,0.015712619,4000,0,0.113724574,0.055066817,-9.8988285,4000,0,0,0,1
2136000,-0.0074568447,-0.0023968841,0.0029294635,4000,0,0.058657948,0.11133056,-9.903616,4000,0,0,0,1
2140000,-0.0053263227,-0.00026631934,0.0007989449,4000,0,-0.007182605,0.025139295,-9.865309,4000,0,0,0,1
2144000,-0.001597896,-0.003994738,0.0026631686,4000,0,-0.02274492,-0.10773892,-9.866506,4000,0,0,0,1
2148000,-0.0007989461,-0.005060006,0.0015978984,4000,0,-0.0011971015,-0.06943169,-9.821015,4000,0,0,0,1
2152000,-0.0021305294,-0.002663162,0.00079894543,4000,0,0.10534488,0.017956683,-9.7240505,4000,0,0,0,1
2156000,-0.0010652674,0.0042610597,0.0018642092,4000,0,0.08858546,0.0047885743,-9.731234,4000,0,0,0,1
2160000,0.003994748,0.0109189665,0.0093210535,4000,0,-0.07422027,0.008379877,-9.755177,4000,0,0,0,1
2164000,0.008522144,0.00932107,0.0154463155,4000,0,-0.11252749,0.07900883,-9.709686,4000,0,0,0,1
2168000,0.008522115,0.0053263437,0.007989474,4000,0,-0.09337388,0.13287836,-9.76116,4000,0,0,0,1
2172000,0.013582113,0.0010653131,-0.0042610797,4000,0,-0.12928692,0.075417526,-9.897633,4000,0,0,0,1
2176000,0.016777901,-0.0055925963,-0.01464742,4000,0,-0.096965164,0.037110306,-9.915586,4000,0,0,0,1
2180000,0.014114735,-0.009853683,-0.014647418,4000,0,-0.040701427,0.088585645,-9.870098,4000,0,0,0,1
2184000,0.0074568638,-0.0034621046,-0.008788424,4000,0,0.01316811,0.06584072,-9.834186,4000,0,0,0,1
2188000,-0.0037284093,0.002396877,-0.008255799,4000,0,0.062249243,0.0071827755,-9.767147,4000,0,0,0,1
2192000,-0.009054743,0.0023968692,-0.00079894415,4000,0,0.01316811,-0.008379537,-9.740809,4000,0,0,0,1
2200000,0.0045273583,0.006125277,-0.003195808,4000,0,-0.08619127,0.05267261,-9.79827,4000,0,0,0,1
2204000,0.0069241985,0.009321081,-0.015446336,4000,0,-0.019153617,-0.034715757,-9.749191,4000,0,0,0,1
2208000,0.0037284226,0.0055926437,-0.010386328,4000,0,0.051475342,-0.06344618,-9.753977,4000,0,0,0,1
2212000,0.0095873885,0.0002662789,0.0031957764,4000,0,0.038307235,-0.022744747,-9.804258,4000,0,0,0,1
2216000,0.020772656,0.001331572,0.009587383,4000,0,-0.029927524,-0.034715753,-9.846155,4000,0,0,0,1
2224000,0.0029294782,0.0021304989,0.008255807,4000,0,0.062249243,-0.118512824,-9.827002,4000,0,0,0,1
2228000,0.0077231736,1.463605e-08,0.0066578984,4000,0,0.1197101,-0.084993996,-9.758768,4000,0,0,0,1
2232000,0.006391605,-0.007989492,0.009054728,4000,0,0.025139121,-0.041898366,-9.745598,4000,0,0,0,1
2240000,-0.008255792,0.00079892296,-0.004261082,4000,0,0.050278243,-0.06464328,-9.866505,4000,0,0,0,1
2244000,0.002130535,0.005326304,-0.0055926545,4000,0,0.09337388,-0.06105198,-9.858126,4000,0,0,0,1
2248000,3.167952e-09,0.0037284277,-0.0021305264,4000,0,0.117315896,-0.06344618,-9.871296,4000,0,0,0,1
2252000,-0.008255801,-0.004793684,0.0026631714,4000,0,0.08020575,-0.037109964,-9.843762,4000,0,0,0,1
2256000,-0.0063915937,-0.009054731,0.008788447,4000,0,0.0,0.0395045,-9.815032,4000,0,0,0,1
2264000,-0.004793671,-0.0071905483,-0.00026630858,4000,0,-0.07422027,-0.005985331,-9.913193,4000,0,0,0,1
2268000,-0.00452735,-0.010386346,-0.010652641,4000,0,-0.05985505,0.008379879,-9.9108,4000,0,0,0,1
2272000,-0.007190528,-0.010918956,-0.013582131,4000,0,0.037110135,-0.011970838,-9.831791,4000,0,0,0,1
2276000,-0.00319582,-0.012250547,-0.007989467,4000,0,0.056263745,-0.07182589,-9.8509445,4000,0,0,0,1
2280000,-0.003994733,-0.013049491,-0.010652647,4000,0,0.019153617,-0.067037486,-9.941923,4000,0,0,0,1
2284000,0.0018642467,-0.013049521,-0.018375788,4000,0,-0.014365211,-0.052672267,-9.935939,4000,0,0,0,1
2288000,0.012516852,-0.014114821,-0.018375766,4000,0,-0.038307235,-0.055066474,-9.866505,4000,0,0,0,1
2296000,0.0026631935,-0.010119984,-0.013848454,4000,0,0.07661447,0.09696535,-9.885659,4000,0,0,0,1
2300000,-0.00026622103,0.011451606,-0.012516849,4000,0,0.051475346,0.1316813,-9.849747,4000,0,0,0,1
2304000,-0.0037283269,0.021837939,0.0021305417,4000,0,0.011971009,0.044292904,-9.843762,4000,0,0,0,1
2308000,-0.012783092,0.0074568572,0.011984311,4000,0,0.0035913025,-0.041898366,-9.892841,4000,0,0,0,1
2312000,-0.016777862,-0.009054785,0.0074569327,4000,0,0.007182605,-0.05746067,-9.891646,4000,0,0,0,1
2316000,-0.004527344,-0.017044224,0.003994823,4000,0,0.007182605,-0.011970838,-9.821015,4000,0,0,0,1
2320000,0.010918985,-0.021305276,0.0010653583,4000,0,0.011971008,0.0323219,-9.76116,4000,0,0,0,1
2324000,0.013848481,-0.013315783,-0.005326273,4000,0,0.04070143,0.0407016,-9.730038,4000,0,0,0,1
2328000,0.009054776,-0.002929459,-0.007456825,4000,0,0.089782566,0.102950856,-9.69532,4000,0,0,0,1
2332000,0.011451594,-0.0026631728,-0.0055926363,4000,0,0.13168113,0.123301566,-9.6917305,4000,0,0,0,1
2336000,0.0071905386,0.0005326311,-0.0031957855,4000,0,0.13407533,0.014365382,-9.731234,4000,0,0,0,1
2340000,0.0053263246,0.0026631607,-0.0021305236,4000,0,0.07062895,-0.08020559,-9.719263,4000,0,0,0,1
2344000,0.018908443,-0.009587397,0.0013315467,4000,0,-0.016759416,-0.028730253,-9.667787,4000,0,0,0,1
2352000,-0.0002663701,0.0031957205,0.011984243,4000,0,-0.077811554,0.046687115,-9.730038,4000,0,0,0,1
2356000,-0.0077231755,0.002663131,0.0031958013,4000,0,-0.023942016,-0.044292558,-9.825806,4000,0,0,0,1
2360000,-0.0015978954,-0.005326337,-0.004793675,4000,0,0.019153617,-0.08259979,-9.783907,4000,0,0,0,1
2364000,-0.00079895137,-0.010386332,-0.0077231624,4000,0,0.038307235,-0.056263573,-9.716867,4000,0,0,0,1
2368000,-0.0023968313,-0.008255798,-0.010120018,4000,0,0.008379708,0.009576978,-9.770737,4000,0,0,0,1
2372000,0.00772319,-0.00026634888,-0.008522094,4000,0,-0.029927526,0.06943203,-9.834186,4000,0,0,0,1
2376000,0.017310556,0.0026631127,-0.00026630773,4000,0,-0.05865795,0.049081307,-9.821015,4000,0,0,0,1
2380000,0.015180024,0.0069241994,0.0031958201,4000,0,-0.04548984,-0.021547647,-9.78989,4000,0,0,0,1
2384000,0.010652644,0.01091895,0.0047937213,4000,0,-0.04429273,-0.047883864,-9.795877,4000,0,0,0,1
2388000,0.010652648,0.010386325,0.0055926377,4000,0,-0.05027824,0.0395045,-9.840169,4000,0,0,0,1
2392000,0.01810951,0.008522125,0.0071905027,4000,0,0.026336221,0.07900883,-9.836577,4000,0,0,0,1
2396000,0.01784318,0.008255804,0.0066579017,4000,0,0.089782566,0.044292904,-9.779117,4000,0,0,0,1
2400000,0.0031958004,0.006125234,0.007456879,4000,0,0.034715924,0.05746101,-9.750386,4000,0,0,0,1
2404000,-0.006657863,-0.0005326691,0.018642142,4000,0,0.011971009,0.04549001,-9.750386,4000,0,0,0,1
2408000,-0.0042610303,-0.004793688,0.012783186,4000,0,0.043095633,0.021547988,-9.77433,4000,0,0,0,1
2412000,0.0021305578,-0.0042610588,-0.0063915784,4000,0,0.010773908,0.050278414,-9.815031,4000,0,0,0,1
2416000,0.0031958201,0.0061252713,-0.009587371,4000,0,-0.031124622,0.07541753,-9.856928,4000,0,0,0,1
2420000,-0.0066578877,0.0077231945,-0.004261037,4000,0,-0.02633622,0.043095805,-9.827001,4000,0,0,0,1
2424000,-0.019174771,-0.0045273504,-0.0013315214,4000,0,-0.011971008,0.0047885748,-9.7719345,4000,0,0,0,1
2428000,-0.024234768,-0.0021305187,-2.2993014e-08,4000,0,-0.07302317,-0.032321554,-9.777922,4000,0,0,0,1
2432000,-0.031691615,0.005326302,-0.002663227,4000,0,-0.04788404,-0.06703748,-9.759963,4000,0,0,0,1
2440000,-0.005060001,0.0023968678,0.0013315621,4000,0,0.10534488,-0.041898366,-9.823412,4000,0,0,0,1
2448000,0.0018642077,0.0066579008,0.0093210675,4000,0,-0.104147784,-0.020350544,-9.860521,4000,0,0,0,1
2456000,0.014647424,0.0074568517,0.017044201,4000,0,0.038307235,-0.056263577,-9.731234,4000,0,0,0,1
2460000,-0.00079891505,-0.0026632024,0.0074568405,4000,0,0.020350715,-0.067037486,-9.797075,4000,0,0,0,1
2464000,-0.008788432,-0.0018642339,0.0034621025,4000,0,0.011971009,-0.07541719,-9.827002,4000,0,0,0,1
2468000,-0.0034621167,0.0005326577,0.010120008,4000,0,0.020350713,-0.11133022,-9.777922,4000,0,0,0,1
2472000,-0.0047936817,-0.0023968518,0.008255805,4000,0,0.02873042,-0.094570816,-9.827002,4000,0,0,0,1
2476000,-0.012783154,-0.006657946,-0.00479369,4000,0,0.0035913028,-0.01795634,-9.909603,4000,0,0,0,1
2480000,-0.012516839,-0.004261089,-0.0119842375,4000,0,0.0023942017,0.026336394,-9.883265,4000,0,0,0,1
2488000,-0.0050600185,-0.003195773,0.004527377,4000,0,0.07541737,0.049081307,-9.746798,4000,0,0,0,1
2492000,-0.011185301,0.0013315948,0.018642113,4000,0,0.01436521,0.088585645,-9.7719345,4000,0,0,0,1
2496000,-0.0050600152,0.0026631984,0.018375808,4000,0,-0.009576809,0.08499434,-9.815031,4000,0,0,0,1
2500000,0.0026632096,-0.006391554,0.0103863375,4000,0,-0.019153617,0.0395045,-9.807847,4000,0,0,0,1
2504000,-0.00026631827,-0.006924232,0.012250536,4000,0,-0.041898534,-0.0071824337,-9.822214,4000,0,0,0,1
2508000,-0.0061253305,0.0069241957,0.013315793,4000,0,-0.010773908,0.034716096,-9.891646,4000,0,0,0,1
2512000,-0.003728474,0.017044242,0.011984201,4000,0,0.053869545,0.108936355,-9.874886,4000,0,0,0,1
2516000,0.00026639027,0.002663181,0.0149137,4000,0,0.11133039,0.10175375,-9.773131,4000,0,0,0,1
2520000,-0.0023967538,-0.017310562,0.0063915877,4000,0,0.11133039,0.022745091,-9.768345,4000,0,0,0,1
2524000,-0.006924164,-0.01651162,-0.003462137,4000,0,0.06344634,-0.016759245,-9.870098,4000,0,0,0,1
2528000,-0.010120019,-0.0071905246,-0.00026635535,4000,0,0.023942018,1.729134e-07,-9.907209,4000,0,0,0,1
2536000,0.0013315778,-0.0047936435,0.022636881,4000,0,-0.017956512,0.026336389,-9.768345,4000,0,0,0,1
2540000,-0.007989451,-0.007723235,0.015712634,4000,0,-0.009576809,0.063446514,-9.726444,4000,0,0,0,1
2544000,-0.012250536,-0.004793736,0.0069242003,4000,0,-0.07302317,0.029927693,-9.718066,4000,0,0,0,1
2548000,-0.0018642122,-0.0047936677,0.0063916035,4000,0,-0.11492168,0.01556248,-9.682154,4000,0,0,0,1
2552000,0.003728442,-0.008522107,0.0013315917,4000,0,-0.05746084,-0.029927354,-9.72884,4000,0,0,0,1
2560000,-0.0018642255,-0.003994753,0.008255793,4000,0,-0.0059855045,-0.06464328,-9.842566,4000,0,0,0,1
2564000,-0.0029294647,-0.006657909,0.003994743,4000,0,-0.017956514,1.7136728e-07,-9.818622,4000,0,0,0,1
2568000,0.002130541,0.00026631338,-0.005592635,4000,0,-0.03232173,0.047884207,-9.795878,4000,0,0,0,1
2572000,-0.0023968292,0.00905476,-0.009321057,4000,0,-0.004788405,0.09696535,-9.758768,4000,0,0,0,1
2576000,-0.0071905353,0.0063916044,-0.0063915714,4000,0,0.014365209,0.087388545,-9.722853,4000,0,0,0,1
2580000,-0.0023968518,0.0015978905,-0.0047936887,4000,0,-0.011971009,0.034716096,-9.738417,4000,0,0,0,1
2584000,-0.003195799,-0.00133158,-0.0055926368,4000,0,-0.0011971012,0.017956685,-9.805454,4000,0,0,0,1
2588000,-0.006924218,0.0015979124,0.0023968404,4000,0,-0.009576809,0.035913195,-9.786301,4000,0,0,0,1
2592000,-0.0034621083,0.0047937105,0.0101200035,4000,0,-0.055066645,0.08978274,-9.78989,4000,0,0,0,1
2596000,0.003195817,-0.004261042,0.0053263223,4000,0,-0.02873042,0.12808998,-9.888056,4000,0,0,0,1
2604000,0.0018642077,-0.023702137,0.0018641822,4000,0,0.047884032,0.092176944,-9.846154,4000,0,0,0,1
2608000,0.000532615,-0.02290319,0.003994731,4000,0,-0.0071826046,0.088585645,-9.777922,4000,0,0,0,1
2612000,0.00026632883,-0.014114756,0.0007989477,4000,0,-0.03351883,0.053869717,-9.746797,4000,0,0,0,1
2616000,-0.00186419,-0.011185279,-0.0042610676,4000,0,-0.043095633,0.050278414,-9.759963,4000,0,0,0,1
2620000,-0.009587371,-0.0021305177,-0.0031958283,4000,0,-0.050278243,0.10414796,-9.811439,4000,0,0,0,1
2624000,-0.013582107,0.014647399,-0.0007990047,4000,0,-0.038307235,0.050278418,-9.838972,4000,0,0,0,1
2628000,-0.0055926484,0.013582112,-0.0026631954,4000,0,0.047884032,-0.06464328,-9.828198,4000,0,0,0,1
2632000,0.0021304998,0.00053261814,-0.0066579143,4000,0,0.07062895,-0.08140269,-9.828198,4000,0,0,0,1
2636000,-0.0026631642,-0.00053262,-0.008788434,4000,0,-0.05267244,-0.041898362,-9.865309,4000,0,0,0,1
2640000,-0.011984209,0.005060031,-0.011984234,4000,0,-0.10055649,1.7211944e-07,-9.861719,4000,0,0,0,1
2644000,-0.009853687,0.0063915877,-0.009853707,4000,0,-0.03232173,0.0023943735,-9.815031,4000,0,0,0,1
2648000,-0.0042610345,0.0071905497,-1.4413976e-08,4000,0,-0.009576809,-0.010773738,-9.825806,4000,0,0,0,1
2652000,-0.007989486,0.00905475,-0.0002663097,4000,0,-0.08259997,1.7109566e-07,-9.803061,4000,0,0,0,1
2656000,-0.011185287,0.0045273663,-0.0034620883,4000,0,-0.13048401,-0.034715753,-9.719263,4000,0,0,0,1
2660000,-0.001331578,-0.005858931,0.006125295,4000,0,-0.038307235,-0.0957679,-9.665392,4000,0,0,0,1
2664000,0.008255806,-0.0138484165,0.012783198,4000,0,0.08738837,-0.07541719,-9.731234,4000,0,0,0,1
2672000,-0.009853738,0.00852209,0.0077231443,4000,0,0.047884032,0.056263912,-9.849747,4000,0,0,0,1
2676000,-0.005060003,0.006657913,0.0069242124,4000,0,0.053869545,0.06105232,-9.8198185,4000,0,0,0,1
2680000,-0.0050600013,-0.0010652741,0.0013315938,4000,0,0.071826056,0.0035914723,-9.755177,4000,0,0,0,1
2684000,-0.0042610588,-1.0022361e-09,0.0005326307,4000,0,0.04070143,-0.005985334,-9.7396145,4000,0,0,0,1
2688000,-0.0007989498,0.0074568647,0.009054737,4000,0,0.04668694,0.015562482,-9.745598,4000,0,0,0,1
2692000,-0.0031957994,0.009853689,0.009587387,4000,0,0.040701427,-0.010773739,-9.736021,4000,0,0,0,1
2696000,-0.00985369,0.0031957675,0.0050600357,4000,0,-0.043095633,-0.02873025,-9.7396145,4000,0,0,0,1
2700000,-0.011717887,-0.0066578877,0.010918996,4000,0,-0.04908113,-0.027533153,-9.713276,4000,0,0,0,1
2704000,-0.0021305338,-0.010386262,0.0191748,4000,0,0.023942016,-0.010773739,-9.750386,4000,0,0,0,1
2708000,0.001864173,-0.0023968222,0.015978973,4000,0,0.044292733,0.090979844,-9.860521,4000,0,0,0,1
2712000,-0.005060038,0.005858928,-2.9964708e-10,4000,0,0.02274492,0.1508349,-9.916786,4000,0,0,0,1
2716000,-0.00878845,0.0077231526,-0.009054744,4000,0,0.020350715,0.105345055,-9.888056,4000,0,0,0,1
2720000,-0.0077231736,0.0031958001,-0.005592628,4000,0,0.034715924,0.09816244,-9.852142,4000,0,0,0,1
2724000,-0.0050600115,-2.8242308e-09,-0.0047936845,4000,0,-0.017956512,0.07062913,-9.813835,4000,0,0,0,1
2728000,-0.00079893274,0.00985369,-0.0045273914,4000,0,-0.059855048,0.025139293,-9.76954,4000,0,0,0,1
2732000,0.005858972,0.008788425,0.001065243,4000,0,-0.014365209,0.08020594,-9.813835,4000,0,0,0,1
2736000,0.00026633035,-0.0077231764,0.0039947256,4000,0,0.02274492,0.106542155,-9.861719,4000,0,0,0,1
2740000,-0.010918939,-0.012250558,-0.0026631905,4000,0,0.017956514,0.04668711,-9.803061,4000,0,0,0,1
2744000,-0.0039947294,-0.01438109,-0.006125236,4000,0,-0.0023942022,0.015562482,-9.759963,4000,0,0,0,1
2748000,0.0058588996,-0.016245289,0.0047937403,4000,0,-0.015562311,0.008379878,-9.756374,4000,0,0,0,1
2752000,0.004527307,-0.009321086,0.015180027,4000,0,0.01436521,1.7021813e-07,-9.752781,4000,0,0,0,1
2756000,0.004527354,-0.002929472,0.011451603,4000,0,0.02873042,-0.019153448,-9.750386,4000,0,0,0,1
2760000,0.0026631479,0.003462119,0.0005326402,4000,0,-0.017956512,-0.035912856,-9.758768,4000,0,0,0,1
2764000,-0.001065271,0.0015979016,-0.0053263204,4000,0,-0.047884032,-0.05386937,-9.799467,4000,0,0,0,1
2768000,0.0007989413,-0.0021305326,-0.006391587,4000,0,-0.026336217,-0.049080964,-9.835382,4000,0,0,0,1
2772000,-0.0007989439,0.0005326353,-0.0047936905,4000,0,0.015562311,0.05267261,-9.932346,4000,0,0,0,1
2776000,-0.0018642113,0.0007989521,0.0026631611,4000,0,0.031124622,0.07900883,-9.952697,4000,0,0,0,1
2780000,0.0042610625,0.000532646,0.0165116,4000,0,0.0047884043,-0.039504156,-9.822214,4000,0,0,0,1
2784000,0.008522138,-0.0034620843,0.014913698,4000,0,-0.020350713,-0.0861911,-9.752781,4000,0,0,0,1
2788000,0.0058589843,-0.0058589247,-0.00026632615,4000,0,0.039504327,-0.058657777,-9.803061,4000,0,0,0,1
2796000,0.009587382,-0.0063915844,-0.003195795,4000,0,-0.009576807,-0.03351866,-9.853338,4000,0,0,0,1
2800000,0.0026631681,-0.0071905176,-0.0066579203,4000,0,-0.039504327,0.0011972712,-9.764753,4000,0,0,0,1
2804000,-0.011717917,-0.0053262953,-0.0021305617,4000,0,0.015562311,0.0023943726,-9.7719345,4000,0,0,0,1
2808000,-0.01384845,-0.008255781,0.002663169,4000,0,-0.004788405,0.022745091,-9.866506,4000,0,0,0,1
2812000,-0.0039947624,-0.010386284,0.010652682,4000,0,-0.016759416,0.053869717,-9.888056,4000,0,0,0,1
2816000,0.0021304756,-0.0010652354,0.016511612,4000,0,0.029927526,0.043095805,-9.813835,4000,0,0,0,1
2820000,0.004261,0.010120031,0.007989492,4000,0,0.02274492,-0.0035911328,-9.755177,4000,0,0,0,1
2824000,-0.00079898385,0.009587382,-0.0029294607,4000,0,-0.04548984,-0.037109964,-9.781511,4000,0,0,0,1
2828000,-0.007723168,0.0013315881,-0.000532608,4000,0,-0.07302317,0.019153789,-9.866506,4000,0,0,0,1
2832000,-0.007723168,-0.007456845,0.0021305515,4000,0,-0.040701427,0.0359132,-9.860521,4000,0,0,0,1
2836000,-0.0018641964,-0.01038634,-0.003728404,4000,0,-0.01316811,-0.02513895,-9.831791,4000,0,0,0,1
2840000,0.005060023,-0.0053263335,-0.0069241985,4000,0,-0.017956512,-0.026336046,-9.891646,4000,0,0,0,1
2844000,0.0077231736,-0.0015979055,-0.005326312,4000,0,-0.005985504,-0.019153444,-9.888055,4000,0,0,0,1
2848000,0.005858945,-0.006657901,-0.004793704,4000,0,0.021547817,-0.051475175,-9.840169,4000,0,0,0,1
2852000,0.0047936793,-0.0063915965,0.00053263037,4000,0,-0.010773908,-0.07781139,-9.836578,4000,0,0,0,1
2860000,-0.0023968297,-0.00532636,0.019707385,4000,0,-0.029927526,-0.059854876,-9.823412,4000,0,0,0,1
2864000,-0.005592643,-0.0002663506,0.003195784,4000,0,-0.035913028,0.028730595,-9.775528,4000,0,0,0,1
2868000,-0.0039947485,0.006657896,-0.0015979095,4000,0,-0.06823475,0.07781173,-9.701307,4000,0,0,0,1
2872000,-0.0021305247,-0.00079894456,0.0021305347,4000,0,-0.06344634,0.070629135,-9.806652,4000,0,0,0,1
2876000,0.00079895166,-0.0042610588,-0.0005326291,4000,0,-0.025139121,0.053869717,-9.884462,4000,0,0,0,1
2880000,0.003195786,-0.0018642149,0.0053263265,4000,0,0.009576809,0.0407016,-9.861719,4000,0,0,0,1
2884000,0.00053262006,0.003195783,0.010652648,4000,0,0.035913028,-0.011970837,-9.856928,4000,0,0,0,1
2888000,-0.0029294903,0.0077231554,0.013582126,4000,0,0.040701427,-0.05027807,-9.8198185,4000,0,0,0,1
2892000,-0.010119996,0.002929443,0.01198425,4000,0,-0.004788405,-0.04548967,-9.763554,4000,0,0,0,1
2896000,-0.016245283,-0.0018643038,-0.007723146,4000,0,-0.02873042,-0.08020559,-9.7324295,4000,0,0,0,1
2900000,-0.0077231554,-0.00026641705,-0.022370562,4000,0,0.047884032,-0.027533155,-9.758768,4000,0,0,0,1
2904000,-0.0023967882,0.0074568284,-0.016245306,4000,0,0.05626375,0.051475517,-9.800665,4000,0,0,0,1
2912000,-0.010386321,0.01198424,-0.003728405,4000,0,-0.031124625,0.00837988,-9.941923,4000,0,0,0,1
2916000,-0.006391592,0.0037284265,-0.0021305163,4000,0,0.06943185,0.0059856772,-9.885659,4000,0,0,0,1
2920000,-0.0013315848,-0.0005326376,-0.002929475,4000,0,0.056263745,0.010774079,-9.763555,4000,0,0,0,1
2924000,0.0023968448,-0.00026631865,-0.0002663156,4000,0,-0.017956514,0.05865812,-9.792285,4000,0,0,0,1
2928000,0.0034621102,0.0069242185,-0.00026631024,4000,0,-0.05267244,0.037110303,-9.902418,4000,0,0,0,1
2932000,0.00079894694,0.010120013,-0.0010652546,4000,0,-0.049081136,0.021547988,-9.862916,4000,0,0,0,1
2936000,-0.0029294486,0.0061252704,0.007989495,4000,0,-0.011971008,0.044292904,-9.811439,4000,0,0,0,1
2940000,-0.005858959,0.0050599957,0.0047936975,4000,0,0.023942018,-0.021547647,-9.838972,4000,0,0,0,1
2944000,0.004261049,0.003195796,-0.0023968588,4000,0,0.02274492,-0.062249076,-9.859325,4000,0,0,0,1
2948000,0.022104247,-0.002396872,0.006657877,4000,0,-0.039504327,0.017956687,-9.874886,4000,0,0,0,1
2952000,0.02077265,-0.0013316094,0.010120018,4000,0,-0.12808979,0.057461016,-9.896433,4000,0,0,0,1
2956000,0.008788429,0.001065274,0.0029294891,4000,0,-0.1221043,-0.038307063,-9.891646,4000,0,0,0,1
2960000,0.007989484,0.002130537,3.4415508e-09,4000,0,-0.058657948,-0.071825884,-9.852142,4000,0,0,0,1
2964000,0.011717915,0.0061252574,0.005326331,4000,0,-0.08140285,0.009576979,-9.846155,4000,0,0,0,1
2968000,0.0074568717,-0.0018642313,0.007989461,4000,0,-0.084994175,0.009576979,-9.866506,4000,0,0,0,1
2972000,-0.0013315515,-0.010918965,-2.8158382e-08,4000,0,-0.01436521,-0.023941847,-9.871296,4000,0,0,0,1
2976000,-0.0058589303,0.0037284235,-0.006924242,4000,0,-0.017956514,-0.020350542,-9.803061,4000,0,0,0,1
2980000,-0.010386298,0.016245296,-0.005858973,4000,0,-0.039504327,-0.016759245,-9.706094,4000,0,0,0,1
2984000,-0.011984209,0.010120035,-0.00053260225,4000,0,0.009576809,0.014365382,-9.690533,4000,0,0,0,1
2988000,-0.0034621004,0.0007989596,0.00266317,4000,0,0.07302317,0.04549001,-9.721657,4000,0,0,0,1
2992000,0.0029294856,-0.008522113,0.0015979058,4000,0,0.055066645,0.0395045,-9.753978,4000,0,0,0,1
2996000,-0.004261047,-0.002396844,-0.0034621244,4000,0,-0.013168109,-0.0023940324,-9.7396145,4000,0,0,0,1
3000000,-0.022636859,0.003462124,-0.008522139,4000,0,0.0035913028,-0.02394185,-9.6845455,4000,0,0,0,1
3004000,-0.031158997,-0.00026630383,-0.010119974,4000,0,0.03351883,1.6896453e-07,-9.680956,4000,0,0,0,1
3008000,-0.019707376,0.004527342,-0.00958743,4000,0,-0.02274492,-0.034715753,-9.726444,4000,0,0,0,1
3012000,-0.0015979052,0.00026628136,-0.006125271,4000,0,-0.035913024,-0.05865778,-9.786302,4000,0,0,0,1
3016000,0.011451575,-0.008788454,0.0018642165,4000,0,0.029927524,-0.016759245,-9.816229,4000,0,0,0,1
3020000,0.0061252727,-0.0066579035,0.0010652569,4000,0,0.021547817,-0.00119693,-9.804258,4000,0,0,0,1
3024000,-0.003994719,-0.005059988,-0.009587401,4000,0,-0.025139121,0.038307402,-9.795877,4000,0,0,0,1
3028000,-0.0031957997,-0.0055926386,-0.0069242176,4000,0,-0.0035913028,0.06703782,-9.747993,4000,0,0,0,1
3032000,-0.0015979076,-0.0061252695,-0.0018642095,4000,0,0.011971008,-0.016759248,-9.671379,4000,0,0,0,1
3040000,0.005326348,-0.000266324,-0.009321049,4000,0,-0.027533323,-0.11731573,-9.782708,4000,0,0,0,1
3044000,0.0047937036,0.0047936495,0.01438108,4000,0,0.0035913025,-0.020350544,-9.75757,4000,0,0,0,1
3048000,0.0039948067,-0.0045274,0.027164234,4000,0,-0.02274492,0.037110306,-9.730038,4000,0,0,0,1
3056000,0.0042610834,-0.009054747,0.012783168,4000,0,-0.049081136,0.06943203,-9.9108,4000,0,0,0,1
3060000,0.0015979537,-0.024501102,0.01571262,4000,0,-0.029927526,0.008379883,-9.907208,4000,0,0,0,1
3064000,-0.0026630587,-0.025033735,0.003462074,4000,0,-0.038307235,-0.05027807,-9.811439,4000,0,0,0,1
3068000,-0.00452737,-0.013582125,0.0013315546,4000,0,-0.016759416,0.06703783,-9.726444,4000,0,0,0,1
3072000,-0.0034621472,0.0023968555,0.007989464,4000,0,0.0047884043,0.087388545,-9.779117,4000,0,0,0,1
3076000,-0.010652656,0.0050599817,0.0026631637,4000,0,-0.0035913025,-0.06344618,-9.836578,4000,0,0,0,1
3080000,-0.0130494805,-0.0023968425,0.003994772,4000,0,-0.019153617,-0.13048382,-9.838972,4000,0,0,0,1
3084000,-0.0055926507,0.0010653113,0.012516849,4000,0,-0.031124622,-0.07661429,-9.810242,4000,0,0,0,1
3088000,0.00053259917,0.008788453,0.010119997,4000,0,0.010773908,0.0035914734,-9.76116,4000,0,0,0,1
3092000,0.0037283776,0.012516873,-0.0021305375,4000,0,0.056263745,0.051475514,-9.811439,4000,0,0,0,1
3096000,0.0061252546,0.013848442,-0.0063915956,4000,0,-0.02274492,0.074220434,-9.822214,4000,0,0,0,1
3100000,0.013315837,0.011451562,0.0013315427,4000,0,-0.12689269,0.11851317,-9.745598,4000,0,0,0,1
3104000,0.015180041,0.00053261296,0.0058589,4000,0,-0.089782566,0.106542155,-9.738417,4000,0,0,0,1
3108000,0.009321074,-0.004261068,0.0055926163,4000,0,-0.056263745,0.032321904,-9.770737,4000,0,0,0,1
3116000,0.0063915844,0.0021305408,-0.003994741,4000,0,-0.034715924,0.074220434,-9.859323,4000,0,0,0,1
3120000,0.014913704,0.002396836,-0.005060012,4000,0,0.010773908,0.056263916,-9.788693,4000,0,0,0,1
3124000,0.017044246,0.00612524,0.0005326493,4000,0,-0.02633622,0.070629135,-9.698913,4000,0,0,0,1
3128000,0.003994742,0.013049486,0.0007990147,4000,0,-0.079008654,0.05865812,-9.694122,4000,0,0,0,1
3136000,-0.0077231545,0.013315813,0.0015979095,4000,0,0.011971008,0.034716096,-9.792285,4000,0,0,0,1
3140000,-0.0021305005,-0.0010652494,0.0063915993,4000,0,0.0035913025,0.005985676,-9.805454,4000,0,0,0,1
3144000,1.9102272e-08,-0.010120007,0.0069242264,4000,0,0.083797075,-0.015562142,-9.758768,4000,0,0,0,1
3148000,-0.0050599813,-0.005326335,-0.0039947596,4000,0,0.16759415,-0.026336052,-9.747993,4000,0,0,0,1
3152000,-0.0055926344,0.00026631914,-0.0026631716,4000,0,0.1221043,-0.043095466,-9.721657,4000,0,0,0,1
3156000,0.002130535,0.0055926587,0.011451583,4000,0,0.04908113,-0.005985335,-9.67856,4000,0,0,0,1
3160000,-0.001065289,0.010652636,0.008788443,4000,0,0.055066645,0.049081303,-9.672577,4000,0,0,0,1
3164000,-0.01278319,0.001597859,-0.0026631167,4000,0,0.033518832,0.0430958,-9.710884,4000,0,0,0,1
3168000,-0.0077231787,-0.009321078,-0.004527331,4000,0,0.028730419,0.023942186,-9.751583,4000,0,0,0,1
3172000,0.007456851,-0.0029294915,-0.0010652338,4000,0,0.057460837,0.04908131,-9.742006,4000,0,0,0,1
3176000,0.006657904,0.0013315798,-0.0005326225,4000,0,0.010773908,0.105345055,-9.781511,4000,0,0,0,1
3180000,-0.001597896,-0.0061252797,0.0042610453,4000,0,0.010773908,0.075417526,-9.818621,4000,0,0,0,1
3184000,-0.0037284384,-0.004261059,0.009054743,4000,0,0.05267244,-0.034715753,-9.763554,4000,0,0,0,1
3188000,-0.0047937124,0.0021305282,0.0109189525,4000,0,0.05746084,-0.07422009,-9.747993,4000,0,0,0,1
3192000,-0.00079893385,-0.00026628873,0.019174762,4000,0,0.005985506,0.041898705,-9.803061,4000,0,0,0,1
3196000,0.0010652681,-0.0007989373,0.017576866,4000,0,-0.039504327,0.1592146,-9.827002,4000,0,0,0,1
3200000,1.7731071e-09,-0.00053263427,0.005060006,4000,0,-0.020350713,0.13287838,-9.770737,4000,0,0,0,1
3204000,-0.0029294607,-0.009853701,-0.000532633,4000,0,-0.065840565,0.053869717,-9.715671,4000,0,0,0,1
3208000,-0.011984238,-0.010120007,0.0026631313,4000,0,-0.1197101,-0.022744747,-9.76116,4000,0,0,0,1
3212000,-0.009587382,0.006125259,-0.001065321,4000,0,-0.100556485,-0.06105198,-9.821015,4000,0,0,0,1
3216000,0.007989459,0.004527331,-0.012783205,4000,0,-0.037110135,-0.04429256,-9.787498,4000,0,0,0,1
3220000,0.014647344,-0.0066579385,-0.010120053,4000,0,-0.019153617,-0.05027807,-9.755177,4000,0,0,0,1
3224000,0.0015978891,-0.004261049,-0.002929495,4000,0,-0.09816227,-0.06464328,-9.822214,4000,0,0,0,1
3228000,-0.009853697,-0.008255788,-0.004793708,4000,0,-0.09457099,0.019153787,-9.847351,4000,0,0,0,1
3232000,-0.009587399,-0.011717896,-0.00053262047,4000,0,0.005985504,0.07900883,-9.793484,4000,0,0,0,1
3236000,-0.00053267746,-0.008522082,0.011185304,4000,0,0.05985505,-0.008379536,-9.742006,4000,0,0,0,1
3240000,0.002396851,-0.0077231578,0.007989491,4000,0,0.095768064,-0.034715757,-9.673774,4000,0,0,0,1
3244000,-0.008522097,-0.00079896575,-0.006657926,4000,0,0.11492168,0.06105232,-9.677363,4000,0,0,0,1
3248000,-0.018109486,0.0047937296,-0.0002663343,4000,0,0.09816227,0.092176944,-9.731234,4000,0,0,0,1
3252000,-0.009054727,0.00079902774,0.0130495,4000,0,0.089782566,0.0395045,-9.759963,4000,0,0,0,1
3256000,0.0050600213,-0.0031957515,0.0066579115,4000,0,0.044292733,0.02633639,-9.805455,4000,0,0,0,1
3260000,0.0010652707,-0.0029294754,-3.857399e-09,4000,0,-0.043095633,0.05267261,-9.860521,4000,0,0,0,1
3264000,-0.0045273784,-0.0039947433,0.003195788,4000,0,-0.08259997,0.07541753,-9.864112,4000,0,0,0,1
3268000,0.0047936845,-0.0050599887,0.007989497,4000,0,-0.09337388,0.11492186,-9.770737,4000,0,0,0,1
3272000,0.011717903,-0.0015978763,0.0066579203,4000,0,-0.099359386,0.12808996,-9.716867,4000,0,0,0,1
3276000,-0.0018642085,-0.0010652541,-0.0037284307,4000,0,-0.029927526,0.06584073,-9.788693,4000,0,0,0,1
3280000,-0.01597896,0.0042610723,-0.009321073,4000,0,0.017956512,0.0023943756,-9.908405,4000,0,0,0,1
3284000,-0.01145154,0.021837909,-0.009321163,4000,0,0.026336217,0.0011972755,-9.9790325,4000,0,0,0,1
3288000,0.0037284577,0.027696837,-0.0074569844,4000,0,-0.02035072,-0.02035054,-9.913193,4000,0,0,0,1
3292000,0.015978957,0.015712617,-0.0055927667,4000,0,-0.09337388,-0.05027807,-9.829395,4000,0,0,0,1
3296000,0.015978947,0.0050600073,-0.0058590122,4000,0,0.03711013,-0.0047882334,-9.825806,4000,0,0,0,1
3300000,0.003462097,3.4509423e-08,-0.0077231736,4000,0,0.096965164,0.0035914734,-9.824609,4000,0,0,0,1
3304000,-0.0074568572,-0.0021304996,-0.009054752,4000,0,-0.099359386,1.7195231e-07,-9.852142,4000,0,0,0,1
3308000,-0.0018642149,-0.00079894485,-0.0007989474,4000,0,-0.14724344,0.059855223,-9.866505,4000,0,0,0,1
3312000,0.00479369,0.0005326315,0.00079894945,4000,0,0.0047884034,0.05267261,-9.843762,4000,0,0,0,1
3316000,0.005060004,0.0031958022,-0.0045273704,4000,0,0.033518832,0.004788576,-9.831791,4000,0,0,0,1
3320000,0.00053264457,0.009054751,-0.0013315658,4000,0,-0.02274492,-0.0011969303,-9.782708,4000,0,0,0,1
3324000,-0.0066579003,0.011451597,-0.0007989261,4000,0,-0.043095633,-0.009576638,-9.767147,4000,0,0,0,1
3328000,-0.010386357,0.005858941,-0.007456825,4000,0,-0.10654198,-0.0035911307,-9.841368,4000,0,0,0,1
3332000,-0.01038634,0.0026631542,-0.009587369,4000,0,-0.104147784,0.051475517,-9.879675,4000,0,0,0,1
3336000,0.0031958197,0.009321041,-0.0039947773,4000,0,-0.029927526,0.070629135,-9.800665,4000,0,0,0,1
3340000,0.011451608,0.0082557835,0.0010652378,4000,0,-0.02873042,0.023942187,-9.734824,4000,0,0,0,1
3344000,0.0034621337,-0.0061252997,0.007989451,4000,0,-0.034715924,0.0023943726,-9.76116,4000,0,0,0,1
3348000,-0.00026632953,-0.002130541,0.009321061,4000,0,0.008379707,-0.035912856,-9.822214,4000,0,0,0,1
3352000,0.0013315459,0.010386333,0.0037284263,4000,0,0.06464346,-0.050278075,-9.854535,4000,0,0,0,1
3356000,0.004527368,0.0007989545,-0.0015979123,4000,0,0.10893619,0.074220434,-9.805455,4000,0,0,0,1
3360000,0.0023968397,-0.009321061,-0.0023968604,4000,0,0.11252749,0.1687914,-9.764753,4000,0,0,0,1
3368000,-0.0074568484,-0.011717915,0.00079893036,4000,0,-0.1101333,0.09337404,-9.670182,4000,0,0,0,1
3372000,-0.0077231545,-0.009321075,-0.0031958008,4000,0,-0.05386955,0.04908131,-9.797075,4000,0,0,0,1
3376000,0.0021305312,-0.016245304,-0.0063915397,4000,0,0.05985505,0.007182779,-9.940725,4000,0,0,0,1
3380000,0.013582114,-0.009587407,-0.0021304626,4000,0,0.057460845,0.06584073,-9.8988285,4000,0,0,0,1
3384000,0.014913679,0.0071904836,0.009054829,4000,0,0.017956514,0.14125809,-9.764753,4000,0,0,0,1
3388000,0.010386333,0.006125255,0.009587387,4000,0,-0.016759414,0.10773926,-9.690533,4000,0,0,0,1
3392000,0.0045273616,0.002396869,-0.0026631618,4000,0,-0.017956512,0.086191446,-9.713276,4000,0,0,0,1
3400000,0.0029294752,0.0013315729,-0.0031957994,4000,0,0.08140285,-0.03112445,-9.846155,4000,0,0,0,1
3404000,0.009587379,0.0015978925,-0.0058589582,4000,0,0.07062895,0.007182777,-9.797075,4000,0,0,0,1
3408000,0.00958739,0.0079895025,-0.011717889,4000,0,-0.019153615,0.04668711,-9.800665,4000,0,0,0,1
3412000,0.0005326347,0.0018642169,-0.0018642083,4000,0,-0.11133039,0.025139293,-9.842566,4000,0,0,0,1
3416000,0.0026631665,-0.002396849,0.010386327,4000,0,-0.12808979,-0.038307063,-9.871296,4000,0,0,0,1
3420000,0.01597896,0.0013316302,0.006391601,4000,0,0.011971008,-0.06344618,-9.877279,4000,0,0,0,1
3424000,0.004793696,-0.002929466,-0.00026633393,4000,0,0.13527243,-0.016759245,-9.758768,4000,0,0,0,1
3428000,-0.009853697,-0.007989485,0.00053260976,4000,0,0.14365211,-0.01077374,-9.665392,4000,0,0,0,1
3432000,-0.0021305422,-0.007456835,0.005326341,4000,0,0.14245501,-0.023941848,-9.689336,4000,0,0,0,1
3436000,-0.00079897296,5.407399e-09,0.009853695,4000,0,0.11492169,-0.005985334,-9.746797,4000,0,0,0,1
3440000,-0.012516871,0.0034620704,0.0058589545,4000,0,0.031124622,-0.026336052,-9.76116,4000,0,0,0,1
3444000,-0.017576858,-0.0034621393,0.0010652993,4000,0,-0.044292733,-0.059854884,-9.688137,4000,0,0,0,1
3448000,-0.011451598,0.0010652794,0.0031957743,4000,0,-0.055066645,-0.040701263,-9.65462,4000,0,0,0,1
3452000,-0.009587401,0.015446294,-0.0085221715,4000,0,-0.0023942017,0.005985675,-9.743204,4000,0,0,0,1
3456000,-0.012250588,0.016777892,-0.01810949,4000,0,0.05746084,-0.07661429,-9.812637,4000,0,0,0,1
3460000,-0.008522163,0.0077231517,-0.016511587,4000,0,0.104147784,-0.1903389,-9.777922,4000,0,0,0,1
3464000,-0.005859002,0.00026629498,-0.018908434,4000,0,0.12928692,-0.10773892,-9.743204,4000,0,0,0,1
3468000,-0.004527342,0.0053263404,-0.0055926493,4000,0,0.06464346,-0.06464328,-9.759963,4000,0,0,0,1
3472000,-0.0047936398,0.014114786,0.013848427,4000,0,0.017956514,-0.12689252,-9.801862,4000,0,0,0,1
3480000,-0.010919004,0.012250501,0.0021305499,4000,0,0.08020575,-0.019153446,-9.8281975,4000,0,0,0,1
3488000,-0.015179997,-0.001065229,0.005592705,4000,0,0.021547817,-0.08020559,-9.858126,4000,0,0,0,1
3496000,0.011717958,-0.0037284025,-0.006924152,4000,0,-0.0071826037,-0.025138954,-9.76116,4000,0,0,0,1
3500000,0.012783216,0.008255841,-0.017576817,4000,0,-0.06105215,0.0359132,-9.716867,4000,0,0,0,1
3504000,0.006391595,0.0039947294,-0.0058589564,4000,0,-0.095768064,0.06703783,-9.73722,4000,0,0,0,1
3508000,0.0109189665,0.0042610425,-0.0023968508,4000,0,-0.095768064,0.055066813,-9.707291,4000,0,0,0,1
3512000,0.012250533,0.0053263437,-0.008522116,4000,0,-0.05865795,0.029927695,-9.731234,4000,0,0,0,1
3516000,0.0047937064,0.0066578956,-0.0013315618,4000,0,0.009576809,-0.05027807,-9.764753,4000,0,0,0,1
3524000,0.0037284219,-0.0047936924,-0.0034621113,4000,0,0.1412579,-0.041898362,-9.750387,4000,0,0,0,1
3528000,0.0119842235,-0.0034621232,-0.0002663014,4000,0,0.055066645,-0.028730249,-9.856929,4000,0,0,0,1
3532000,0.011451595,0.011984225,0.0002663774,4000,0,-0.0047884043,-0.014365038,-9.911995,4000,0,0,0,1
3536000,0.014913687,0.018642146,-0.00399473,4000,0,-0.067037664,-0.01556214,-9.897633,4000,0,0,0,1
3540000,0.016511556,0.0026631777,-0.007723257,4000,0,-0.12689269,-0.056263577,-9.853339,4000,0,0,0,1
3544000,0.00479367,-0.0066578984,-0.0031958348,4000,0,-0.09217678,-0.057460673,-9.846155,4000,0,0,0,1
3548000,-0.0029294796,0.0015978975,0.001597893,4000,0,-0.009576808,0.028730594,-9.862916,4000,0,0,0,1
3552000,-0.006125276,0.00213052,-0.0061252704,4000,0,0.009576809,0.08379724,-9.848549,4000,0,0,0,1
3556000,-0.018109508,0.00079895905,-0.013049479,4000,0,-0.027533323,0.05267261,-9.769541,4000,0,0,0,1
3560000,-0.020506378,-0.007723145,-0.011185227,4000,0,-0.009576809,-0.0011969309,-9.740809,4000,0,0,0,1
3568000,-0.003728485,-0.020506337,-0.0015978588,4000,0,0.03232173,-0.04429256,-9.810242,4000,0,0,0,1
3572000,0.00053256174,-0.0061252597,0.009853709,4000,0,0.025139121,0.0023943735,-9.787498,4000,0,0,0,1
3576000,0.005059971,0.007456868,0.0050600185,4000,0,0.017956514,-0.031124454,-9.885658,4000,0,0,0,1
3580000,-0.0007989702,0.013315804,0.00026634082,4000,0,0.02274492,-0.06224907,-9.96467,4000,0,0,0,1
3584000,-0.004793678,0.0039947433,0.002929498,4000,0,0.04668694,-0.039504156,-9.889252,4000,0,0,0,1
3592000,0.00079897285,0.0031957824,-0.011984229,4000,0,-0.011971008,0.051475517,-9.815032,4000,0,0,0,1
3596000,0.0007989388,0.0010652652,-0.01304949,4000,0,-0.011971008,0.047884207,-9.908405,4000,0,0,0,1
3600000,-0.004793768,-0.017044209,-0.009853699,4000,0,0.0011971011,0.02394219,-9.921572,4000,0,0,0,1
3604000,0.0039946944,-0.018109515,-0.0021304775,4000,0,0.01436521,0.033519,-9.844959,4000,0,0,0,1
3608000,0.0135820685,-0.004527396,0.008522194,4000,0,0.06344634,-0.04070126,-9.835382,4000,0,0,0,1
3612000,0.007456838,-0.0010652932,0.010918967,4000,0,0.08619127,-0.10055631,-9.856928,4000,0,0,0,1
3616000,0.0015979192,-0.006657911,0.0053263064,4000,0,0.04548984,-0.07541719,-9.872493,4000,0,0,0,1
3620000,0.00585896,-0.004527365,0.001331591,4000,0,0.06105215,-0.069431685,-9.91439,4000,0,0,0,1
3624000,0.014114765,0.0037284482,-0.008255771,4000,0,0.1221043,-0.0921766,-9.891646,4000,0,0,0,1
3628000,0.014114759,0.009321106,-0.017044207,4000,0,0.13048401,-0.05147517,-9.823412,4000,0,0,0,1
3632000,0.007190557,0.007456842,-0.006657891,4000,0,0.043095633,0.019153787,-9.793484,4000,0,0,0,1
3636000,0.0039947648,0.0018641853,0.0077231624,4000,0,-0.08020575,0.007182777,-9.815031,4000,0,0,0,1
3640000,0.0031957862,0.00426106,0.0050600097,4000,0,-0.08140285,0.02394219,-9.815031,4000,0,0,0,1
3644000,0.0037284063,0.009321074,-0.0029294726,4000,0,0.039504327,0.040701605,-9.822214,4000,0,0,0,1
3648000,0.0066579073,0.0077231624,-0.0010652755,4000,0,0.09217678,-0.064643286,-9.865309,4000,0,0,0,1
3652000,0.009054759,0.002663151,0.0031957764,4000,0,0.005985504,-0.0861911,-9.831791,4000,0,0,0,1
3656000,0.010652651,-0.0029294777,0.003728408,4000,0,-0.040701427,-0.029927352,-9.777922,4000,0,0,0,1
3660000,0.009321072,-0.0050599896,-0.0013315898,4000,0,0.004788405,-0.029927352,-9.797075,4000,0,0,0,1
3664000,0.003728433,-0.0071905185,-0.006125287,4000,0,0.035913028,-0.01795634,-9.835382,4000,0,0,0,1
3668000,0.0010652725,-0.0026631567,-0.0055926405,4000,0,0.021547817,0.021547988,-9.825806,4000,0,0,0,1
3672000,0.0029294852,0.0026631572,-0.0029294738,4000,0,0.017956512,0.08499434,-9.804258,4000,0,0,0,1
3676000,0.00079895236,-0.00026632167,0.004793689,4000,0,0.05746084,0.06105232,-9.852142,4000,0,0,0,1
3680000,-0.003462109,-0.00079895544,0.005326322,4000,0,0.06105215,-0.020350542,-9.859323,4000,0,0,0,1
3684000,-0.0021305257,-0.0018642175,-0.0005326307,4000,0,-0.021547817,0.0323219,-9.805454,4000,0,0,0,1
3688000,0.0015978947,-0.0063915867,0.0018642185,4000,0,-0.04548984,0.07182623,-9.8198185,4000,0,0,0,1
3692000,0.0010652615,-0.005326323,0.0029294773,4000,0,0.038307235,-0.008379536,-9.848549,4000,0,0,0,1
3696000,-0.00026632042,0.0029294773,0.0007989491,4000,0,0.039504327,-0.029927354,-9.846155,4000,0,0,0,1
3700000,-0.005858958,0.004261057,-0.0010652592,4000,0,-0.019153617,0.0023943738,-9.830592,4000,0,0,0,1
3704000,-0.009853688,0.009321075,0.0031957899,4000,0,-0.02274492,-0.0035911307,-9.840169,4000,0,0,0,1
3708000,0.00053263165,0.01810952,0.0058588954,4000,0,0.02513912,-0.008379535,-9.837774,4000,0,0,0,1
3712000,0.012250523,0.010386353,0.0002662442,4000,0,0.084994175,-0.02873025,-9.767147,4000,0,0,0,1
3716000,0.00798949,0.0021305222,0.001864194,4000,0,0.07302317,-0.043095466,-9.756373,4000,0,0,0,1
3724000,0.0031957868,0.0050600106,-0.00053263275,4000,0,0.041898537,0.017956689,-9.883265,4000,0,0,0,1
3728000,0.0055926368,0.0122505445,-0.0029294735,4000,0,0.0,-0.010773739,-9.787498,4000,0,0,0,1
3732000,0.0063916016,0.0117179025,0.00079894444,4000,0,0.021547817,-0.019153446,-9.824608,4000,0,0,0,1
3736000,0.004793686,0.007723171,-0.0005326345,4000,0,0.104147784,0.019153787,-9.870098,4000,0,0,0,1
3740000,0.003728406,0.0037284384,-0.007989487,4000,0,0.100556485,0.021547988,-9.800665,4000,0,0,0,1
3744000,0.004793687,0.0013315751,-0.005592643,4000,0,0.055066645,0.0059856754,-9.787498,4000,0,0,0,1
3748000,0.0023968443,0.0005326338,-0.0037284263,4000,0,0.059855048,-0.019153446,-9.815032,4000,0,0,0,1
3752000,-0.0010652697,-0.003195788,-0.005858958,4000,0,0.06943185,-0.040701255,-9.846155,4000,0,0,0,1
3756000,-0.0063915914,-0.003195782,-0.0023968508,4000,0,0.09337388,-0.022744745,-9.886856,4000,0,0,0,1
3760000,-0.0077231578,0.0021305205,-0.0071905483,4000,0,0.118513,0.0011972737,-9.889252,4000,0,0,0,1
3764000,0.0018642202,0.0071904957,-0.014114776,4000,0,0.067037664,-0.022744747,-9.822214,4000,0,0,0,1
3768000,0.010918962,0.0045273285,-0.009054773,4000,0,-0.041898537,-0.04908096,-9.801862,4000,0,0,0,1
3772000,0.0055926163,-0.0034620955,-0.008522137,4000,0,-0.09217678,-0.047883864,-9.813835,4000,0,0,0,1
3776000,-0.0034621186,-0.007989451,-0.01225056,4000,0,-0.050278243,-0.067037486,-9.785104,4000,0,0,0,1
3780000,0.0047936826,-0.0045274,-0.0042610406,4000,0,-0.0059855045,-0.05985488,-9.783907,4000,0,0,0,1
3784000,0.0074568507,0.008788407,0.009321089,4000,0,-0.0011971011,-0.009576637,-9.832989,4000,0,0,0,1
3788000,-0.0063915728,0.012783109,0.018642178,4000,0,-0.016759416,0.081403024,-9.889252,4000,0,0,0,1
3792000,-0.0018641842,0.007989512,0.018375807,4000,0,0.021547817,0.13766678,-9.876082,4000,0,0,0,1
3796000,0.0058589093,0.010652685,0.0071905134,4000,0,0.07422027,0.11252767,-9.805455,4000,0,0,0,1
3800000,-0.0015979295,0.009321067,-0.0029294533,4000,0,0.021547817,0.11851316,-9.76954,4000,0,0,0,1
3804000,-0.0021305217,0.001864216,0.0018642189,4000,0,-0.04908113,0.11971027,-9.775527,4000,0,0,0,1
3808000,-0.001597885,-0.004261049,0.014913708,4000,0,-0.02873042,0.041898705,-9.791088,4000,0,0,0,1
