timestamp,timestamp_sample,time_last_fuse,device_id,observation,observation_variance,innovation,innovation_filtered,innovation_variance,test_ratio,test_ratio_filtered,estimator_instance,innovation_rejected,fused
1760000,1563610,0,0,0.0,12.25,-1.139164e-06,-1.139164e-06,24.500013,2.1186841e-15,2.1186841e-15,0,0,0
1792000,1635990,0,0,0.13098145,12.25,-0.13096641,-0.016562281,112.25,6.112143e-06,-7.7290764e-07,0,0,0
1864000,1708337,0,0,0.075653076,12.25,-0.07560891,-0.024026016,112.25,2.037134e-06,-9.3271103e-07,0,0,0
1936000,1779320,0,0,0.034332275,12.25,-0.034258675,-0.025298111,112.25,4.1822958e-07,-8.687521e-07,0,0,0
2008000,1852943,0,0,0.018096924,12.25,-0.018145476,-0.02438009,62.249996,2.1157159e-07,-7.8440473e-07,0,0,0
2080000,1923874,0,0,0.037261963,12.25,-0.037481643,-0.026007794,62.249996,9.0273005e-07,-7.991052e-07,0,0,0
2152000,1997449,0,0,-0.068115234,12.25,0.0676939,-0.013988265,62.249996,2.9445553e-06,-3.1888936e-07,0,0,0
2224000,2069670,0,0,0.040100098,12.25,-0.04051065,-0.017335702,45.583332,1.4400991e-06,-4.6039918e-07,0,0,0
2296000,2141871,0,0,0.03591919,12.25,-0.03642713,-0.019744681,45.583332,1.1644044e-06,-5.492314e-07,0,0,0
2368000,2214056,0,0,0.057434082,12.25,-0.058142588,-0.024588836,45.583332,2.9664884e-06,-8.541847e-07,0,0,0
2440000,2286224,0,0,0.01776123,12.25,-0.018558687,-0.02382825,37.250027,3.6985193e-07,-7.930954e-07,0,0,0
2512000,2358377,0,0,0.05340576,12.25,-0.054707512,-0.027722368,37.25006,3.2138598e-06,-1.0983729e-06,0,0,0
2584000,2429184,0,0,0.09408569,12.25,-0.09574445,-0.036160316,37.25013,9.843725e-06,-2.1832093e-06,0,0,0
2648000,2490605,0,0,0.071899414,12.25,-0.07347999,-0.04024319,32.250137,6.6967887e-06,-2.6770072e-06,0,0,0
2704000,2550725,0,0,-0.045654297,12.25,0.043741602,-0.031228755,32.250214,2.373104e-06,-2.1349579e-06,0,0,0
2776000,2622836,0,0,-0.03741455,12.25,0.03511636,-0.02286637,32.250343,1.5294829e-06,-1.6730781e-06,0,0,0
2848000,2694936,0,0,-488.11755,12.25,0.010498047,-0.018661555,13.250001,3.3270635e-07,-1.4202953e-06,0,0,0
2920000,2767028,0,0,-488.17593,12.25,0.068603516,-0.0076648733,13.250029,1.4208098e-05,5.4911175e-07,0,0,0
2992000,2839112,0,0,-488.08078,12.25,-0.027008057,-0.010102162,13.250101,2.2020515e-06,2.0245835e-07,0,0,0
3064000,2911189,0,0,-488.11768,12.25,0.009490967,-0.007633589,13.250202,2.719308e-07,2.112113e-07,0,0,0
3136000,2983259,2984000,0,-488.05664,12.25,-0.052215576,-0.013250077,13.25037,8.230612e-06,-8.5229885e-07,0,0,0
3208000,3055323,3056000,0,-488.1,12.251399,-0.009429932,-0.012768846,13.252001,2.6840812e-07,-7.78745e-07,0,0,1
3280000,3127382,3128000,0,-488.1141,12.252783,0.0063476562,-0.01036085,12.733408,1.2657331e-07,-6.647072e-07,0,0,1
3352000,3199436,3200000,0,-488.07184,12.254151,-0.03643799,-0.0136454385,12.716825,4.1762846e-06,-1.1070136e-06,0,0,1
3424000,3270150,3272000,0,-488.22208,12.2555065,0.11508179,0.0023044366,12.701601,4.1707553e-05,4.197901e-06,0,0,1
3496000,3343529,3344000,0,-488.09998,12.256847,-0.011230469,0.0005722875,12.687602,3.976273e-07,3.6097817e-06,0,0,1
3568000,3415570,3416000,0,-488.11877,12.258177,0.007659912,0.0014648801,12.674714,1.8516947e-07,3.178497e-06,0,0,1
3640000,3487607,3488000,0,-488.14224,12.259495,0.034088135,0.0055731484,12.546887,3.7045074e-06,3.2447379e-06,0,0,1
3712000,3559641,3560000,0,-488.08118,12.260801,-0.027770996,0.0013742507,12.542033,2.4596593e-06,2.5264055e-06,0,0,1
3784000,3631672,3632000,0,-488.11407,12.262097,0.0056152344,0.0019082817,12.537548,1.0059657e-07,2.220944e-06,0,0,1
3856000,3703701,3704000,0,-488.1704,12.263383,0.061553955,0.0094187725,12.533419,1.2092118e-05,3.463907e-06,0,0,1
3928000,3775726,3776000,0,-488.14215,12.26466,0.03149414,0.012198334,12.529634,3.1665118e-06,3.4264613e-06,0,0,1
4000000,3847750,3848000,0,-488.04352,12.265927,-0.06829834,0.0020629326,12.526185,1.4895719e-05,1.1195009e-06,0,0,1
4072000,3919772,3920000,0,-488.0671,12.267185,-0.041534424,-0.0034263115,12.470853,5.533249e-06,2.818682e-07,0,0,1
4144000,3991792,3992000,0,-488.07654,12.268435,-0.031951904,-0.0070178173,12.469688,3.2748987e-06,-1.6594544e-07,0,0,1
4216000,4063810,4064000,0,-488.0625,12.269675,-0.046173096,-0.01194753,12.468746,6.8393556e-06,-1.0061386e-06,0,0,1
4288000,4135826,4136000,0,-488.07196,12.270908,-0.0368042,-0.01507695,12.468029,4.345672e-06,-1.4265812e-06,0,0,1
4360000,4207841,4208000,0,-488.1143,12.272133,0.005279541,-0.012514128,12.467538,8.942761e-08,-1.2357202e-06,0,0,1
4432000,4279855,4280000,0,-488.17062,12.27335,0.06121826,-0.0032315506,12.466646,1.2024647e-05,4.337005e-07,0,0,1
4504000,4351868,4352000,0,-488.01556,12.274559,-0.09414673,-0.014677225,12.435827,2.8509905e-05,-3.2101252e-06,0,0,1
4576000,4423879,4424000,0,-488.12375,12.27576,0.014587402,-0.010993073,12.436521,6.84411e-07,-2.7198384e-06,0,0,1
4648000,4494556,4496000,0,-488.07205,12.276953,-0.038116455,-0.01435224,12.437423,4.6725568e-06,-2.961678e-06,0,0,1
4720000,4566564,4568000,0,-488.1003,12.278139,-0.0101623535,-0.01382479,12.4385395,3.3210787e-07,-2.6306511e-06,0,0,1
4784000,4627905,4632000,0,-488.0299,12.279179,-0.08099365,-0.021164723,12.439476,2.1094045e-05,-4.6482537e-06,0,0,1
4840000,4687913,4688000,0,-488.10992,12.280075,0.00079345703,-0.018811781,12.417103,2.0280868e-09,-4.1499497e-06,0,0,1
4912000,4759921,4760000,0,-488.12872,12.28124,0.019317627,-0.01401181,12.418822,1.201952e-06,-3.4762184e-06,0,0,1
4984000,4831928,4832000,0,-488.13803,12.282398,0.027954102,-0.008728938,12.420753,2.5165361e-06,-2.7218216e-06,0,0,1
5056000,4903934,4904000,0,-488.18494,12.283548,0.074035645,0.0016897405,12.422901,1.7648941e-05,-1.5748287e-07,0,0,1
5128000,4974605,4976000,0,-488.16592,12.284691,0.05392456,0.008158418,12.425275,9.361107e-06,1.0212842e-06,0,0,1
5192000,5035943,5040000,0,-487.92633,12.285689,-0.18652344,-0.013114675,12.427387,0.00011198167,-1.1326669e-05,0,0,1
5248000,5095948,5096000,0,-488.12408,12.286544,0.015625,-0.010035194,12.409574,7.869428e-07,-1.0028685e-05,0,0,1
5320000,5167953,5168000,0,-488.19913,12.287666,0.09051514,0.002622258,12.412251,2.6402915e-05,-5.4426114e-06,0,0,1
5392000,5239957,5240000,0,-488.10965,12.28878,0.00012207031,0.0023075338,12.415153,4.8009596e-11,-4.757488e-06,0,0,1
5464000,5311961,5312000,0,-488.12375,12.289886,0.014221191,0.0038072276,12.418283,6.5143394e-07,-4.0766117e-06,0,0,1
5536000,5383964,5384000,0,-488.03918,12.290985,-0.070495605,-0.0055459165,12.421649,1.6003127e-05,-5.577906e-06,0,0,1
5608000,5455967,5456000,0,-488.09106,12.292076,-0.0178833,-0.0070989304,12.425254,1.0295563e-06,-5.0053654e-06,0,0,1
5680000,5527970,5528000,0,-488.16623,12.293159,0.053588867,0.00054037105,12.410038,9.2562705e-06,-3.2101293e-06,0,0,1
5752000,5599973,5600000,0,-488.1191,12.294232,0.0056762695,0.0011868713,12.413569,1.0382199e-07,-2.7929734e-06,0,0,1
5824000,5671975,5672000,0,-488.0956,12.295299,-0.018035889,-0.0012328358,12.417331,1.0478686e-06,-2.5733045e-06,0,0,1
5896000,5743977,5744000,0,-488.1708,12.296356,0.057281494,0.0061327834,12.421326,1.0566246e-05,-9.19335e-07,0,0,1
5968000,5815979,5816000,0,-488.06732,12.297405,-0.04699707,-0.0005550529,12.425558,7.110263e-06,-1.6986316e-06,0,0,1
6040000,5887981,5888000,0,-488.1238,12.298447,0.007598877,0.00047134096,12.410785,1.8610565e-07,-1.4613862e-06,0,0,1
6112000,5959983,5960000,0,-488.0017,12.2994795,-0.1149292,-0.014054954,12.414777,4.2558062e-05,-6.63452e-06,0,0,1
6184000,6031984,6032000,0,-488.18997,12.300503,0.07385254,-0.0029895399,12.418991,1.756728e-05,-3.5881023e-06,0,0,1
6256000,6103986,6104000,0,-488.0958,12.301518,-0.021575928,-0.0053291423,12.423432,1.4988472e-06,-3.3251129e-06,0,0,1
6328000,6175987,6176000,0,-488.13812,12.3025255,0.020599365,-0.002065374,12.428101,1.3657238e-06,-2.7346507e-06,0,0,1
6400000,6247988,6248000,0,-488.15213,12.303523,0.033843994,0.0024547419,12.432997,3.685084e-06,-1.9265624e-06,0,0,1
6472000,6319989,6320000,0,-488.1191,12.304513,-0.0013122559,0.0019805685,12.417465,5.5470752e-09,-1.6847533e-06,0,0,1
6544000,6391990,6392000,0,-488.03928,12.305493,-0.08200073,-0.008590634,12.421976,2.1652337e-05,-4.198186e-06,0,0,1
6616000,6462657,6464000,0,-488.0819,12.306464,-0.03942871,-0.012409383,12.426699,5.004139e-06,-4.297989e-06,0,0,1
6688000,6535992,6536000,0,-488.176,12.307427,0.054229736,-0.0038856063,12.431635,9.462518e-06,-2.5378895e-06,0,0,1
6760000,6607993,6608000,0,-488.1241,12.308381,0.00091552734,-0.0032812604,12.436782,2.695843e-09,-2.2180916e-06,0,0,1
6832000,6679993,6608000,0,-488.12897,12.309325,0.0,-0.0028682346,12.434787,0.0,-1.9388913e-06,0,0,0
6904000,6751994,6608000,0,-488.833,12.309042,0.7056885,0.086321816,12.425298,0.0016031687,0.00020010509,0,0,0
6976000,6823995,6608000,0,-488.75946,12.309042,0.6308899,0.15486968,12.430397,0.0012808024,0.0003361386,0,0,0
7048000,6895995,6608000,0,-488.6639,12.309042,0.5339966,0.20259194,12.435827,0.0009171962,0.0004092787,0,0,0
7120000,6967996,6608000,0,-488.59076,12.309042,0.45947266,0.23492697,12.441601,0.00067873945,0.00044319726,0,0,0
7192000,7039996,6608000,0,-488.59674,12.309042,0.4642334,0.26379073,12.447728,0.0006925365,0.0004745826,0,0,0
7264000,7111996,6608000,0,-488.49,12.309042,0.36709595,0.2767942,12.428977,0.0004336944,0.00046943582,0,0,0
7336000,7183997,6608000,0,-488.52597,12.309042,0.40222168,0.29258245,12.434324,0.0005204377,0.00047585572,0,0,0
7408000,7255997,6608000,0,-488.41476,12.309042,0.29019165,0.2922815,12.439991,0.00027077572,0.00045004147,0,0,0
7480000,7327997,6608000,0,-488.47955,12.309042,0.3541565,0.30006996,12.445988,0.00040310767,0.0004441337,0,0,0
7552000,7399998,6608000,0,-488.3731,12.309042,0.2468872,0.29337555,12.452325,0.0001957973,0.0004128742,0,0,0
7624000,7470664,6608000,0,-488.3746,12.309042,0.2475586,0.287702,12.459014,0.00019675797,0.00038611234,0,0,0
7696000,7543998,6608000,0,-488.35236,12.309042,0.22702026,0.2799403,12.437251,0.00016575432,0.0003579268,0,0,0
7768000,7615998,6608000,0,-488.29663,12.309042,0.17050171,0.2661648,12.443015,9.345269e-05,0.00032463635,0,0,0
7840000,7687999,6608000,0,-488.259,12.309042,0.13232422,0.24931754,12.449092,5.6260164e-05,0.0002908543,0,0,0
7912000,7759999,6608000,0,-488.30972,12.309042,0.18249512,0.24090633,12.455491,0.000106955136,0.00026770617,0,0,0
7984000,7831999,6608000,0,-488.25418,12.309042,0.1262207,0.22647038,12.462222,5.1135878e-05,0.00024044557,0,0,0
8056000,7903999,6608000,0,-488.21722,12.309042,0.096710205,0.21013694,12.439134,3.0075613e-05,0.00021396544,0,0,0
8128000,7975999,6608000,0,-488.18246,12.309042,0.061676025,0.19144955,12.444886,1.222649e-05,0.00018857172,0,0,0
8200000,8047999,6608000,0,-488.23587,12.309042,0.11468506,0.1817869,12.4509325,4.2254385e-05,0.00017015415,0,0,0
8272000,8119999,8120000,0,-488.21237,12.309042,0.09063721,0.1703135,12.457281,2.6378479e-05,0.00015205651,0,0,0
8344000,8191999,8192000,0,-488.2179,12.31026,0.0954895,0.16089511,12.465157,2.9259945e-05,0.0001365996,0,0,1
8416000,8264000,8264000,0,-488.22214,12.311185,0.09790039,0.1529656,12.471048,3.0741558e-05,0.00012327464,0,0,1
8488000,8334666,8336000,0,-488.29205,12.312102,0.18014526,0.15633129,12.445984,0.00010429811,0.000120924764,0,0,1
8560000,8408000,8408000,0,-488.20667,12.313009,0.09274292,0.14819783,12.451206,2.7631859e-05,0.00010899186,0,0,1
8632000,8480000,8480000,0,-488.21558,12.313908,0.100616455,0.14220856,12.456534,3.250879e-05,9.936462e-05,0,0,1
8704000,8552000,8552000,0,-488.2714,12.314796,0.15527344,0.1438531,12.461963,7.7386976e-05,9.65982e-05,0,0,1
8776000,8624000,8624000,0,-488.24713,12.315677,0.12918091,0.14200625,12.467488,5.3539916e-05,9.117828e-05,0,0,1
8848000,8694666,8696000,0,-488.2183,12.316547,0.10671997,0.13763672,12.444816,3.6606896e-05,8.442066e-05,0,0,1
8920000,8766666,8768000,0,-488.17545,12.317409,0.06298828,0.12824042,12.44974,1.27473295e-05,7.539884e-05,0,0,1
8992000,8838666,8840000,0,-488.2596,12.31826,0.146698,0.13056375,12.45476,6.911511e-05,7.460788e-05,0,0,1
9064000,8912000,8912000,0,-488.2776,12.319103,0.16333008,0.13475482,12.45987,8.564042e-05,7.601903e-05,0,0,1
9136000,8984000,8984000,0,-488.19687,12.319937,0.0809021,0.12797616,12.465067,2.1003176e-05,6.9093956e-05,0,0,1
9208000,9056000,9056000,0,-488.24338,12.320762,0.12637329,0.1277744,12.4703455,5.122619e-05,6.684487e-05,0,0,1
9280000,9126666,9128000,0,-488.30838,12.321577,0.19036865,0.1355255,12.448767,0.00011644598,7.2987015e-05,0,0,1
9352000,9200000,9200000,0,-488.24625,12.322382,0.1260376,0.13431191,12.453499,5.1023337e-05,7.017769e-05,0,0,1
9424000,9270666,9272000,0,-488.2408,12.323178,0.119140625,0.13243324,12.458314,4.5574347e-05,6.713104e-05,0,0,1
9496000,9344000,9344000,0,-488.2542,12.323965,0.13122559,0.13227877,12.463207,5.526717e-05,6.561356e-05,0,0,1
9568000,9416000,9416000,0,-488.18768,12.324743,0.06323242,0.12358762,12.468175,1.2827344e-05,5.896914e-05,0,0,1
9640000,9486666,9488000,0,-488.26245,12.325512,0.14859009,0.1266837,12.448263,7.094649e-05,6.0452305e-05,0,0,1
9712000,9560000,9560000,0,-488.13007,12.326271,0.015014648,0.11240033,12.452734,7.2414514e-07,5.2812597e-05,0,0,1
9784000,9632000,9632000,0,-488.2098,12.327021,0.094940186,0.11020255,12.45728,2.8942557e-05,4.9807975e-05,0,0,1
9856000,9704000,9704000,0,-488.21393,12.327761,0.09832764,0.10870781,12.461897,3.1033233e-05,4.7444722e-05,0,0,1
9928000,9776000,9776000,0,-488.27435,12.328493,0.15795898,0.11490726,12.466583,8.0057354e-05,5.154981e-05,0,0,1
10000000,9848000,9848000,0,-488.2921,12.329215,0.17425537,0.12237765,12.471332,9.739115e-05,5.732005e-05,0,0,1
10072000,9920000,9920000,0,-488.22998,12.329929,0.10952759,0.12076016,12.452139,3.8535687e-05,5.4955584e-05,0,0,1
10144000,9992000,9992000,0,-488.1917,12.330633,0.07046509,0.11442931,12.456432,1.5944626e-05,5.0045113e-05,0,0,1
10216000,10064000,10064000,0,-488.19125,12.331327,0.06954956,0.10878011,12.460792,1.5527557e-05,4.5700246e-05,0,0,1
10288000,10136000,10136000,0,-488.2002,12.332014,0.07778931,0.10487917,12.465214,1.9417803e-05,4.2391966e-05,0,0,1
10360000,10208000,10208000,0,-488.1715,12.332691,0.04827881,0.09775465,12.469694,7.4768263e-06,3.7997055e-05,0,0,1
10432000,10280000,10280000,0,-488.2557,12.33336,0.13192749,0.10205612,12.467598,5.5840304e-05,4.024306e-05,0,0,1
10504000,10352000,10352000,0,-488.15622,12.334019,0.033843994,0.093469985,12.4557705,3.6783465e-06,3.5640507e-05,0,0,1
10576000,10424000,10424000,0,-488.16537,12.334669,0.04269409,0.087078616,12.459891,5.85169e-06,3.1890864e-05,0,0,1
10648000,10496000,10496000,0,-488.14163,12.33531,0.01852417,0.07844938,12.464068,1.101229e-06,2.8015245e-05,0,0,1
10720000,10566666,10568000,0,-488.17905,12.335943,0.055755615,0.075639196,12.468302,9.973094e-06,2.5781072e-05,0,0,1
10792000,10640000,10640000,0,-488.22092,12.336568,0.09713745,0.078389,12.472587,3.0260553e-05,2.6354033e-05,0,0,1
10864000,10712000,10712000,0,-488.13104,12.337184,0.009765625,0.06975109,12.455221,3.0627294e-07,2.3075294e-05,0,0,1
10936000,10782666,10784000,0,-488.22018,12.3377905,0.098846436,0.07335399,12.45912,3.1368567e-05,2.4102255e-05,0,0,1
11008000,10856000,10856000,0,-488.23358,12.338388,0.11126709,0.07820338,12.463072,3.9734558e-05,2.6101752e-05,0,0,1
11080000,10928000,10928000,0,-488.2187,12.338978,0.09539795,0.08036773,12.467075,2.9199371e-05,2.6491662e-05,0,0,1
11152000,11000000,11000000,0,-488.18515,12.33956,0.06109619,0.07794194,12.4711275,1.1972436e-05,2.4664067e-05,0,0,1
11224000,11072000,11072000,0,-488.20816,12.340134,0.08358765,0.07865259,12.475225,2.2402462e-05,2.437939e-05,0,0,1
11296000,11144000,11144000,0,-488.20758,12.340699,0.08578491,0.07955036,12.458427,2.3627545e-05,2.428475e-05,0,0,1
11368000,11216000,11216000,0,-488.22104,12.341255,0.09829712,0.081910096,12.462171,3.1013293e-05,2.51317e-05,0,0,1
11440000,11288000,11288000,0,-488.17337,12.3418045,0.049438477,0.07782276,12.465963,7.8426765e-06,2.2955459e-05,0,0,1
11512000,11360000,11360000,0,-488.25284,12.342345,0.12841797,0.08419139,12.469801,5.289956e-05,2.6724647e-05,0,0,1
11584000,11432000,11432000,0,-488.14386,12.342877,0.018127441,0.07587565,12.473681,1.0537518e-06,2.3493345e-05,0,0,1
11656000,11504000,11504000,0,-488.15784,12.343403,0.03829956,0.07114579,12.457778,4.709849e-06,2.112899e-05,0,0,1
11728000,11576000,11576000,0,-488.18573,12.34392,0.065826416,0.07047622,12.4613285,1.3909005e-05,2.022018e-05,0,0,1
11800000,11648000,11648000,0,-488.24625,12.344428,0.12573242,0.077431545,12.464925,5.0730006e-05,2.4060579e-05,0,0,1
11872000,11720000,11720000,0,-488.17487,12.34493,0.053131104,0.074372746,12.468564,9.0561e-06,2.2171904e-05,0,0,1
11944000,11792000,11792000,0,-488.22614,12.345424,0.103881836,0.07808717,12.472245,3.4609442e-05,2.3737468e-05,0,0,1
12016000,11864000,11864000,0,-488.19247,12.345911,0.069122314,0.07695873,12.4759655,1.5318716e-05,2.2677765e-05,0,0,1
12088000,11936000,11936000,0,-488.27173,12.34639,0.15222168,0.08643239,12.460521,7.438353e-05,2.9186183e-05,0,0,1
12160000,12008000,12008000,0,-488.12503,12.346861,0.0039978027,0.07605601,12.463935,5.1291757e-08,2.5518855e-05,0,0,1
12232000,12080000,12080000,0,-488.14377,12.347325,0.02255249,0.069321305,12.467392,1.6318241e-06,2.2512097e-05,0,0,1
12304000,12152000,12152000,0,-488.21872,12.347782,0.097076416,0.07281496,12.470888,3.0226653e-05,2.348316e-05,0,0,1
12376000,12224000,12224000,0,-488.10526,12.348232,-0.017608643,0.061432965,12.474422,9.942402e-07,2.0402089e-05,0,0,1
12448000,12296000,12296000,0,-488.2087,12.348676,0.08984375,0.06500915,12.459729,2.5913563e-05,2.109584e-05,0,0,1
12520000,12368000,12368000,0,-488.13754,12.349111,0.0178833,0.059077222,12.462976,1.02644e-06,1.8569623e-05,0,0,1
12592000,12438666,12440000,0,-488.1844,12.34954,0.064575195,0.05975804,12.466265,1.3379969e-05,1.7926985e-05,0,0,1
12664000,12512000,12512000,0,-488.21674,12.349961,0.09616089,0.064414255,12.46959,2.9662295e-05,1.9428024e-05,0,0,1
12736000,12584000,12584000,0,-488.21597,12.350377,0.09420776,0.06816449,12.472953,2.8461915e-05,2.0565156e-05,0,0,1
12808000,12656000,12656000,0,-488.22458,12.350786,0.101623535,0.07237612,12.47635,3.311014e-05,2.2144244e-05,0,0,1
12880000,12728000,12728000,0,-488.17212,12.351189,0.05001831,0.06956185,12.462037,8.030248e-06,2.0367657e-05,0,0,1
12952000,12800000,12800000,0,-488.1295,12.3515835,0.0062561035,0.061593294,12.465168,1.2559423e-07,1.7819706e-05,0,0,1
13024000,12872000,12872000,0,-488.20923,12.351973,0.085235596,0.06456925,12.468337,2.3307379e-05,1.8510462e-05,0,0,1
13096000,12944000,12944000,0,-488.26956,12.352356,0.14419556,0.07459214,12.471542,6.668736e-05,2.4574687e-05,0,0,1
13168000,13016000,13016000,0,-488.16507,12.352733,0.037506104,0.06992397,12.47478,4.5105653e-06,2.2049133e-05,0,0,1
13240000,13086666,13088000,0,-488.18356,12.353103,0.057769775,0.068418905,12.461108,1.0712842e-05,2.0645351e-05,0,0,1
13304000,13148000,13152000,0,-488.23,12.353332,0.102996826,0.07219705,12.463559,3.404596e-05,2.2109565e-05,0,0,1
13360000,13208000,13208000,0,-488.1916,12.353421,0.0630188,0.07121366,12.46549,1.2743562e-05,2.1106065e-05,0,0,1
13432000,13280000,13280000,0,-488.21924,12.35378,0.08908081,0.07346267,12.468536,2.545733e-05,2.1653777e-05,0,0,1
13504000,13352000,13352000,0,-488.242,12.354133,0.110076904,0.07807146,12.471618,3.88624e-05,2.3819897e-05,0,0,1
13576000,13422666,13424000,0,-488.18942,12.35448,0.055358887,0.07525895,12.4747305,9.8266055e-06,2.2087097e-05,0,0,1
13648000,13496000,13496000,0,-488.24063,12.354822,0.106658936,0.07927526,12.461555,3.651592e-05,2.3932658e-05,0,0,1
13720000,13564000,13568000,0,-488.20215,12.355157,0.06616211,0.077705376,12.464433,1.40477305e-05,2.2749251e-05,0,0,1
13784000,13628000,13632000,0,-488.14996,12.355351,0.012420654,0.07029718,12.466812,4.949867e-07,2.0223944e-05,0,0,1
13840000,13688000,13688000,0,-488.16864,12.355408,0.03012085,0.06599257,12.468672,2.9105445e-06,1.8368937e-05,0,0,1
13912000,13760000,13760000,0,-488.24817,12.355733,0.10827637,0.071315005,12.471642,3.7601374e-05,2.0789803e-05,0,0,1
13984000,13832000,13832000,0,-488.20502,12.356053,0.0630188,0.070270725,12.474642,1.2734214e-05,1.9775813e-05,0,0,1
14056000,13902666,13904000,0,-488.2092,12.356369,0.07247925,0.070544206,12.461912,1.6861752e-05,1.9414962e-05,0,0,1
14128000,13976000,13976000,0,-488.12402,12.356678,-0.014312744,0.059690323,12.464692,6.5739175e-07,1.6847547e-05,0,0,1
14200000,14048000,14048000,0,-488.0631,12.356981,-0.075927734,0.04261952,12.467505,1.849615e-05,1.239869e-05,0,0,1
14272000,14120000,14120000,0,-488.19995,12.357281,0.060760498,0.044903,12.470353,1.1841968e-05,1.2328614e-05,0,0,1
14344000,14192000,14192000,0,-488.19473,12.357574,0.0541687,0.046069313,12.47323,9.409746e-06,1.1961204e-05,0,0,1
14416000,14264000,14264000,0,-488.17548,12.357863,0.033599854,0.044499733,12.476138,3.6195502e-06,1.0911206e-05,0,0,1
14488000,14336000,14336000,0,-488.2456,12.358148,0.10522461,0.052143425,12.463648,3.5534442e-05,1.4010634e-05,0,0,1
14560000,14408000,14408000,0,-488.22592,12.358426,0.08383179,0.056132168,12.466349,2.2549564e-05,1.5085464e-05,0,0,1
14632000,14480000,14480000,0,-488.2252,12.3587,0.08139038,0.059311524,12.469082,2.1250624e-05,1.5861498e-05,0,0,1
14704000,14552000,14552000,0,-488.2386,12.358969,0.0932312,0.06358113,12.471846,2.7877371e-05,1.7373986e-05,0,0,1
14776000,14624000,14624000,0,-488.13916,12.359234,-0.008117676,0.05455611,12.474641,2.1129797e-07,1.51604545e-05,0,0,1
14848000,14696000,14696000,0,-488.19556,12.359494,0.05609131,0.05474935,12.462605,1.00981615e-05,1.45232425e-05,0,0,1
14920000,14768000,14768000,0,-488.2561,12.359749,0.115356445,0.062378217,12.465201,4.2701628e-05,1.8070172e-05,0,0,1
14992000,14840000,14840000,0,-488.12833,12.359999,-0.014129639,0.05274786,12.467828,6.4051795e-07,1.571498e-05,0,0,1
15064000,14912000,14912000,0,-488.11905,12.360246,-0.023742676,0.043119684,12.470489,1.8081558e-06,1.3509271e-05,0,0,1
15136000,14984000,14984000,0,-488.0958,12.360488,-0.047058105,0.031768635,12.473178,7.1015274e-06,1.0914906e-05,0,0,1
15208000,15056000,15056000,0,-488.05865,12.360725,-0.084198,0.017171439,12.475895,2.2729602e-05,6.679933e-06,0,0,1
15280000,15128000,15128000,0,-488.0688,12.36096,-0.07080078,0.0060980124,12.464066,1.608705e-05,3.814159e-06,0,0,1
15352000,15200000,15200000,0,-488.14923,12.361189,0.0099487305,0.0065827183,12.466596,3.1757585e-07,3.3740298e-06,0,0,1
15424000,15272000,15272000,0,-488.12567,12.361414,-0.013977051,0.0039947755,12.469157,6.266917e-07,2.8704426e-06,0,0,1
15496000,15344000,15344000,0,-488.20563,12.361635,0.065826416,0.011777779,12.471749,1.3897384e-05,4.258449e-06,0,0,1
15568000,15416000,15416000,0,-488.19565,12.361853,0.054992676,0.017217416,12.47437,9.697305e-06,4.94306e-06,0,0,1
15640000,15488000,15488000,0,-488.2139,12.362066,0.07647705,0.02467667,12.462941,1.877162e-05,6.683718e-06,0,0,1
15712000,15560000,15560000,0,-488.21323,12.362275,0.07473755,0.030978039,12.465381,1.7923885e-05,8.098564e-06,0,0,1
15784000,15632000,15632000,0,-488.1797,12.362481,0.040039062,0.03211859,12.467853,5.143232e-06,7.726564e-06,0,0,1
15856000,15704000,15704000,0,-488.15585,12.362683,0.015319824,0.030004058,12.470355,7.528158e-07,6.8487498e-06,0,0,1
15928000,15776000,15776000,0,-488.18387,12.362882,0.042388916,0.03156299,12.472886,5.762324e-06,6.711997e-06,0,0,1
16000000,15848000,15848000,0,-488.21637,12.363077,0.073791504,0.036878467,12.475447,1.745889e-05,8.064752e-06,0,0,1
16072000,15920000,15920000,0,-488.15936,12.363269,0.017974854,0.03449899,12.464189,1.0368757e-06,7.1801246e-06,0,0,1
16144000,15992000,15992000,0,-488.2625,12.363456,0.12063599,0.04534141,12.466576,4.669459e-05,1.2153972e-05,0,0,1
16216000,16064000,16064000,0,-488.10178,12.363641,-0.04147339,0.034413673,12.468995,5.5178207e-06,9.929551e-06,0,0,1
16288000,16136000,16136000,0,-488.19604,12.363821,0.05279541,0.03672746,12.471442,8.939962e-06,9.804988e-06,0,0,1
16360000,16208000,16208000,0,-488.2613,12.363999,0.11730957,0.04687066,12.47392,4.4128985e-05,1.412549e-05,0,0,1
16432000,16280000,16280000,0,-488.26022,12.364174,0.115356445,0.055491246,12.473856,4.2672e-05,1.7718758e-05,0,0,1
16504000,16352000,16352000,0,-488.18402,12.3643465,0.040802002,0.05364225,12.465326,5.3421895e-06,1.6160868e-05,0,0,1
16576000,16422666,16424000,0,-488.12732,12.364514,-0.01651001,0.044955242,12.467668,8.745194e-07,1.4051363e-05,0,0,1
16640000,16484000,16488000,0,-488.11807,12.364544,-0.025878906,0.037215568,12.469559,2.1483288e-06,1.2281308e-05,0,0,1
16696000,16544000,16544000,0,-488.12772,12.364438,-0.016052246,0.031508304,12.470985,8.2647716e-07,1.0876903e-05,0,0,1
16768000,16616000,16616000,0,-488.23117,12.364605,0.08734131,0.038536236,12.473408,2.4463256e-05,1.2587073e-05,0,0,1
16840000,16688000,16688000,0,-488.1787,12.364768,0.037872314,0.038452666,12.462776,4.603508e-06,1.15821485e-05,0,0,1
16912000,16758666,16760000,0,-488.18774,12.364928,0.046051025,0.039393578,12.465038,6.8052645e-06,1.0990623e-05,0,0,1
16976000,16820000,16824000,0,-488.25305,12.36495,0.11050415,0.047163453,12.466865,3.9179595e-05,1.4070683e-05,0,0,1
17032000,16880000,16880000,0,-488.1863,12.364837,0.042633057,0.046678055,12.468241,5.8310634e-06,1.3187867e-05,0,0,1
17104000,16952000,16952000,0,-488.1812,12.364996,0.036895752,0.045446716,12.470586,4.3664236e-06,1.2077476e-05,0,0,1
17176000,17024000,17024000,0,-488.1386,12.365152,-0.006286621,0.038934827,12.472959,1.2674332e-07,1.054128e-05,0,0,1
17248000,17096000,17096000,0,-488.14807,12.365306,0.006225586,0.03481758,12.46257,1.2439783e-07,9.230064e-06,0,0,1
17320000,17168000,17168000,0,-488.19498,12.365456,0.05279541,0.037080523,12.464789,8.944733e-06,9.194148e-06,0,0,1
17392000,17240000,17240000,0,-488.1851,12.365603,0.042053223,0.037706457,12.467039,5.6740773e-06,8.7510625e-06,0,0,1
17464000,17312000,17312000,0,-488.20346,12.365748,0.05984497,0.040493123,12.469318,1.1488744e-05,9.0956655e-06,0,0,1
17536000,17382666,17384000,0,-488.18414,12.3658905,0.040039062,0.040436897,12.471626,5.141676e-06,8.60604e-06,0,0,1
17608000,17454666,17456000,0,-488.2542,12.366031,0.10992432,0.049183566,12.473962,3.8747447e-05,1.24000635e-05,0,0,1
17672000,17516000,17520000,0,-488.17804,12.366033,0.036315918,0.047777586,12.463222,4.232761e-06,1.15076655e-05,0,0,1
17728000,17576000,17576000,0,-488.2669,12.365899,0.12512207,0.056064494,12.464506,5.0240364e-05,1.5657597e-05,0,0,1
17800000,17648000,17648000,0,-488.1202,12.366037,-0.022277832,0.046203222,12.466717,1.5924059e-06,1.34862685e-05,0,0,1
17872000,17720000,17720000,0,-488.12512,12.366175,-0.01675415,0.03827852,12.468958,9.004812e-07,1.1675349e-05,0,0,1
17944000,17792000,17792000,0,-488.12057,12.366309,-0.020599365,0.030867318,12.471227,1.3610012e-06,1.003441e-05,0,0,1
18016000,17862666,17864000,0,-488.10666,12.366441,-0.03378296,0.022861626,12.473523,3.659875e-06,8.338636e-06,0,0,1
18080000,17924000,17928000,0,-488.2713,12.366436,0.13555908,0.03517548,12.462994,5.8978658e-05,1.3871802e-05,0,0,1
18136000,17984000,17984000,0,-488.15738,12.366294,0.021026611,0.03365953,12.464251,1.4188366e-06,1.2537556e-05,0,0,1
18208000,18056000,18056000,0,-488.19943,12.3664255,0.06347656,0.03741272,12.466428,1.2928399e-05,1.2586754e-05,0,0,1
18280000,18125333,18128000,0,-488.1425,12.366555,0.0065612793,0.033655655,12.468635,1.3810778e-07,1.1070766e-05,0,0,1
18352000,18200000,18200000,0,-488.2598,12.366683,0.12435913,0.045440838,12.47087,4.9604216e-05,1.607745e-05,0,0,1
18424000,18272000,18272000,0,-488.17883,12.366808,0.042907715,0.045121983,12.473132,5.904121e-06,1.4796892e-05,0,0,1
18496000,18344000,18344000,0,-488.1174,12.366931,-0.01889038,0.037064485,12.463226,1.145278e-06,1.2790186e-05,0,0,1
18568000,18416000,18416000,0,-488.08942,12.36705,-0.0463562,0.02656398,12.465349,6.8955865e-06,1.0312257e-05,0,0,1
18640000,18488000,18488000,0,-488.16028,12.367168,0.024963379,0.026362505,12.467504,1.9993427e-06,9.265876e-06,0,0,1
18712000,18560000,18560000,0,-488.11307,12.367284,-0.022460938,0.020216897,12.469685,1.6183046e-06,7.895839e-06,0,0,1
18784000,18632000,18632000,0,-488.12268,12.367397,-0.012664795,0.016077943,12.471894,5.1442714e-07,6.837204e-06,0,0,1
18856000,18704000,18704000,0,-488.1275,12.367509,-0.009429932,0.012867162,12.462203,2.854186e-07,5.94065e-06,0,0,1
18928000,18776000,18776000,0,-488.2027,12.367618,0.06576538,0.019525679,12.464275,1.3879942e-05,6.9400016e-06,0,0,1
19000000,18848000,18848000,0,-488.18802,12.367724,0.050567627,0.023433056,12.466378,8.20474e-06,7.0991996e-06,0,0,1
19072000,18920000,18920000,0,-488.2157,12.367829,0.07785034,0.030282784,12.46851,1.9443145e-05,8.652983e-06,0,0,1
19144000,18992000,18992000,0,-488.03656,12.367933,-0.101745605,0.013663828,12.470671,3.320485e-05,3.3841648e-06,0,0,1
19216000,19064000,19064000,0,-488.18304,12.368034,0.045837402,0.01771365,12.472857,6.738047e-06,3.8063317e-06,0,0,1
19288000,19136000,19136000,0,-488.13565,12.3681345,0.0031738281,0.015883463,12.46321,3.2329343e-08,3.3312826e-06,0,0,1
19360000,19208000,19208000,0,-488.15442,12.368232,0.021972656,0.016649934,12.465266,1.5492574e-06,3.1069717e-06,0,0,1
19432000,19280000,19280000,0,-488.0509,12.368327,-0.08151245,0.00429383,12.46735,2.1317377e-05,3.2578328e-08,0,0,1
19504000,19352000,19352000,0,-488.11273,12.368421,-0.01876831,0.0013909037,12.469463,1.1299588e-06,-1.1375501e-07,0,0,1
19576000,19424000,19424000,0,-488.19742,12.368513,0.066345215,0.00956697,12.471604,1.41174705e-05,1.6775879e-06,0,0,1
19648000,19496000,19496000,0,-488.178,12.368604,0.051239014,0.014812402,12.462153,8.426911e-06,2.527153e-06,0,0,1
19720000,19566666,19568000,0,-488.26202,12.368691,0.13513184,0.029711649,12.464163,5.8601974e-05,9.47094e-06,0,0,1
19792000,19640000,19640000,0,-488.17624,12.368778,0.04864502,0.032133378,12.466203,7.592811e-06,9.230713e-06,0,0,1
19864000,19712000,19712000,0,-488.1288,12.368863,0.0011291504,0.02823075,12.468271,4.0903205e-09,8.06932e-06,0,0,1
19936000,19782666,19784000,0,-488.09125,12.368946,-0.036010742,0.020275677,12.4703665,4.1595363e-06,6.555011e-06,0,0,1
20000000,19844000,19848000,0,-488.12912,12.368894,0.0026550293,0.01835036,12.4720335,2.2607958e-08,5.84125e-06,0,0,1
20056000,19904000,19904000,0,-488.15732,12.368707,0.033935547,0.020020202,12.461808,3.6964825e-06,5.6114536e-06,0,0,1
20128000,19976000,19976000,0,-488.14288,12.368793,0.019622803,0.01997018,12.463799,1.2357527e-06,5.060666e-06,0,0,1
20200000,20048000,20048000,0,-488.1333,12.368877,0.010345459,0.018758677,12.46582,3.4343034e-07,4.466888e-06,0,0,1
20272000,20120000,20120000,0,-488.11914,12.36896,-0.0033874512,0.015971053,12.467869,3.6814072e-08,3.8999888e-06,0,0,1
20344000,20190666,20192000,0,-488.0863,12.369042,-0.035858154,0.009553004,12.469946,4.1245e-06,2.9063103e-06,0,0,1
20416000,20264000,20264000,0,-488.2134,12.3691225,0.09182739,0.020076556,12.47205,2.7043734e-05,5.9936797e-06,0,0,1
20488000,20336000,20336000,0,-488.16086,12.369202,0.042022705,0.022839008,12.462767,5.6677873e-06,5.9526583e-06,0,0,1
20560000,20408000,20408000,0,-488.26376,12.369278,0.1446228,0.038168434,12.464746,6.711971e-05,1.36520075e-05,0,0,1
20632000,20480000,20480000,0,-488.1591,12.369353,0.038848877,0.038254086,12.466756,4.8424317e-06,1.254311e-05,0,0,1
20704000,20552000,20552000,0,-488.11176,12.369428,-0.00869751,0.032344095,12.468793,2.426752e-07,1.0933711e-05,0,0,1
20776000,20624000,20624000,0,-488.11185,12.3695,-0.008270264,0.0272318,12.470858,2.193827e-07,9.529825e-06,0,0,1
20848000,20696000,20696000,0,-488.1354,12.369573,0.014801025,0.025667086,12.461741,7.031773e-07,8.418779e-06,0,0,1
20920000,20766666,20768000,0,-488.17752,12.369641,0.056793213,0.029521458,12.463681,1.0351577e-05,8.6581185e-06,0,0,1
20992000,20840000,20840000,0,-488.10654,12.36971,-0.014709473,0.023863968,12.465652,6.942873e-07,7.461871e-06,0,0,1
21064000,20912000,20912000,0,-488.14896,12.369777,0.027770996,0.024355762,12.467651,2.4743335e-06,6.834069e-06,0,0,1
21136000,20984000,20984000,0,-488.06885,12.3698435,-0.05255127,0.014675157,12.469679,8.858723e-06,4.8587526e-06,0,0,1
21208000,21056000,21056000,0,-488.07877,12.369908,-0.042388916,0.0074922675,12.471732,5.7628567e-06,3.5217668e-06,0,0,1
21280000,21128000,21128000,0,-488.051,12.369972,-0.06915283,-0.0021553664,12.462627,1.5348656e-05,1.1464688e-06,0,0,1
21352000,21198666,21200000,0,-488.216,12.370034,0.096221924,0.010026767,12.4645605,2.9711946e-05,4.683753e-06,0,0,1
21424000,21272000,21272000,0,-488.201,12.370095,0.0803833,0.01902593,12.466523,2.0732243e-05,6.736483e-06,0,0,1
21496000,21344000,21344000,0,-488.15326,12.370154,0.0317688,0.020629928,12.4685135,3.2377768e-06,6.2960867e-06,0,0,1
21568000,21416000,21416000,0,-488.14825,12.3702135,0.026245117,0.021336734,12.470531,2.2093884e-06,5.781677e-06,0,0,1
21640000,21488000,21488000,0,-488.1339,12.370272,0.011962891,0.02015681,12.461582,4.5936625e-07,5.111736e-06,0,0,1
21712000,21560000,21560000,0,-488.09155,12.370328,-0.03048706,0.013782058,12.46348,2.9829898e-06,4.0928194e-06,0,0,1
21784000,21632000,21632000,0,-488.16696,12.370382,0.045135498,0.017728645,12.465406,6.5371737e-06,4.4005005e-06,0,0,1
21856000,21704000,21704000,0,-488.082,12.370437,-0.040161133,0.010441821,12.467362,5.174845e-06,3.1952122e-06,0,0,1
21928000,21776000,21776000,0,-488.04483,12.37049,-0.07684326,-0.0005451124,12.469346,1.894209e-05,4.0869895e-07,0,0,1
22000000,21848000,21848000,0,-488.17233,12.370543,0.05154419,0.006011583,12.471356,8.521298e-06,1.4298652e-06,0,0,1
22072000,21920000,21920000,0,-488.04977,12.370594,-0.06838989,-0.0033536367,12.462412,1.50121095e-05,-6.397539e-07,0,0,1
22144000,21992000,21992000,0,-488.19128,12.370645,0.073913574,0.0063723056,12.464306,1.7532357e-05,1.6476444e-06,0,0,1
22216000,22064000,22064000,0,-488.153,12.370693,0.03543091,0.010030031,12.466227,4.0280006e-06,1.9472695e-06,0,0,1
22288000,22136000,22136000,0,-488.05878,12.370742,-0.058807373,0.0013651839,12.468178,1.1094828e-05,3.0560705e-07,0,0,1
22360000,22208000,22208000,0,-488.18143,12.37079,0.064575195,0.009321688,12.470155,1.3375795e-05,1.9508054e-06,0,0,1
22432000,22280000,22280000,0,-488.1714,12.370836,0.051116943,0.014582628,12.4703665,8.381284e-06,2.7602364e-06,0,0,1
22504000,22352000,22352000,0,-488.19907,12.370882,0.07937622,0.022738464,12.463218,2.0221372e-05,4.9581413e-06,0,0,1
22576000,22424000,22424000,0,-488.05276,12.370926,-0.06726074,0.011409894,12.465107,1.4517348e-05,2.506681e-06,0,0,1
22648000,22496000,22496000,0,-488.09097,12.37097,-0.0284729,0.006389682,12.467025,2.6011212e-06,1.863741e-06,0,0,1
22720000,22568000,22568000,0,-488.18982,12.371013,0.07058716,0.014470482,12.468969,1.598383e-05,3.6410947e-06,0,0,1
22792000,22640000,22640000,0,-488.1469,12.371056,0.027130127,0.016064003,12.4709425,2.3608281e-06,3.4799423e-06,0,0,1
22864000,22712000,22712000,0,-488.13254,12.371097,0.0134887695,0.015739847,12.462143,5.839987e-07,3.115418e-06,0,0,1
22936000,22782666,22784000,0,-488.10895,12.371137,-0.010314941,0.012513462,12.464001,3.4145705e-07,2.6873504e-06,0,0,1
23008000,22856000,22856000,0,-488.17477,12.371177,0.055603027,0.018024962,12.465888,9.920503e-06,3.6125284e-06,0,0,1
23080000,22928000,22928000,0,-488.193,12.371215,0.073394775,0.02499459,12.467802,1.7282255e-05,5.3331933e-06,0,0,1
23152000,23000000,23000000,0,-488.07022,12.371254,-0.049957275,0.01556009,12.469745,8.005711e-06,3.6541705e-06,0,0,1
23224000,23072000,23072000,0,-488.12704,12.371291,0.0072631836,0.014515724,12.471712,1.6919516e-07,3.2155024e-06,0,0,1
23296000,23144000,23144000,0,-488.18332,12.371328,0.063812256,0.02072088,12.462912,1.3069191e-05,4.4558265e-06,0,0,1
23368000,23216000,23216000,0,-488.14044,12.371364,0.020568848,0.020701744,12.464767,1.3576747e-06,4.065849e-06,0,0,1
23440000,23288000,23288000,0,-488.2013,12.371399,0.08154297,0.02836008,12.466652,2.1334536e-05,6.23953e-06,0,0,1
23512000,23360000,23360000,0,-488.14417,12.371434,0.023956299,0.027805759,12.468564,1.8411238e-06,5.685885e-06,0,0,1
23584000,23432000,23432000,0,-488.12982,12.371468,0.009552002,0.025508083,12.470503,2.9266099e-07,5.0070175e-06,0,0,1
23656000,23504000,23504000,0,-488.20956,12.371502,0.08892822,0.033491038,12.461837,2.538383e-05,7.571931e-06,0,0,1
23728000,23576000,23576000,0,-488.14297,12.371533,0.022003174,0.032045014,12.463663,1.5537636e-06,6.8143995e-06,0,0,1
23800000,23648000,23648000,0,-488.23196,12.371566,0.1111145,0.041997816,12.465519,3.961787e-05,1.0943508e-05,0,0,1
23872000,23720000,23720000,0,-488.12286,12.371596,0.0014648438,0.036895763,12.467401,6.884409e-09,9.56687e-06,0,0,1
23944000,23792000,23792000,0,-488.1933,12.371628,0.072387695,0.04136328,12.469312,1.68092e-05,1.0478492e-05,0,0,1
24016000,23864000,23864000,0,-488.17383,12.371658,0.052886963,0.042813815,12.471249,8.971133e-06,1.0288754e-05,0,0,1
24088000,23936000,23936000,0,-488.19208,12.371688,0.07269287,0.046574816,12.462575,1.6960392e-05,1.1128541e-05,0,0,1
24160000,24008000,24008000,0,-488.20074,12.3717165,0.08111572,0.05092262,12.464401,2.1115367e-05,1.2385623e-05,0,0,1
24232000,24080000,24080000,0,-488.13892,12.371745,0.018951416,0.046898276,12.466257,1.1524106e-06,1.0971653e-05,0,0,1
24304000,24152000,24152000,0,-488.0824,12.371773,-0.037261963,0.03630468,12.46814,4.454406e-06,9.029911e-06,0,0,1
24376000,24224000,24224000,0,-488.11093,12.3718,-0.007904053,0.030739944,12.470049,2.0039712e-07,7.868054e-06,0,0,1
24448000,24294666,24296000,0,-488.19553,12.371827,0.07949829,0.036777727,12.461502,2.028641e-05,9.405829e-06,0,0,1
24520000,24368000,24368000,0,-488.129,12.371853,0.012664795,0.033693492,12.463302,5.147818e-07,8.268593e-06,0,0,1
24592000,24440000,24440000,0,-488.13828,12.371879,0.022125244,0.03223735,12.465129,1.5708667e-06,7.4255227e-06,0,0,1
24664000,24512000,24512000,0,-488.0864,12.371903,-0.029632568,0.02444953,12.466984,2.8173265e-06,6.136213e-06,0,0,1
24736000,24584000,24584000,0,-488.1008,12.371928,-0.01473999,0.019516584,12.468866,6.9699144e-07,5.2760893e-06,0,0,1
24808000,24656000,24656000,0,-488.1432,12.371953,0.028045654,0.020590173,12.470776,2.5228865e-06,4.929532e-06,0,0,1
24880000,24728000,24728000,0,-488.09595,12.371977,-0.019378662,0.015559131,12.462217,1.2053475e-06,4.15731e-06,0,0,1
24952000,24800000,24800000,0,-488.0727,12.372,-0.04220581,0.00828802,12.464019,5.716713e-06,2.9144257e-06,0,0,1
25024000,24872000,24872000,0,-488.08716,12.372023,-0.02722168,0.0038182684,12.465847,2.37776e-06,2.2482766e-06,0,0,1
25096000,24944000,24944000,0,-488.07336,12.372045,-0.040802002,-0.0017982689,12.467703,5.3411713e-06,1.2929615e-06,0,0,1
25168000,25014666,25016000,0,-488.16296,12.3720665,0.049102783,0.0045048464,12.469585,7.734286e-06,2.0905954e-06,0,0,1
25240000,25088000,25088000,0,-488.2188,12.372088,0.10638428,0.01753604,12.46115,3.632928e-05,6.469997e-06,0,0,1
25312000,25160000,25160000,0,-488.11447,12.372109,0.0012817383,0.015490044,12.462925,5.272769e-09,5.656256e-06,0,0,1
25384000,25232000,25232000,0,-488.17084,12.372129,0.057525635,0.020781238,12.464727,1.0619401e-05,6.2809872e-06,0,0,1
25456000,25304000,25304000,0,-488.1139,12.37215,9.1552734e-05,0.018176941,12.466558,2.6894039e-11,5.4903767e-06,0,0,1
25528000,25376000,25376000,0,-488.1186,12.3721695,0.0047912598,0.01649203,12.468414,7.3645836e-08,4.8085503e-06,0,0,1
25600000,25448000,25448000,0,-488.15613,12.3721895,0.042297363,0.019740254,12.470299,5.7386496e-06,4.925626e-06,0,0,1
25672000,25520000,25520000,0,-488.11813,12.37221,0.0056762695,0.017969962,12.461848,1.03419765e-07,4.318635e-06,0,0,1
25744000,25592000,25592000,0,-488.1838,12.372228,0.07131958,0.024685297,12.463625,1.6324248e-05,5.829831e-06,0,0,1
25816000,25664000,25664000,0,-488.1831,12.372246,0.07009888,0.030401692,12.46543,1.5767937e-05,7.0807814e-06,0,0,1
25888000,25736000,25736000,0,-488.07916,12.372264,-0.034362793,0.02224952,12.467263,3.7884868e-06,5.7126217e-06,0,0,1
25960000,25808000,25808000,0,-488.0607,12.372281,-0.05255127,0.012834037,12.469121,8.85912e-06,3.8784165e-06,0,0,1
26032000,25878666,25880000,0,-488.06122,12.372299,-0.051513672,0.004865812,12.4693775,8.512561e-06,2.3440325e-06,0,0,1
26096000,25940000,25944000,0,-488.12274,12.372181,0.012023926,0.0056479415,12.462138,4.640449e-07,2.1386163e-06,0,0,1
26152000,26000000,26000000,0,-488.1602,12.371929,0.04937744,0.010333245,12.463105,7.825118e-06,2.7478843e-06,0,0,1
26224000,26072000,26072000,0,-488.20667,12.371953,0.09552002,0.021056054,12.464909,2.9279234e-05,6.0874945e-06,0,0,1
26296000,26144000,26144000,0,-488.06018,12.371977,-0.05166626,0.011902197,12.46674,8.564877e-06,4.24314e-06,0,0,1
26368000,26216000,26216000,0,-488.07947,12.372001,-0.031982422,0.0063782595,12.468597,3.2814446e-06,3.2959897e-06,0,0,1
26440000,26288000,26288000,0,-488.169,12.372024,0.05758667,0.012824073,12.460339,1.0645696e-05,4.2211277e-06,0,0,1
26512000,26358666,26360000,0,-488.15433,12.3720455,0.042236328,0.016466215,12.4620905,5.7258685e-06,4.407461e-06,0,0,1
26576000,26420000,26424000,0,-488.07883,12.371932,-0.033813477,0.01097242,12.463464,3.6694491e-06,3.5249398e-06,0,0,1
26632000,26480000,26480000,0,-488.15427,12.371685,0.04171753,0.014266538,12.464447,5.5850123e-06,3.7456618e-06,0,0,1
26704000,26552000,26552000,0,-488.15854,12.371714,0.04547119,0.018194396,12.466277,6.634312e-06,4.109268e-06,0,0,1
26776000,26624000,26624000,0,-488.20505,12.371742,0.09118652,0.027382217,12.468133,2.6675949e-05,6.949829e-06,0,0,1
26848000,26696000,26696000,0,-488.11963,12.371771,0.004211426,0.024465615,12.459942,5.693801e-08,6.0821926e-06,0,0,1
26920000,26768000,26768000,0,-488.15247,12.371798,0.03656006,0.025987992,12.461694,4.290389e-06,5.856651e-06,0,0,1
26992000,26840000,26840000,0,-488.1615,12.371823,0.044769287,0.02835207,12.463472,6.432522e-06,5.9291383e-06,0,0,1
27064000,26912000,26912000,0,-488.07657,12.37185,-0.041046143,0.019616634,12.46528,5.4063316e-06,4.502296e-06,0,0,1
27136000,26984000,26984000,0,-488.06287,12.371875,-0.054992676,0.010225252,12.467112,9.702951e-06,2.7142232e-06,0,0,1
27208000,27056000,27056000,0,-488.11505,12.371901,-0.00289917,0.008573228,12.46897,2.696353e-08,2.3691787e-06,0,0,1
27280000,27128000,27128000,0,-488.18082,12.371925,0.06478882,0.015649315,12.460745,1.3474607e-05,3.7670648e-06,0,0,1
27352000,27200000,27200000,0,-488.1614,12.371949,0.04437256,0.019264828,12.462501,6.3195153e-06,4.0883524e-06,0,0,1
27424000,27272000,27272000,0,-488.1234,12.371973,0.005493164,0.017531332,12.464284,9.683622e-08,3.5859239e-06,0,0,1
27496000,27344000,27344000,0,-488.23132,12.371996,0.11282349,0.029526148,12.466094,4.0844036e-05,8.275756e-06,0,0,1
27568000,27416000,27416000,0,-488.1927,12.372019,0.072784424,0.034971245,12.46793,1.6995837e-05,9.373389e-06,0,0,1
27640000,27488000,27488000,0,-488.22482,12.372042,0.105895996,0.043898836,12.4598,3.6000456e-05,1.2725048e-05,0,0,1
27712000,27560000,27560000,0,-488.1205,12.372063,0.00045776367,0.038430728,12.461533,6.726221e-10,1.11233785e-05,0,0,1
27784000,27632000,27632000,0,-488.17212,12.372085,0.051696777,0.040100582,12.463293,8.577369e-06,1.0802902e-05,0,0,1
27856000,27704000,27704000,0,-488.16226,12.372105,0.040924072,0.04020424,12.465079,5.374309e-06,1.0119582e-05,0,0,1
27928000,27776000,27776000,0,-488.1196,12.372126,-0.0025939941,0.034817047,12.466893,2.1589358e-08,8.843071e-06,0,0,1
28000000,27848000,27848000,0,-488.17593,12.372147,0.053222656,0.037133835,12.468732,9.087215e-06,8.8738025e-06,0,0,1
28072000,27920000,27920000,0,-488.12378,12.372167,0.0007019043,0.032548,12.460569,1.5815318e-09,7.757019e-06,0,0,1
28144000,27992000,27992000,0,-488.1848,12.372186,0.06121826,0.036156844,12.462306,1.2028835e-05,8.29473e-06,0,0,1
28216000,28064000,28064000,0,-488.0762,12.372204,-0.04840088,0.025513215,12.46407,7.518074e-06,6.304307e-06,0,0,1
28288000,28136000,28136000,0,-488.13306,12.372223,0.0079956055,0.0233082,12.465861,2.051353e-07,5.536579e-06,0,0,1
28360000,28208000,28208000,0,-488.15643,12.372241,0.03048706,0.024211833,12.467678,2.9819853e-06,5.2150217e-06,0,0,1
28432000,28280000,28280000,0,-488.0294,12.372259,-0.09579468,0.00910612,12.46797,2.9440624e-05,8.5277316e-07,0,0,1
28504000,28352000,28352000,0,-488.1054,12.372277,-0.017364502,0.005774154,12.461325,9.678777e-07,6.2360033e-07,0,0,1
28576000,28424000,28424000,0,-488.14786,12.372294,0.024658203,0.008151167,12.463067,1.951452e-06,7.907425e-07,0,0,1
28648000,28496000,28496000,0,-488.18048,12.372312,0.056732178,0.014266259,12.464836,1.0328383e-05,1.9912845e-06,0,0,1
28720000,28568000,28568000,0,-488.2081,12.372328,0.08370972,0.023007393,12.466631,2.2483433e-05,4.5707156e-06,0,0,1
28792000,28640000,28640000,0,-488.21198,12.372344,0.08682251,0.031040065,12.4684515,2.4183111e-05,7.0394085e-06,0,0,1
28864000,28712000,28712000,0,-488.08905,12.37236,-0.033050537,0.022972718,12.46035,3.5066046e-06,5.7119387e-06,0,0,1
28936000,28784000,28784000,0,-488.12695,12.3723755,0.00491333,0.020699508,12.46207,7.748572e-08,5.002707e-06,0,0,1
29008000,28856000,28856000,0,-488.06116,12.372391,-0.06124878,0.01038434,12.463818,1.2039371e-05,2.8575505e-06,0,0,1
29080000,28928000,28928000,0,-488.07584,12.372406,-0.046417236,0.0032344917,12.4655905,6.9136227e-06,1.6276127e-06,0,0,1
29152000,29000000,29000000,0,-488.12796,12.37242,0.005493164,0.0035188,12.467389,9.6812094e-08,1.4349246e-06,0,0,1
29224000,29072000,29072000,0,-488.1983,12.372436,0.07525635,0.012548701,12.469214,1.8168002e-05,3.541186e-06,0,0,1
29296000,29142666,29144000,0,-488.12717,12.37245,0.003967285,0.011486058,12.4610815,5.0523226e-08,3.1089346e-06,0,0,1
29368000,29216000,29216000,0,-488.23508,12.372463,0.11129761,0.024252754,12.462806,3.9757204e-05,7.7965415e-06,0,0,1
29440000,29288000,29288000,0,-488.1495,12.372477,0.02432251,0.024261534,12.464558,1.8984531e-06,7.0541246e-06,0,0,1
29512000,29360000,29360000,0,-488.1305,12.37249,0.004211426,0.021737745,12.466335,5.6908807e-08,6.1733563e-06,0,0,1
29584000,29432000,29432000,0,-488.18677,12.372503,0.059417725,0.026480678,12.468139,1.1326361e-05,6.821986e-06,0,0,1
29656000,29502666,29504000,0,-488.0782,12.372517,-0.046905518,0.01739321,12.4601,7.062953e-06,5.1026036e-06,0,0,1
29720000,29564000,29568000,0,-488.17725,12.372394,0.051757812,0.021148048,12.461409,8.598935e-06,5.484629e-06,0,0,1
29776000,29624000,29624000,0,-488.17206,12.372138,0.045562744,0.023763908,12.462339,6.663159e-06,5.6109e-06,0,0,1
29848000,29696000,29696000,0,-488.0918,12.372157,-0.035827637,0.016262874,12.464092,4.119416e-06,4.386105e-06,0,0,1
29920000,29768000,29768000,0,-488.20953,12.372177,0.08163452,0.024491472,12.465872,2.1383808e-05,6.525676e-06,0,0,1
29992000,29840000,29840000,0,-488.1101,12.372196,-0.018798828,0.019042343,12.467675,1.133799e-06,5.5615465e-06,0,0,1
30064000,29912000,29912000,0,-488.18542,12.372215,0.055358887,0.023613656,12.459694,9.838464e-06,6.0998996e-06,0,0,1
30136000,29984000,29984000,0,-488.12857,12.372233,-0.0024414062,0.020333998,12.461399,1.913257e-08,5.3296717e-06,0,0,1
30208000,30056000,30056000,0,-488.23654,12.3722515,0.10479736,0.03096575,12.463132,3.5247922e-05,9.0956055e-06,0,0,1
30280000,30128000,30128000,0,-488.0712,12.372269,-0.06213379,0.019246928,12.46489,1.2388742e-05,6.391282e-06,0,0,1
30352000,30200000,30200000,0,-488.0718,12.372287,-0.06188965,0.009033933,12.466675,1.2289816e-05,4.0398154e-06,0,0,1
30424000,30272000,30272000,0,-488.12878,12.372304,-0.0027770996,0.00754723,12.46699,2.4744647e-08,3.5281926e-06,0,0,1
30496000,30344000,30344000,0,-488.11472,12.37232,-0.015777588,0.0046112393,12.460485,7.991094e-07,2.9834973e-06,0,0,1
30568000,30416000,30416000,0,-488.03973,12.372336,-0.09118652,-0.007447219,12.462197,2.6688655e-05,-7.5145863e-07,0,0,1
30640000,30488000,30488000,0,-488.24722,12.372353,0.11642456,0.008145032,12.463936,4.3500477e-05,4.8187144e-06,0,0,1
30712000,30560000,30560000,0,-488.0348,12.372368,-0.09762573,-0.0051687695,12.4657,3.0582425e-05,3.6262736e-07,0,0,1
30784000,30632000,30632000,0,-488.22824,12.372384,0.095825195,0.0075437566,12.467489,2.9460522e-05,4.025299e-06,0,0,1
30856000,30704000,30704000,0,-488.11932,12.372399,-0.0101623535,0.0053150156,12.459551,3.3154785e-07,3.4768848e-06,0,0,1
30928000,30776000,30776000,0,-488.11942,12.372414,-0.010559082,0.0033168776,12.461242,3.578912e-07,2.9941857e-06,0,0,1
31000000,30848000,30848000,0,-488.143,12.372428,0.012268066,0.004443601,12.462959,4.8304884e-07,2.6780986e-06,0,0,1
31072000,30920000,30920000,0,-488.14758,12.372442,0.016143799,0.005916353,12.464703,8.363529e-07,2.4462704e-06,0,0,1
31144000,30992000,30992000,0,-488.14743,12.372456,0.015045166,0.007065434,12.466471,7.2629064e-07,2.2297695e-06,0,0,1
31216000,31064000,31064000,0,-488.1285,12.37247,-0.0048217773,0.005569142,12.468265,7.458789e-08,1.9397105e-06,0,0,1
31288000,31136000,31136000,0,-488.1473,12.372483,0.016845703,0.006988569,12.460289,9.1098275e-07,1.8102203e-06,0,0,1
31360000,31208000,31208000,0,-488.1002,12.372497,-0.031219482,0.0021791644,12.461987,3.1284133e-06,1.1885742e-06,0,0,1
31432000,31280000,31280000,0,-488.14276,12.372509,0.0107421875,0.0032570274,12.46371,3.7033786e-07,1.0855794e-06,0,0,1
31504000,31352000,31352000,0,-488.14734,12.372521,0.014404297,0.00466018,12.465458,6.6578787e-07,1.0327385e-06,0,0,1
31576000,31424000,31424000,0,-488.10965,12.372535,-0.024230957,0.0010235335,12.467233,1.8837839e-06,6.656238e-07,0,0,1
31648000,31496000,31496000,0,-488.14276,12.372547,0.014892578,0.0027692872,12.459344,7.120403e-07,6.7146647e-07,0,0,1
31720000,31568000,31568000,0,-488.2506,12.372559,0.12219238,0.017801564,12.46102,4.7928588e-05,6.619915e-06,0,0,1
31792000,31640000,31640000,0,-488.16486,12.37257,0.03503418,0.019970704,12.462723,3.939408e-06,6.2825084e-06,0,0,1
31864000,31712000,31712000,0,-488.12228,12.372581,-0.008453369,0.01639285,12.464451,2.2932242e-07,5.462837e-06,0,0,1
31936000,31784000,31784000,0,-488.15524,12.372592,0.024017334,0.017352575,12.466206,1.8508673e-06,5.0081835e-06,0,0,1
32008000,31856000,31856000,0,-488.17847,12.372603,0.046417236,0.021011064,12.467984,6.9122952e-06,5.2478617e-06,0,0,1
32080000,31928000,31928000,0,-488.06064,12.372615,-0.07522583,0.00889733,12.46006,1.8166607e-05,2.3005862e-06,0,0,1
32152000,32000000,32000000,0,-488.08954,12.372624,-0.0463562,0.0019423403,12.461742,6.897583e-06,1.1427747e-06,0,0,1
32224000,32072000,32072000,0,-488.14633,12.372635,0.010223389,0.00298471,12.463451,3.3543736e-07,1.0411519e-06,0,0,1
32296000,32142666,32144000,0,-488.0711,12.372645,-0.06539917,-0.005483317,12.465186,1.372479e-05,-7.873258e-07,0,0,1
32360000,32204000,32208000,0,-488.04828,12.3725195,-0.08798218,-0.014497532,12.466536,2.4837256e-05,-3.4151344e-06,0,0,1
32416000,32264000,32264000,0,-488.129,12.372262,-0.00680542,-0.013673377,12.467492,1.4859039e-07,-3.0651477e-06,0,0,1
32488000,32336000,32336000,0,-488.14313,12.37228,0.011779785,-0.010469483,12.459624,4.4548162e-07,-2.6232503e-06,0,0,1
32560000,32408000,32408000,0,-488.11014,12.372296,-0.021453857,-0.011852131,12.461309,1.4774306e-06,-2.4790213e-06,0,0,1
32632000,32480000,32480000,0,-488.09158,12.3723135,-0.039855957,-0.015377088,12.463021,5.0982735e-06,-2.8087175e-06,0,0,1
32704000,32552000,32552000,0,-488.0591,12.37233,-0.07208252,-0.022514835,12.464759,1.6673855e-05,-4.553979e-06,0,0,1
32776000,32624000,32624000,0,-488.08328,12.372346,-0.04736328,-0.025642611,12.46652,7.197776e-06,-4.8867646e-06,0,0,1
32848000,32696000,32696000,0,-488.2152,12.372362,0.08886719,-0.011228791,12.458732,2.5355315e-05,-1.0800695e-06,0,0,1
32920000,32768000,32768000,0,-488.10632,12.372377,-0.020629883,-0.012412146,12.460398,1.366223e-06,-1.1160888e-06,0,0,1
32992000,32840000,32840000,0,-488.09247,12.372392,-0.034332275,-0.015171323,12.46209,3.7833306e-06,-1.4518255e-06,0,0,1
33064000,32912000,32912000,0,-488.21957,12.372407,0.09301758,-0.0015531406,12.463807,2.7767663e-05,2.226152e-06,0,0,1
33136000,32984000,32984000,0,-488.15292,12.372421,0.025756836,0.0018844786,12.46555,2.1287935e-06,2.213897e-06,0,0,1
33208000,33056000,33056000,0,-488.16675,12.372436,0.039642334,0.006637215,12.467317,5.04203e-06,2.5698857e-06,0,0,1
33280000,33128000,33128000,0,-488.08185,12.37245,-0.042144775,0.0004968252,12.459487,5.702264e-06,1.5286362e-06,0,0,1
33352000,33200000,33200000,0,-488.1433,12.372463,0.020019531,0.0029542285,12.46116,1.2864987e-06,1.4981573e-06,0,0,1
33424000,33272000,33272000,0,-488.10083,12.372477,-0.022338867,-0.00022951746,12.462858,1.601639e-06,1.1079732e-06,0,0,1
33496000,33344000,33344000,0,-488.1433,12.37249,0.020568848,0.0023884582,12.4645815,1.357695e-06,1.1394067e-06,0,0,1
33568000,33416000,33416000,0,-488.12906,12.372503,0.0065612793,0.0029137083,12.466331,1.381333e-07,1.0133723e-06,0,0,1
33640000,33488000,33488000,0,-488.129,12.372516,0.00793457,0.0035457048,12.458579,2.021335e-07,9.112583e-07,0,0,1
33712000,33560000,33560000,0,-488.08194,12.372528,-0.038848877,-0.0017906758,12.460233,4.8449665e-06,1.8669863e-07,0,0,1
33784000,33632000,33632000,0,-488.16214,12.3725395,0.042175293,0.0037435018,12.461911,5.709414e-06,8.818655e-07,0,0,1
33856000,33704000,33704000,0,-488.22745,12.372552,0.107788086,0.016840022,12.463617,3.7286998e-05,5.4643297e-06,0,0,1
33928000,33776000,33776000,0,-488.18414,12.372563,0.06451416,0.022840962,12.465346,1.3355671e-05,6.457645e-06,0,0,1
34000000,33846666,33848000,0,-488.14597,12.372575,0.026733398,0.023322966,12.4671,2.292994e-06,5.9419335e-06,0,0,1
34072000,33920000,33920000,0,-488.21613,12.372587,0.10192871,0.033377267,12.459311,3.3354856e-05,9.448266e-06,0,0,1
34144000,33992000,33992000,0,-488.18225,12.372598,0.06817627,0.03775756,12.460971,1.4920198e-05,1.0137041e-05,0,0,1
34216000,34064000,34064000,0,-488.144,12.372608,0.030273438,0.0368155,12.462656,2.941527e-06,9.231311e-06,0,0,1
34288000,34136000,34136000,0,-488.0545,12.372619,-0.05883789,0.024775214,12.464367,1.11097415e-05,6.670899e-06,0,0,1
34360000,34208000,34208000,0,-488.1396,12.372629,0.02722168,0.025083162,12.466103,2.3777113e-06,6.1304977e-06,0,0,1
34432000,34280000,34280000,0,-488.12527,12.37264,0.012573242,0.023508487,12.466435,5.0723855e-07,5.422675e-06,0,0,1
34504000,34352000,34352000,0,-488.10165,12.37265,-0.009002686,0.019416172,12.460034,2.601866e-07,4.7073495e-06,0,0,1
34576000,34424000,34424000,0,-488.1111,12.37266,0.0008239746,0.017075896,12.461701,2.1792663e-09,4.11509e-06,0,0,1
34648000,34496000,34496000,0,-488.07825,12.372669,-0.0317688,0.010927614,12.463394,3.2391067e-06,3.1893871e-06,0,0,1
34720000,34568000,34568000,0,-488.17245,12.372679,0.06298828,0.017480705,12.465112,1.273161e-05,4.390506e-06,0,0,1
34792000,34640000,34640000,0,-488.15308,12.372687,0.04360962,0.02076966,12.466852,6.1019377e-06,4.605931e-06,0,0,1
34864000,34712000,34712000,0,-488.12448,12.372697,0.008850098,0.019269295,12.459103,2.5146025e-07,4.0578157e-06,0,0,1
34936000,34782666,34784000,0,-488.17133,12.372705,0.05593872,0.023810098,12.460752,1.0044789e-05,4.799187e-06,0,0,1
35008000,34856000,34856000,0,-488.0581,12.372714,-0.057403564,0.013422222,12.462425,1.0576334e-05,2.832535e-06,0,0,1
35080000,34928000,34928000,0,-488.0587,12.372723,-0.05606079,0.004676109,12.464125,1.0085946e-05,1.2064327e-06,0,0,1
35152000,34998666,35000000,0,-488.10617,12.372731,-0.007904053,0.0031182982,12.465848,2.0046465e-07,1.0322156e-06,0,0,1
35216000,35060000,35064000,0,-488.1344,12.372604,0.020629883,0.0050316965,12.467187,1.365479e-06,1.0686294e-06,0,0,1
35272000,35118666,35120000,0,-488.16238,12.372345,0.048950195,0.009643616,12.458665,7.693029e-06,1.7642634e-06,0,0,1
35344000,35192000,35192000,0,-488.0821,12.37236,-0.031585693,0.0043700584,12.460317,3.202667e-06,1.1289533e-06,0,0,1
35416000,35264000,35264000,0,-488.11526,12.3723755,0.0017700195,0.004042781,12.461995,1.0056076e-08,9.88113e-07,0,0,1
35488000,35334666,35336000,0,-488.1293,12.372391,0.015716553,0.005488353,12.463698,7.927343e-07,9.639191e-07,0,0,1
35552000,35396000,35400000,0,-488.13855,12.372271,0.024841309,0.0076029478,12.465022,1.9802312e-06,1.0749661e-06,0,0,1
35608000,35456000,35456000,0,-488.09604,12.372017,-0.017852783,0.004875548,12.465957,1.0226952e-06,8.502167e-07,0,0,1
35680000,35528000,35528000,0,-488.054,12.37204,-0.058929443,-0.003155849,12.458305,1.1149764e-05,-6.602703e-07,0,0,1
35752000,35600000,35600000,0,-488.12967,12.372061,0.017150879,-0.0005997573,12.459961,9.4431323e-07,-4.5829478e-07,0,0,1
35824000,35672000,35672000,0,-488.18118,12.372082,0.06845093,0.008091936,12.461642,1.5039846e-05,1.4925199e-06,0,0,1
35896000,35744000,35744000,0,-488.11008,12.372103,-0.0034179688,0.006643137,12.463349,3.7493965e-08,1.2999308e-06,0,0,1
35968000,35814666,35816000,0,-488.08664,12.372124,-0.02709961,0.002464747,12.46508,2.3566276e-06,8.471364e-07,0,0,1
36040000,35888000,35888000,0,-488.12445,12.372144,0.015319824,0.0041090143,12.457495,7.5359293e-07,8.351714e-07,0,0,1
36112000,35960000,35960000,0,-488.1055,12.372163,-0.0037231445,0.0031231483,12.459132,4.4503278e-08,7.2444317e-07,0,0,1
36184000,36032000,36032000,0,-488.14783,12.372182,0.038635254,0.0075932033,12.460795,4.7916133e-06,1.2363946e-06,0,0,1
36256000,36104000,36104000,0,-488.13333,12.372201,0.023651123,0.00961448,12.462484,1.7953904e-06,1.3067577e-06,0,0,1
36328000,36176000,36176000,0,-488.22232,12.372219,0.11242676,0.022555884,12.464196,4.0563467e-05,6.2481613e-06,0,0,1
36400000,36248000,36248000,0,-488.12265,12.372237,0.012084961,0.021237865,12.465933,4.6862527e-07,5.5206674e-06,0,0,1
36472000,36320000,36320000,0,-488.1507,12.372255,0.04345703,0.024034683,12.458299,6.063472e-06,5.5889923e-06,0,0,1
36544000,36392000,36392000,0,-488.06107,12.3722725,-0.046203613,0.0151935,12.459944,6.8532377e-06,4.022838e-06,0,0,1
36616000,36462666,36464000,0,-488.15073,12.37229,0.044067383,0.018768974,12.461614,6.2333315e-06,4.296565e-06,0,0,1
36688000,36536000,36536000,0,-488.1033,12.372307,-0.0032653809,0.015950603,12.463309,3.4221127e-08,3.7426228e-06,0,0,1
36760000,36608000,36608000,0,-488.10803,12.372323,0.0018615723,0.014177159,12.465028,1.1120557e-08,3.2729233e-06,0,0,1
36832000,36680000,36680000,0,-488.19254,12.372339,0.08389282,0.022952557,12.465383,2.2584163e-05,5.7037087e-06,0,0,1
36904000,36752000,36752000,0,-488.14008,12.372355,0.031829834,0.024069976,12.45909,3.252688e-06,5.3951885e-06,0,0,1
36976000,36822666,36824000,0,-488.06934,12.372371,-0.03857422,0.016312698,12.460742,4.7765066e-06,4.1356197e-06,0,0,1
37048000,36896000,36896000,0,-488.12604,12.372386,0.018951416,0.016650211,12.4624195,1.1527654e-06,3.7540888e-06,0,0,1
37120000,36968000,36968000,0,-488.1165,12.3724,0.00982666,0.015791303,12.46412,3.098919e-07,3.3205536e-06,0,0,1
37192000,37040000,37040000,0,-488.06943,12.372416,-0.03677368,0.009174732,12.465846,4.339228e-06,2.3563853e-06,0,0,1
37264000,37112000,37112000,0,-488.09326,12.37243,-0.014099121,0.006245156,12.458234,6.3824524e-07,1.9794388e-06,0,0,1
37336000,37184000,37184000,0,-488.05585,12.372443,-0.050994873,-0.00095988205,12.4598675,8.34833e-06,6.7944006e-07,0,0,1
37408000,37254666,37256000,0,-488.15964,12.3724575,0.053497314,0.0057835933,12.461527,9.186555e-06,1.7328825e-06,0,0,1
37472000,37316000,37320000,0,-488.1685,12.372335,0.062194824,0.01194735,12.462816,1.2415159e-05,2.9000785e-06,0,0,1
37528000,37376000,37376000,0,-488.135,12.372081,0.0284729,0.013717945,12.463725,2.6018097e-06,2.868121e-06,0,0,1
37600000,37448000,37448000,0,-488.1676,12.372102,0.06112671,0.01968548,12.465454,1.1989855e-05,4.0163113e-06,0,0,1
37672000,37520000,37520000,0,-488.1154,12.372123,0.010284424,0.018502131,12.457884,3.3960623e-07,3.5535093e-06,0,0,1
37744000,37592000,37592000,0,-488.10587,12.372143,0.0008239746,0.016276909,12.459522,2.1796474e-09,3.1064887e-06,0,0,1
37816000,37664000,37664000,0,-488.14813,12.372162,0.043121338,0.019655928,12.461185,5.968773e-06,3.4667762e-06,0,0,1
37888000,37736000,37736000,0,-488.15237,12.372181,0.047058105,0.023105152,12.4628725,7.1073996e-06,3.9250363e-06,0,0,1
37960000,37808000,37808000,0,-488.10028,12.3722,-0.0052490234,0.019536095,12.464584,8.841769e-08,3.4198463e-06,0,0,1
38032000,37877333,37880000,0,-488.1426,12.372219,0.037109375,0.021676157,12.464949,4.41913e-06,3.5415385e-06,0,0,1
38104000,37950666,37952000,0,-488.04834,12.372237,-0.057128906,0.011596479,12.4587,1.04784995e-05,1.7482848e-06,0,0,1
38176000,38024000,38024000,0,-488.0395,12.372254,-0.065582275,0.0017247004,12.460345,1.3807113e-05,-2.4137466e-07,0,0,1
38248000,38096000,38096000,0,-488.1622,12.372272,0.057525635,0.008748594,12.462015,1.0621713e-05,1.1260069e-06,0,0,1
38320000,38168000,38168000,0,-488.08185,12.372289,-0.023529053,0.0046856734,12.463709,1.7767306e-06,7.6062736e-07,0,0,1
38392000,38240000,38240000,0,-488.15247,12.372306,0.046813965,0.009988535,12.465427,7.0324018e-06,1.5500814e-06,0,0,1
