timestamp,timestamp_sample,time_last_fuse,device_id,observation[0],observation[1],observation[2],observation_variance[0],observation_variance[1],observation_variance[2],innovation[0],innovation[1],innovation[2],innovation_filtered[0],innovation_filtered[1],innovation_filtered[2],innovation_variance[0],innovation_variance[1],innovation_variance[2],test_ratio[0],test_ratio[1],test_ratio[2],test_ratio_filtered[0],test_ratio_filtered[1],test_ratio_filtered[2],estimator_instance,innovation_rejected,fused
2024000,1870974,0,0,0.0,0.0,-0.02,0.09,0.09,0.20250002,-0.0024526634,-0.0017170589,0.017992657,-0.0024526634,-0.0017170589,0.017992657,0.09006037,0.09006037,0.20255828,2.671789e-06,1.3094734e-06,6.3929394e-05,2.671789e-06,1.3094734e-06,6.3929394e-05,0,0,0
2432000,2272151,0,0,0.0,-0.01,0.0,0.09,0.09,0.20250002,-0.007312395,0.008676794,-0.005791582,-0.0046160705,0.0029099733,0.0074046263,0.09124151,0.09124153,0.20379119,2.3441577e-05,3.300548e-05,6.583685e-06,-8.953099e-06,1.5419586e-05,3.2539083e-05,0,0,0
2832000,2672893,0,0,-0.02,-0.01,-0.01,0.09,0.09,0.20250002,0.019417118,0.015267603,0.0048900787,0.006076345,0.0084079085,0.006285899,0.0911055,0.0911055,0.20587328,0.00016553314,0.00010234276,4.6461337e-06,6.867619e-05,5.4091885e-05,2.0129452e-05,0,0,0
3232000,3073330,3080000,0,0.0,0.0,-0.01,0.09,0.09,0.20250002,0.00086944114,1.4355829e-06,0.0035081971,0.0037607618,0.0046694316,0.005050616,0.12994896,0.12994903,0.20783028,2.3268456e-07,6.3437124e-13,2.3687496e-06,3.8238402e-05,3.0036463e-05,1.22310175e-05,0,0,1
3632000,3473591,3480000,0,0.02,0.03,0.0,0.09,0.09,0.20250002,-0.022301368,-0.02471995,0.00026911023,-0.007826605,-0.008397249,0.0029247322,0.13066165,0.13063918,0.21135552,0.00015225617,0.0001871034,1.3705876e-08,-4.645653e-05,-6.650512e-05,6.7991336e-06,0,0,1
4032000,3873755,3880000,0,0.03,0.0,0.0,0.09,0.09,0.20250002,-0.012794938,0.021434234,-0.0057683364,-0.010035256,0.0048642084,-0.0009397336,0.14663184,0.14666396,0.21541084,4.465891e-05,0.00012530042,6.1786495e-06,-4.5657405e-05,1.8761195e-05,1.0299163e-06,0,0,1
4432000,4273851,4280000,0,0.02,0.0,0.0,0.09,0.09,0.20250002,0.011221014,0.021573657,-0.009204686,-0.0005867658,0.01229162,-0.0046135355,0.15783292,0.15790759,0.2196333,3.1909985e-05,0.000117897485,1.543049e-05,-1.1178414e-05,6.282765e-05,-6.286795e-06,0,0,1
4832000,4673910,4680000,0,0.0,-0.01,0.01,0.09,0.09,0.20250002,0.038542446,0.019624967,-0.016568588,0.016805422,0.015551152,-0.009927328,0.15845999,0.15854219,0.22357905,0.00037498935,9.717019e-05,4.9113387e-05,0.00016046576,7.809225e-05,-2.5322395e-05,0,0,1
5232000,5073946,5080000,0,0.0,0.01,0.01,0.09,0.09,0.20250002,0.030449832,-0.018721525,-0.013527917,0.022869907,0.00031808857,-0.01152767,0.15330899,0.15332523,0.22685808,0.00024191466,9.1438436e-05,3.2267668e-05,0.00019666708,2.741508e-06,-2.8409337e-05,0,0,1
5632000,5473967,5480000,0,0.02,0.01,-0.04,0.09,0.09,0.20250002,0.009725042,-0.0077178087,0.04010664,0.017027576,-0.0032535256,0.011421581,0.14676757,0.1468054,0.22919889,2.577584e-05,1.6229531e-05,0.0002807243,0.0001207132,-5.690311e-06,0.0001089874,0,0,1
6032000,5873980,5880000,0,0.01,0.0,-0.03,0.09,0.09,0.20250002,0.02420842,0.0046498394,0.028625002,0.020219121,0.00025914493,0.019067684,0.14077118,0.14078477,0.23058361,0.0001665249,6.142996e-06,0.00014214206,0.00014107433,-4.3096816e-07,0.00012372308,0,0,1
6432000,6273988,6280000,0,0.0,0.0,-0.03,0.09,0.09,0.20250002,0.027414326,0.00058501505,0.023431106,0.023417026,0.0004039777,0.021007005,0.13579449,0.13578056,0.23091999,0.00022137725,1.0082227e-07,9.510077e-05,0.00017676491,-1.9461423e-07,0.00011100191,0,0,1
6832000,6673993,6680000,0,0.0,0.0,-0.04,0.09,0.09,0.20250002,0.025608432,0.00953139,0.026244655,0.02439099,0.0044606337,0.023334866,0.13179873,0.13181092,0.23058657,0.00019902826,2.7569004e-05,0.00011948344,0.0001866598,1.2144857e-05,0.0001147715,0,0,1
7232000,7073996,7080000,0,0.0,0.0,0.02,0.09,0.09,0.20250002,0.024164451,0.007179043,-0.035844356,0.024290306,0.005668821,-0.002967121,0.12866773,0.12869039,0.23026775,0.00018152824,1.6019427e-05,0.00022318675,0.0001843791,1.3866895e-05,-3.5432786e-05,0,0,1
7632000,7473998,7480000,0,-0.01,-0.01,-0.01,0.09,0.09,0.20250002,0.031329233,0.010194708,-0.0019316953,0.027418727,0.0076803314,-0.0025069306,0.1262824,0.12629965,0.2294199,0.00031089713,3.2916025e-05,6.5058816e-07,0.00024060949,2.2333199e-05,-1.9973988e-05,0,0,1
8032000,7877999,7880000,0,0.0,0.01,0.02,0.09,0.09,0.20250002,0.007794863,-0.010156774,-0.029278573,0.018648759,-0.00029112957,-0.014471265,0.12445594,0.124480255,0.22822335,1.9528161e-05,3.314905e-05,0.00015024489,0.00014180751,-2.4619985e-06,-7.8192475e-05,0,0,1
8432000,8274000,8280000,0,0.01,0.0,0.049999997,0.09,0.09,0.20250002,-0.009360214,0.0116729075,-0.05803726,0.0062697753,0.0049965554,-0.033725906,0.12313435,0.12317093,0.22645356,2.846114e-05,4.4249653e-05,0.00059496943,6.6554734e-05,1.8182913e-05,-0.00030658976,0,0,1
8824000,8670000,8672000,0,-0.01,-0.01,0.03,0.09,0.09,0.20250002,0.009166426,0.019612204,-0.030651605,0.0075499914,0.011456151,-0.032367174,0.121935,0.12198435,0.22428559,2.756333e-05,0.00012612718,0.00016755797,4.9321927e-05,6.5890425e-05,-0.00024514267,0,0,1
9232000,9074000,9080000,0,0.0,0.0,-0.01,0.09,0.09,0.20250002,-0.0016991972,-0.003841932,0.005118871,0.0034165047,0.004619397,-0.01561456,0.12151343,0.12157875,0.22240348,9.5043697e-07,4.8562565e-06,4.7126673e-06,2.6855076e-05,3.4273547e-05,-0.00013348166,0,0,1
9624000,9470000,9472000,0,-0.02,0.0,0.049999997,0.09,0.09,0.20250002,0.021300543,0.0017540564,-0.051680222,0.0113206105,0.003353019,-0.031554293,0.120808184,0.12087493,0.22081722,0.00015022597,1.0181479e-06,0.00048381105,8.13806e-05,1.9575848e-05,-0.00028831474,0,0,1
10032000,9874000,9880000,0,0.0,0.0,-0.01,0.09,0.09,0.20250002,-0.010756115,0.0019510485,0.016214991,0.0014544632,0.0027264748,-0.0102060735,0.12067581,0.120754875,0.21941037,3.8348702e-05,1.2609314e-06,4.793318e-05,2.7873255e-05,1.1390863e-05,-0.00013804466,0,0,1
10432000,10274000,10280000,0,0.0,-0.02,0.0,0.09,0.09,0.20250002,-0.017304901,0.014004257,0.00013730675,-0.0068830326,0.0077388226,-0.0056090155,0.12041752,0.12049453,0.21825162,9.947377e-05,6.510477e-05,3.4553043e-09,-2.8725426e-05,3.526371e-05,-7.668994e-05,0,0,1
10832000,10674000,10680000,0,-0.01,0.0,0.0,0.09,0.09,0.20250002,-0.011889245,-0.00560519,0.0018289238,-0.009108016,0.0018081502,-0.0023032643,0.12013391,0.12021195,0.21713279,4.7065536e-05,1.0454253e-05,6.162058e-07,-3.6876587e-05,1.4944615e-05,-4.233165e-05,0,0,1
11232000,11074000,11080000,0,-0.01,0.01,0.0,0.09,0.09,0.20250002,-0.01968013,-0.026561318,0.0011962205,-0.013806734,-0.010800503,-0.0007479376,0.1199264,0.11998867,0.2161553,0.00012918172,0.00023519008,2.6479916e-07,-7.790109e-05,-9.622637e-05,-2.3399893e-05,0,0,1
11632000,11474000,11480000,0,0.0,0.0,0.02,0.09,0.09,0.20250002,-0.039815642,-0.010490196,-0.021995503,-0.02536625,-0.010662589,-0.010191301,0.11965652,0.119711176,0.21539013,0.00052994536,3.6769903e-05,8.9846675e-05,-0.0002788097,-6.9801274e-05,-5.29318e-05,0,0,1
12032000,11874000,11880000,0,0.01,-0.02,0.01,0.09,0.09,0.20250002,-0.037617832,0.012298727,-0.012084444,-0.0308114,-0.00045755878,-0.011032698,0.11935369,0.119375244,0.21463387,0.00047425478,5.0683433e-05,2.7215425e-05,-0.00036567418,-1.625251e-05,-4.15023e-05,0,0,1
12432000,12274000,12280000,0,0.01,0.0,0.02,0.09,0.09,0.20250002,-0.030186843,-0.009686916,-0.022779126,-0.030533819,-0.0045594955,-0.016253334,0.119078875,0.11905722,0.214047,0.0003060981,3.1526466e-05,9.6967226e-05,-0.00033919592,-2.3040935e-05,-6.615338e-05,0,0,1
12832000,12674000,12680000,0,0.02,0.01,0.0,0.09,0.09,0.20250002,-0.0327283,-0.024791788,-0.005702056,-0.031509142,-0.013551626,-0.011563877,0.11870994,0.11867411,0.21345866,0.00036092734,0.00020716661,6.0926914e-06,-0.00034885432,-0.000104874576,-3.9459737e-05,0,0,1
13232000,13074000,13080000,0,0.01,0.0,-0.01,0.09,0.09,0.20250002,-0.008669833,-0.010545316,-0.0014717411,-0.021358337,-0.012215489,-0.007078483,0.11836836,0.11831176,0.21300757,2.5400706e-05,3.7596834e-05,4.0675022e-07,-0.00020509715,-7.497336e-05,-2.2102853e-05,0,0,1
13632000,13474000,13480000,0,-0.01,0.01,-0.03,0.09,0.09,0.20250002,0.010691146,-0.016542187,0.014771869,-0.0071141208,-0.014138466,0.0026327856,0.11793734,0.11785451,0.21255206,3.8766553e-05,9.2875176e-05,4.106441e-05,-9.671328e-05,-8.292972e-05,5.9714857e-06,0,0,1
14032000,13874000,13880000,0,0.01,0.0,0.01,0.09,0.09,0.20250002,-0.011433009,-0.0048745945,-0.026556687,-0.009033627,-0.010021189,-0.010340314,0.117521554,0.117406145,0.21215372,4.449012e-05,8.095546e-06,0.00013297106,-7.350298e-05,-4.9670085e-05,-5.5780758e-05,0,0,1
14432000,14274000,14280000,0,-0.03,0.0,-0.02,0.09,0.09,0.20250002,0.03232177,0.0009296562,0.007375408,0.009346551,-0.0051541463,-0.002466659,0.1170359,0.116900906,0.2118023,0.00035705173,2.957242e-07,1.0273097e-05,0.00011785467,-2.7463057e-05,-2.6423486e-05,0,0,1
14832000,14674000,14680000,0,0.02,0.0,0.03,0.09,0.09,0.20250002,-0.022819445,0.0018893612,-0.045433506,-0.0049494486,-0.0020236983,-0.021563038,0.11659036,0.116427384,0.2115422,0.00017865186,1.2264077e-06,0.00039031522,-1.39260155e-05,-1.4712183e-05,-0.00018815316,0,0,1
15232000,15074000,15080000,0,0.0,0.0,-0.01,0.09,0.09,0.20250002,0.012914984,0.0055141477,0.0037196446,0.0029902998,0.0013264557,-0.01032629,0.11607457,0.11593138,0.21126209,5.747919e-05,1.0490973e-05,2.6196383e-06,1.780963e-05,-3.5107787e-06,-0.000103365244,0,0,1
15632000,15474000,15480000,0,0.01,-0.01,0.0,0.09,0.09,0.20250002,0.0018337071,0.017999737,-0.005310391,0.0024762587,0.008736804,-0.008097001,0.11556892,0.115409106,0.21105984,1.1638014e-06,0.00011229287,5.3445037e-06,1.0411484e-05,4.7957517e-05,-5.9800466e-05,0,0,1
16032000,15874000,15880000,0,0.02,0.0,-0.02,0.09,0.09,0.20250002,-0.008063331,-0.0011073693,0.011098597,-0.0022080038,0.0043616155,0.0004343763,0.115100905,0.114914306,0.21083552,2.259489e-05,4.2684567e-07,2.3369661e-05,-4.258017e-06,2.6453356e-05,-2.2835964e-05,0,0,1
16432000,16274000,16280000,0,0.0,0.0,0.0,0.09,0.09,0.20250002,0.020418536,0.0016496603,-0.003924489,0.007848237,0.003156302,-0.0015028974,0.114590935,0.11440961,0.21067819,0.00014553215,9.514512e-07,2.9241971e-06,6.23154e-05,1.5119175e-05,-1.3986289e-05,0,0,1
16832000,16674000,16680000,0,0.0,0.0,-0.01,0.09,0.09,0.20250002,0.017364498,-0.0044581126,0.004410336,0.012077686,-0.00022788253,0.0011252065,0.114131816,0.11392045,0.21049875,0.00010567634,6.9784724e-06,3.6961856e-06,8.158693e-05,5.2979976e-06,-6.1274104e-06,0,0,1
17232000,17074000,17080000,0,0.0,0.0,-0.01,0.09,0.09,0.20250002,0.0067246314,-0.0043442473,0.0053894017,0.009698551,-0.0020573782,0.0030204046,0.11365096,0.11340343,0.21034136,1.591563e-05,6.6567595e-06,5.5235264e-06,5.2399686e-05,-1.5228125e-08,-9.49216e-07,0,0,1
17632000,17474000,17480000,0,0.0,-0.01,-0.01,0.09,0.09,0.20250002,0.0080204625,0.0023003938,0.013244929,0.008952734,-0.00012059056,0.007564638,0.11320326,0.11294037,0.21020003,2.2730024e-05,1.8741968e-06,3.3383087e-05,3.921317e-05,8.2451635e-07,1.4309588e-05,0,0,1
18032000,17874000,17880000,0,0.0,0.0,0.01,0.09,0.09,0.20250002,0.0041189925,-0.013278927,-0.002344245,0.0068044043,-0.00596874,0.0031606895,0.11275216,0.11248191,0.21007422,6.0189e-06,6.2705156e-05,1.0463892e-06,2.4460162e-05,-2.7410895e-05,7.484708e-06,0,0,1
18432000,18274000,18280000,0,-0.02,0.02,-0.03,0.09,0.09,0.20250002,0.020224689,-0.030573754,0.037349023,0.012768975,-0.016904302,0.018355506,0.1123517,0.11206511,0.20996201,0.00014562771,0.00033364692,0.00026575275,7.831241e-05,-0.0001635158,0.0001222705,0,0,1
18832000,18674000,18680000,0,-0.01,-0.01,-0.049999997,0.09,0.09,0.20250002,0.0046328693,-0.0012147324,0.048841394,0.009152928,-0.009931159,0.03190479,0.11195329,0.11166267,0.2098942,7.6687265e-06,5.2858303e-07,0.00045460652,4.691522e-05,-9.107703e-05,0.0002699754,0,0,1
19232000,19074000,19080000,0,0.0,-0.01,0.02,0.09,0.09,0.20250002,0.00027227236,-0.002329236,-0.017252252,0.00520597,-0.0065525263,0.010057215,0.11155181,0.111279406,0.20979773,2.6582173e-08,1.9501688e-06,5.674803e-05,2.6075822e-05,-5.146509e-05,0.00012476496,0,0,1
19632000,19474000,19480000,0,0.02,0.0,0.02,0.09,0.09,0.20250002,-0.015024897,-0.01919297,-0.015374254,-0.0037855268,-0.012170501,-0.0012456616,0.111200705,0.110930905,0.20974204,8.120363e-05,0.00013282866,4.5077795e-05,-2.1603939e-05,-8.762668e-05,4.9279282e-05,0,0,1
20032000,19874000,19880000,0,0.01,0.0,0.01,0.09,0.09,0.20250002,0.0020288033,-0.03434042,-0.0040946696,-0.0012013798,-0.022023799,-0.0025118873,0.11086184,0.11058838,0.2096582,1.4851072e-06,0.0004265419,3.1987909e-06,-1.134214e-05,-0.00023825568,2.5955693e-05,0,0,1
20432000,20274000,20280000,0,0.0,0.0,0.02,0.09,0.09,0.20250002,0.0145799415,-0.03347139,-0.018214356,0.0058125407,-0.027111618,-0.009490764,0.110551484,0.11028028,0.20958248,7.6914286e-05,0.00040635877,6.3318796e-05,2.788294e-05,-0.00031296816,-1.3721861e-05,0,0,1
20832000,20674000,20680000,0,0.02,0.0,-0.03,0.09,0.09,0.20250002,-0.0067230817,-0.037117902,0.03160151,0.00024115248,-0.031558856,0.008772472,0.11023881,0.10997108,0.20954302,1.6400694e-05,0.0005011276,0.00019063492,8.201323e-06,-0.00039659458,7.710338e-05,0,0,1
21232000,21074000,21080000,0,0.0,0.0,0.0,0.09,0.09,0.20250002,0.022770341,-0.03858143,-0.0024638027,0.010254126,-0.03468,0.0037785717,0.10996124,0.10970639,0.2094751,0.00018860771,0.00054273114,1.1591495e-06,8.838194e-05,-0.00046154417,4.2320033e-05,0,0,1
21632000,21474000,21480000,0,0.0,0.0,-0.02,0.09,0.09,0.20250002,0.029042859,-0.044304527,0.019098531,0.018604673,-0.03895757,0.010587444,0.109684326,0.109449886,0.20944166,0.00030760554,0.0007173662,6.966215e-05,0.00018581466,-0.00057524286,5.4472086e-05,0,0,1
22032000,21874000,21880000,0,-0.01,0.0,0.02,0.09,0.09,0.20250002,0.040942848,-0.041609343,-0.017738972,0.02853275,-0.040136136,-0.0020020753,0.10942571,0.10920994,0.20938027,0.00061276887,0.00063413184,6.011476e-05,0.0003755721,-0.00060141576,3.5445955e-06,0,0,1
22432000,22274000,22280000,0,0.0,0.0,-0.03,0.09,0.09,0.20250002,0.030142942,-0.039783634,0.03441692,0.029248392,-0.03997947,0.014184147,0.10917291,0.10897627,0.20935178,0.00033290198,0.0005809476,0.00022632233,0.0003566076,-0.00059231883,0.00010255692,0,0,1
22832000,22674000,22680000,0,0.0,0.0,-0.01,0.09,0.09,0.20250002,0.039139275,-0.03669431,0.009305267,0.03364434,-0.038519397,0.012015756,0.108941734,0.108787164,0.20929584,0.00056245946,0.000495085,1.6548438e-05,0.00044809733,-0.00054910383,6.4330925e-05,0,0,1
23232000,23074000,23080000,0,0.0,0.01,-0.02,0.09,0.09,0.20250002,0.044202205,-0.04388705,0.020952392,0.038336724,-0.04090502,0.015987594,0.10873699,0.108600765,0.20924225,0.0007187379,0.0007094142,8.392239e-05,0.00056838203,-0.00062035286,7.3038245e-05,0,0,1
23632000,23474000,23480000,0,-0.01,0.03,-0.03,0.09,0.09,0.20250002,0.057357952,-0.055237085,0.033938535,0.046790604,-0.047274828,0.02396579,0.108532324,0.108410284,0.20922014,0.001212518,0.0011257734,0.00022021285,0.0008546647,-0.0008449842,0.00013844919,0,0,1
24032000,23874000,23880000,0,0.0,0.0,0.01,0.09,0.09,0.20250002,0.05012817,-0.010311981,-0.0054268558,0.048273966,-0.030846894,0.010902392,0.10836524,0.108248115,0.20917077,0.0009275422,3.929378e-05,5.6319077e-06,0.0008870547,-0.00048689955,7.441314e-05,0,0,1
24432000,24274000,24280000,0,-0.01,0.0,0.02,0.09,0.09,0.20250002,0.057751894,-0.0103833,-0.014236648,0.05248638,-0.021751963,-0.00027051568,0.10819724,0.108067185,0.20915177,0.0012330374,3.990588e-05,3.8762686e-05,0.0010408248,-0.00028823566,2.4112767e-05,0,0,1
24832000,24674000,24680000,0,0.01,0.02,-0.01,0.09,0.09,0.20250002,0.0363784,-0.02598087,0.014340768,0.045327276,-0.023631476,0.0062233885,0.108062446,0.10791561,0.209106,0.00048986037,0.00025019754,3.9340357e-05,0.0007959517,-0.00027132983,3.0880587e-05,0,0,1
25232000,25074000,25080000,0,0.0,-0.02,0.01,0.09,0.09,0.20250002,0.054258056,0.013778092,-0.011745201,0.049296513,-0.0070050005,-0.0017626523,0.10791721,0.10778952,0.20908968,0.0010911834,7.044686e-05,2.6390544e-05,0.0009271658,-0.00011942907,5.4267493e-06,0,0,1
25632000,25474000,25480000,0,0.0,0.0,0.01,0.09,0.09,0.20250002,0.06382064,-0.012076267,-0.007904658,0.05575168,-0.009258897,-0.004492433,0.10778627,0.10768338,0.20904703,0.0015115371,5.417223e-05,1.1955896e-05,0.0011868863,-9.042602e-05,-2.2988716e-06,0,0,1
26032000,25874000,25880000,0,0.0,0.01,0.0,0.09,0.09,0.20250002,0.06516612,-0.019026868,-0.0016593263,0.05993588,-0.013600217,-0.0032332742,0.10766737,0.10756101,0.20903298,0.0015776827,0.00013462934,5.268764e-07,0.0013605736,-0.000110071946,-1.511318e-06,0,0,1
26432000,26274000,26280000,0,0.0,0.02,-0.01,0.09,0.09,0.20250002,0.0632061,-0.024340713,0.0069573885,0.06138931,-0.018373773,0.0012959095,0.10755624,0.10743409,0.20899482,0.0014857386,0.00022058934,9.264393e-06,0.0014162024,-0.0001591908,3.2778873e-06,0,0,1
26832000,26674000,26680000,0,0.0,-0.01,-0.02,0.09,0.09,0.20250002,0.06262495,0.010755332,0.0144886635,0.061938483,-0.005427503,0.007159356,0.107461825,0.1073256,0.20895943,0.0014598245,4.311261e-05,4.018414e-05,0.00143559,-6.927816e-05,1.9680667e-05,0,0,1
27232000,27074000,27080000,0,0.0,0.0,0.0,0.09,0.09,0.20250002,0.053889364,0.00012682787,-0.008164033,0.0583611,-0.0029589112,0.00034896005,0.107361354,0.107205026,0.20892532,0.0010819773,6.0016996e-09,1.27608155e-05,0.0012784288,-3.8485196e-05,5.262229e-06,0,0,1
27632000,27474000,27480000,0,0.0,0.0,0.0,0.09,0.09,0.20250002,0.05956564,0.0058971024,-0.0078592375,0.058896452,0.000977095,-0.003299128,0.10728426,0.107125886,0.2089178,0.0013228654,1.2985029e-05,1.1826204e-05,0.0012981785,-1.5609538e-05,-2.332631e-06,0,0,1
28032000,27874000,27880000,0,0.0,0.0,-0.02,0.09,0.09,0.20250002,0.058949016,0.0056938543,0.011146862,0.058919813,0.0030734327,0.0031213125,0.10719119,0.10703865,0.20888433,0.0012967433,1.2115241e-05,2.3793556e-05,0.0012975406,-3.2874132e-06,9.279009e-06,0,0,1
28432000,28274000,28280000,0,0.0,-0.01,0.01,0.09,0.09,0.20250002,0.062599674,0.01805361,-0.021642523,0.060555305,0.00973129,-0.007884838,0.107122466,0.106971115,0.20887715,0.0014632669,0.000121876954,8.969843e-05,0.0013711967,5.23412e-05,-3.4710967e-05,0,0,1
28832000,28674000,28680000,0,0.0,0.02,0.01,0.09,0.09,0.20250002,0.064219095,-0.013801118,-0.01190185,0.062183656,-0.00072755944,-0.009670177,0.10703173,0.10688995,0.20884462,0.0015412595,7.1277376e-05,2.713099e-05,0.0014467802,-2.6003909e-06,-3.134209e-05,0,0,1
29232000,29074000,29080000,0,-0.01,0.0,-0.01,0.09,0.09,0.20250002,0.07130243,0.017304564,0.0025323052,0.066236444,0.007286718,-0.004246851,0.10698795,0.106829844,0.20881246,0.0019007884,0.00011212146,1.2283883e-06,0.0016485616,4.83871e-05,-1.6866321e-05,0,0,1
29632000,29474000,29480000,0,0.0,0.0,0.0,0.09,0.09,0.20250002,0.058977906,0.018084634,-0.013522148,0.063010424,0.012085792,-0.0083692055,0.106920555,0.10677175,0.20880656,0.0013013001,0.00012252454,3.5027348e-05,0.0014942231,8.133707e-05,-2.493789e-05,0,0,1
30032000,29874000,29880000,0,0.01,0.0,-0.04,0.09,0.09,0.20250002,0.050233692,0.017736929,0.03466968,0.057331875,0.0145974085,0.010759188,0.106843635,0.10670722,0.20877732,0.0009447166,0.00011792965,0.00023029062,0.001249998,9.760044e-05,8.849701e-05,0,0,1
30424000,30270000,30272000,0,0.0,0.0,0.02,0.09,0.09,0.20250002,0.060482077,0.024567362,-0.026840184,0.05872415,0.019003771,-0.0058583897,0.10673328,0.10659067,0.2087624,0.0013709245,0.00022649461,0.00013803165,0.0013034432,0.00015456705,-1.162057e-05,0,0,1
30832000,30674000,30680000,0,0.0,0.0,0.01,0.09,0.09,0.20250002,0.0585212,0.02559695,-0.020983042,0.05863345,0.02195028,-0.0126176365,0.106765516,0.10663293,0.20874754,0.001283085,0.0002457792,8.436757e-05,0.001294345,0.00019533001,-4.4131397e-05,0,0,1
31232000,31074000,31080000,0,0.01,0.0,0.0,0.09,0.09,0.20250002,0.04410643,0.029260485,-0.012881905,0.052176997,0.02519926,-0.012735089,0.10672234,0.10659124,0.20871909,0.00072913594,0.00032129316,3.180226e-05,0.0010431409,0.00025131364,-3.865178e-05,0,0,1
31632000,31474000,31480000,0,0.01,0.0,0.03,0.09,0.09,0.20250002,0.047066405,0.029199347,-0.0372641,0.049905624,0.026977077,-0.023636874,0.10665642,0.106540784,0.20871587,0.00083079725,0.00032010346,0.00026612508,0.0009487659,0.0002818869,-0.00013975104,0,0,1
32032000,31874000,31880000,0,0.0,-0.01,-0.07,0.09,0.09,0.20250002,0.050497293,0.04383444,0.060910642,0.05016859,0.03446924,0.013939805,0.10662032,0.1065116,0.20868823,0.0009566569,0.00072159583,0.00071112905,0.000952273,0.00047731312,0.00023841791,0,0,1
32432000,32274000,32280000,0,0.0,0.0,0.02,0.09,0.09,0.20250002,0.049788326,0.029833458,-0.023845736,0.049999584,0.032408893,-0.0028537698,0.10655694,0.10646708,0.2086615,0.00093053625,0.0003343889,0.000109003166,0.00094261224,0.00041379125,8.400854e-05,0,0,1
32832000,32674000,32680000,0,0.0,0.01,0.02,0.09,0.09,0.20250002,0.0473847,0.02499107,-0.02022711,0.048837412,0.029112082,-0.010575255,0.10651119,0.10643186,0.20866115,0.0008432203,0.00023472433,7.843069e-05,0.00089843804,0.00033420595,1.1813325e-05,0,0,1
33232000,33074000,33080000,0,0.0,0.0,0.02,0.09,0.09,0.20250002,0.04155162,0.03477591,-0.018127564,0.04559928,0.03162934,-0.013931837,0.10647161,0.10640992,0.20863655,0.00064863754,0.00045460564,6.300116e-05,0.0007874156,0.00038771692,-2.1437558e-05,0,0,1
33632000,33474000,33480000,0,0.01,0.0,0.0,0.09,0.09,0.20250002,0.036508165,0.040498488,0.0053457916,0.041558787,0.035571184,-0.0053640017,0.10643293,0.10636971,0.20863613,0.00050091493,0.0006167648,5.4789143e-06,0.000660082,0.000489516,-9.47468e-06,0,0,1
34032000,33874000,33880000,0,0.01,0.0,0.04,0.09,0.09,0.20250002,0.035167046,0.04394672,-0.02924741,0.038718015,0.039293647,-0.01597885,0.10640292,0.10634351,0.20861185,0.00046492,0.00072644366,0.00016401964,0.0005733433,0.0005948172,-7.8161334e-05,0,0,1
34432000,34274000,34280000,0,-0.01,-0.01,0.0,0.09,0.09,0.20250002,0.055301905,0.051138572,0.007571943,0.046088632,0.04455806,-0.0055118306,0.10636597,0.10632096,0.20861155,0.0011501049,0.0009838713,1.0993509e-05,0.0008296818,0.0007677302,-3.8536957e-05,0,0,1
34832000,34674000,34680000,0,0.0,-0.02,-0.099999994,0.09,0.09,0.20250002,0.04205252,0.056675136,0.107094094,0.044294804,0.04994343,0.04453525,0.1063399,0.1063011,0.2085878,0.00066519313,0.001208669,0.0021993895,0.0007565757,0.00096370303,0.00095609715,0,0,1
35232000,35074000,35080000,0,0.0,0.01,0.0,0.09,0.09,0.20250002,0.039145738,0.02175651,0.002356723,0.04200633,0.037415907,0.025789237,0.10630956,0.10627973,0.20856434,0.0005765761,0.00017815088,1.0652144e-06,0.0006765759,0.0006145687,0.0005316385,0,0,1
35632000,35474000,35480000,0,0.02,-0.01,0.0,0.09,0.09,0.20250002,0.014746293,0.042802267,-0.00027772097,0.029890757,0.039809845,0.014203922,0.10628287,0.10626349,0.2085436,8.183941e-05,0.00068961945,1.4793825e-08,0.00041224854,0.0006479246,0.00029534812,0,0,1
36032000,35878000,35880000,0,0.01,-0.01,0.04,0.09,0.09,0.20250002,0.017487977,0.0417187,-0.041938797,0.024347922,0.04066292,-0.010886406,0.10626659,0.10626336,0.20854755,0.00011511778,0.0006551458,0.00033735475,0.00027946004,0.00065115176,1.2591539e-05,0,0,1
36432000,36274000,36280000,0,0.0,0.0,0.03,0.09,0.09,0.20250002,0.02704482,0.025406962,-0.027920818,0.025539855,0.033920333,-0.018415008,0.106244266,0.10623795,0.20852785,0.00027537384,0.0002430445,0.00014953822,0.0002776541,0.00047078292,-5.906402e-05,0,0,1
36832000,36674000,36680000,0,0.02,0.01,-0.03,0.09,0.09,0.20250002,0.00835819,0.011736283,0.035546876,0.017903559,0.024060754,0.0055680536,0.106236115,0.10621241,0.20853092,2.6303424e-05,5.187354e-05,0.00024237756,0.00016594268,0.00028460094,7.491002e-05,0,0,1
37232000,37074000,37080000,0,0.02,0.01,-0.01,0.09,0.09,0.20250002,0.01505762,0.0065870825,0.015768105,0.016638696,0.016294677,0.01010141,0.10622991,0.10618157,0.20851079,8.537404e-05,1.6345457e-05,4.769694e-05,0.00013013439,0.00016537629,6.281532e-05,0,0,1
37632000,37474000,37480000,0,0.0,0.0,0.02,0.09,0.09,0.20250002,0.03369216,0.0076854946,-0.019107897,0.024218014,0.012468373,-0.0028805053,0.10625321,0.10617262,0.20849125,0.00042734208,2.225313e-05,7.004835e-05,0.00026222668,0.000101765996,3.764795e-06,0,0,1
38032000,37874000,37880000,0,0.0,0.0,0.0,0.09,0.09,0.20250002,0.031425927,-0.0076368144,0.00056032836,0.02742153,0.0035327338,-0.0013512458,0.10628941,0.10615285,0.20849559,0.00037166034,2.197621e-05,6.0234925e-08,0.00031086386,4.6769455e-05,2.1183237e-06,0,0,1
38432000,38274000,38280000,0,0.01,-0.01,0.01,0.09,0.09,0.20250002,0.018323889,0.000784155,-0.017787825,0.023378134,0.002311143,-0.008656393,0.10628259,0.10614083,0.20847683,0.00012636684,2.3172949e-07,6.0708277e-05,0.00022886519,2.608602e-05,-2.5804611e-05,0,0,1
38832000,38674000,38680000,0,0.0,0.02,-0.01,0.09,0.09,0.20250002,0.03280089,-0.03900454,0.008633928,0.027566027,-0.016051386,-0.0009718053,0.10630214,0.106116995,0.20845859,0.0004048454,0.0005734629,1.4303985e-05,0.00030707862,-0.00024038018,-7.978568e-06,0,0,1
39232000,39074000,39080000,0,0.0,0.01,0.0,0.09,0.09,0.20250002,0.025336958,-0.031074403,-0.0029262602,0.02657533,-0.022728283,-0.001840452,0.10630205,0.10610612,0.2084638,0.00024156127,0.0003640199,1.6430669e-06,0.0002779598,-0.00029533118,-5.1627894e-06,0,0,1
39632000,39474000,39480000,0,0.01,0.0,0.03,0.09,0.09,0.20250002,0.015845569,-0.025036318,-0.038422562,0.021806547,-0.023754077,-0.018099168,0.1063103,0.10609594,0.20842586,9.44714e-05,0.0002363209,0.00028332247,0.00019640938,-0.00026910438,-0.00012878932,0,0,1
40032000,39874000,39880000,0,0.01,0.0,-0.01,0.09,0.09,0.20250002,0.018733207,-0.029184697,1.8347055e-06,0.020440618,-0.026167687,-0.010054277,0.10629997,0.10607818,0.20843366,0.00013205387,0.00032117692,6.459886e-13,0.00016780692,-0.00029224774,-7.154962e-05,0,0,1
40432000,40274000,40280000,0,-0.01,0.0,-0.01,0.09,0.09,0.20250002,0.040829286,-0.036085006,-0.006776279,0.029502248,-0.030575383,-0.008597389,0.10631308,0.10607055,0.20841812,0.00062721566,0.0004910421,8.812661e-06,0.0003719886,-0.0003806008,-4.3666525e-05,0,0,1
40832000,40674000,40680000,0,0.01,0.0,-0.01,0.09,0.09,0.20250002,0.009976946,-0.039279822,-0.004881492,0.020824336,-0.034444023,-0.006945879,0.106289,0.10605843,0.20840353,3.7459926e-05,0.0005819073,4.5736197e-06,0.00022330918,-0.00047007034,-2.6291898e-05,0,0,1
41224000,41070000,41072000,0,-0.01,0.0,0.0,0.09,0.09,0.20250002,0.0258167,-0.04136303,-0.017429918,0.023030782,-0.037501976,-0.01157945,0.10620376,0.1059886,0.20840111,0.00025102764,0.0006456922,5.8311023e-05,0.00023555975,-0.0005476889,-4.0443207e-05,0,0,1
41632000,41474000,41480000,0,0.0,0.01,0.0,0.09,0.09,0.20250002,0.012794266,-0.04774104,-0.011340082,0.018456057,-0.04207784,-0.011472476,0.10622552,0.10605201,0.20839904,6.16399e-05,0.0008596563,2.4682926e-05,0.00015783451,-0.00068710797,-3.3399894e-05,0,0,1
42032000,41874000,41880000,0,0.01,0.0,0.0,0.09,0.09,0.20250002,-0.0002919333,-0.040044688,-0.012554353,0.010123616,-0.041174218,-0.01195331,0.10620455,0.10603864,0.20838371,3.209846e-08,0.0006049029,3.0254145e-05,8.7671564e-05,-0.00065057236,-3.2001783e-05,0,0,1
42424000,42270000,42272000,0,0.01,0.0,0.0,0.09,0.09,0.20250002,-0.0012709368,-0.040280644,-0.0055685937,0.005087631,-0.04077929,-0.009131493,0.10610244,0.105958834,0.20838124,6.0895127e-07,0.00061251345,5.952405e-06,4.865473e-05,-0.0006337517,-2.048889e-05,0,0,1
42832000,42674000,42680000,0,0.0,0.0,0.0,0.09,0.09,0.20250002,0.004451095,-0.046578668,-0.009263292,0.004803161,-0.043371048,-0.009190395,0.106175505,0.10603433,0.20837842,7.463961e-06,0.0008184415,1.6471682e-05,3.0246467e-05,-0.00071629003,-1.8693589e-05,0,0,1
43232000,43074000,43080000,0,0.0,-0.01,0.0,0.09,0.09,0.20250002,0.0030140076,-0.03461452,-0.011653915,0.0040079816,-0.039479256,-0.010285293,0.10613911,0.10602266,0.2083644,3.423523e-06,0.00045204104,2.607235e-05,1.8325158e-05,-0.000598846,-2.197304e-05,0,0,1
43624000,43470000,43472000,0,-0.01,0.0,0.0,0.09,0.09,0.20250002,0.0077548707,-0.051577035,-0.018678397,0.005663973,-0.044826042,-0.013994745,0.10606195,0.10595289,0.20836115,2.2680337e-05,0.0010042918,6.69765e-05,2.024999e-05,-0.0007780386,-4.186296e-05,0,0,1
44032000,43874000,43880000,0,0.0,0.0,0.0,0.09,0.09,0.20250002,-0.017284557,-0.04393734,-0.015580483,-0.004591786,-0.044428878,-0.014703415,0.10609708,0.106041804,0.20835762,0.00011263492,0.00072819955,4.6602843e-05,-3.913663e-05,-0.00075576536,-4.398123e-05,0,0,1
44432000,44274000,44280000,0,-0.01,-0.01,0.0,0.09,0.09,0.20250002,-0.008734543,-0.027322138,-0.014499739,-0.0064330115,-0.03682588,-0.014612893,0.10605047,0.1060229,0.20834135,2.8775823e-05,0.00028163698,4.036499e-05,-3.4531826e-05,-0.00054504164,-4.2374013e-05,0,0,1
44832000,44674000,44680000,0,0.01,-0.01,-0.01,0.09,0.09,0.20250002,-0.041209787,-0.025189081,-0.0048733633,-0.021889359,-0.03165397,-0.010284212,0.10603042,0.106031425,0.2083468,0.0006406639,0.00023935916,4.5596416e-06,-0.0003039239,-0.00040918274,-2.5567624e-05,0,0,1
45232000,45074000,45080000,0,0.0,0.0,0.0,0.09,0.09,0.20250002,-0.044523984,-0.03838885,-0.012437642,-0.031949192,-0.03464725,-0.011241293,0.1060115,0.10605033,0.20833072,0.00074798864,0.0005558507,2.97018e-05,-0.000501286,-0.0004743685,-2.7405036e-05,0,0,1
45632000,45474000,45480000,0,0.01,0.0,0.0,0.09,0.09,0.20250002,-0.059662983,-0.031010702,-0.013106254,-0.044266433,-0.033031005,-0.012070164,0.10598945,0.10604798,0.20831601,0.001343406,0.00036272776,3.2983327e-05,-0.0008755616,-0.00042475038,-2.9884277e-05,0,0,1
46032000,45874000,45880000,0,0.0,0.01,-0.01,0.09,0.09,0.20250002,-0.06107699,-0.03636659,-0.0034848284,-0.051737793,-0.03451349,-0.008254459,0.10598566,0.106075674,0.20830268,0.0014078881,0.0004987114,2.3319967e-06,-0.0011121512,-0.00045762197,-1.7638818e-05,0,0,1
46432000,46274000,46280000,0,-0.01,0.0,0.04,0.09,0.09,0.20250002,-0.05666057,-0.016667215,-0.04884576,-0.053925693,-0.02658181,-0.026295038,0.105974406,0.10606907,0.20831046,0.0012117719,0.00010476044,0.0004581447,-0.0011564271,-0.0003007946,-0.00021341922,0,0,1
46832000,46674000,46680000,0,-0.01,0.0,0.0,0.09,0.09,0.20250002,-0.063185915,-0.016688228,-0.008081153,-0.05804135,-0.022184663,-0.018199977,0.10597765,0.1060667,0.20829609,0.0015069064,0.0001050271,1.2540809e-05,-0.0013121957,-0.00021378681,-0.00012413991,0,0,1
47232000,47074000,47080000,0,0.0,-0.01,0.01,0.09,0.09,0.20250002,-0.0740384,-0.0022777067,-0.02084841,-0.06515115,-0.013337126,-0.019377058,0.10597727,0.106037796,0.20830296,0.002069004,1.9570184e-06,8.346616e-05,-0.001648555,-0.00011964023,-0.00010606269,0,0,1
47632000,47474000,47480000,0,0.0,0.02,-0.01,0.09,0.09,0.20250002,-0.07118855,-0.029955588,0.0037745778,-0.06783444,-0.02072311,-0.0090874415,0.10598363,0.10600178,0.20828854,0.0019126761,0.00033861215,2.7360963e-06,-0.0017659422,-0.00021696108,-5.770767e-05,0,0,1
48032000,47874000,47880000,0,0.0,0.01,0.04,0.09,0.09,0.20250002,-0.06606326,-0.012241368,-0.056546874,-0.067047246,-0.016953446,-0.030180523,0.10599296,0.10597519,0.20827523,0.0016470357,5.6560824e-05,0.00061410066,-0.0017130949,-0.00014567206,-0.00030499347,0,0,1
48432000,48274000,48280000,0,0.01,0.0,0.01,0.09,0.09,0.20250002,-0.07961053,0.009376043,-0.029405871,-0.07263093,-0.0052514495,-0.029836234,0.1060217,0.105970606,0.20828292,0.0023911467,3.318286e-05,0.0001660636,-0.0020144512,-6.618098e-05,-0.00024324686,0,0,1
48832000,48674000,48680000,0,0.0,0.0,-0.03,0.09,0.09,0.20250002,-0.07341113,0.009622874,0.008715881,-0.072977684,0.0013593612,-0.01270196,0.10601722,0.10596446,0.2082689,0.002033328,3.4955003e-05,1.4590098e-05,-0.0020228408,-2.1231652e-05,-0.00012865265,0,0,1
49232000,49074000,49080000,0,0.03,0.0,0.03,0.09,0.09,0.20250002,-0.10201214,0.012732568,-0.04724826,-0.08588189,0.00641412,-0.028055873,0.106013715,0.10593748,0.20827593,0.0039264644,6.121281e-05,0.00042873854,-0.002868896,1.5410336e-05,-0.00026202417,0,0,1
49632000,49474000,49480000,0,0.01,-0.03,0.04,0.09,0.09,0.20250002,-0.07670017,0.03739925,-0.055179454,-0.081801124,0.020185292,-0.040110797,0.10599876,0.10592316,0.20826153,0.0022199943,0.00052819576,0.0005847978,-0.002580495,0.00024331496,-0.00040547914,0,0,1
50032000,49874000,49880000,0,0.01,0.0,0.0,0.09,0.09,0.20250002,-0.07540127,0.0010673743,-0.01065585,-0.078956746,0.011688439,-0.02701971,0.10598181,0.105906025,0.20824806,0.002145784,4.3030138e-07,2.1809978e-05,-0.0023872901,0.00013536622,-0.0002349595,0,0,1
50424000,50270000,50272000,0,0.0,0.0,0.04,0.09,0.09,0.20250002,-0.058887903,0.007602582,-0.040838443,-0.07008703,0.009882636,-0.033127096,0.105922095,0.10582458,0.20824647,0.0013095606,2.1847194e-05,0.00032034703,-0.0019109722,8.519487e-05,-0.00027269774,0,0,1
50832000,50674000,50680000,0,0.0,0.0,0.0,0.09,0.09,0.20250002,-0.0659514,0.0027136756,0.0017760321,-0.06823881,0.006678809,-0.017528795,0.1059784,0.10589981,0.20824471,0.001641688,2.7815104e-06,6.058815e-07,-0.0017906284,4.8364123e-05,-0.00015055764,0,0,1
51232000,51074000,51080000,0,-0.01,0.01,-0.01,0.09,0.09,0.20250002,-0.0618805,-0.00082191825,0.009360874,-0.065412894,0.0033451521,-0.0055778297,0.10598687,0.10589885,0.20825197,0.0014451586,2.5516786e-07,1.6830758e-05,-0.0016370863,2.6755548e-05,-7.616279e-05,0,0,1
51632000,51478000,51480000,0,0.0,0.0,0.0,0.09,0.09,0.20250002,-0.08318428,0.008561077,-0.00043523312,-0.073354974,0.0056761624,-0.0032795898,0.10596684,0.10589512,0.20823891,0.002611996,2.7684762e-05,3.638664e-08,-0.002072776,2.7170816e-05,-4.21417e-05,0,0,1
52032000,51874000,51880000,0,0.0,0.01,0.03,0.09,0.09,0.20250002,-0.08421209,-0.0067803306,-0.030147469,-0.07815343,0.00017083762,-0.015154233,0.10595428,0.10589,0.20822659,0.0026772586,1.736628e-05,0.00017459247,-0.0023399356,7.4870095e-06,-0.000100680205,0,0,1
52432000,52274000,52280000,0,0.0,0.0,0.01,0.09,0.09,0.20250002,-0.076816246,0.005924067,-0.014022479,-0.07755913,0.0027278287,-0.0146512315,0.10594801,0.10588308,0.20823473,0.0022277853,1.3257859e-05,3.777082e-05,-0.002290091,1.0051832e-05,-7.2720475e-05,0,0,1
52832000,52674000,52680000,0,0.0,0.0,0.0,0.09,0.09,0.20250002,-0.07498441,0.00965865,-0.005978254,-0.07641481,0.0058081937,-0.010796575,0.10594322,0.10587917,0.20822176,0.0021228963,3.5243764e-05,6.865665e-06,-0.0022157822,2.1248246e-05,-4.345167e-05,0,0,1
53232000,53074000,53080000,0,0.0,0.0,-0.04,0.09,0.09,0.20250002,-0.07447417,0.01322549,0.03315775,-0.0755523,0.00910477,0.008738684,0.10594869,0.10588017,0.20820846,0.0020939957,6.6079825e-05,0.00021121839,-0.0021616549,4.1173393e-05,6.9735026e-05,0,0,1
53632000,53474000,53480000,0,0.0,-0.01,0.0,0.09,0.09,0.20250002,-0.06544618,0.03127759,-0.013033204,-0.071060695,0.018959358,-0.00093771145,0.105955824,0.105889656,0.20821606,0.0016169769,0.00036954985,3.2632335e-05,-0.0019195757,0.0001871185,2.423842e-05,0,0,1
54032000,53874000,53880000,0,-0.01,0.0,0.04,0.09,0.09,0.20250002,-0.049787566,0.027443592,-0.0538769,-0.06160597,0.022730129,-0.02446624,0.10597152,0.10590254,0.20820257,0.00093564816,0.00028446937,0.00055767235,-0.0014822745,0.00023038554,-0.0002343886,0,0,1
54432000,54274000,54280000,0,0.0,-0.01,0.01,0.09,0.09,0.20250002,-0.05331904,0.04078294,-0.02623641,-0.057922892,0.030753601,-0.025252983,0.10596809,0.10592277,0.20818934,0.0010731232,0.00062809844,0.00013225446,-0.0013004295,0.00040714684,-0.00018899565,0,0,1
54832000,54674000,54680000,0,0.01,0.0,0.0,0.09,0.09,0.20250002,-0.05795782,0.029790511,-0.018771231,-0.057938416,0.030325562,-0.022372205,0.1059649,0.10594179,0.2081984,0.0012680081,0.00033508005,6.76968e-05,-0.00128602,0.00037511715,-0.00013508505,0,0,1
55232000,55074000,55080000,0,0.0,0.03,-0.01,0.09,0.09,0.20250002,-0.042948704,0.008532135,-0.0116370525,-0.051276322,0.020639595,-0.017601026,0.105972625,0.10595311,0.20818627,0.000696252,2.7482845e-05,2.60192e-05,-0.0010239009,0.000220613,-8.661134e-05,0,0,1
55632000,55474000,55480000,0,-0.01,0.01,0.01,0.09,0.09,0.20250002,-0.03468693,0.037466086,-0.02680538,-0.043903258,0.028118037,-0.021691851,0.10597551,0.10594506,0.20819467,0.00045413632,0.0005299757,0.00013804933,-0.00077067217,0.00035810756,-0.000109472676,0,0,1
56032000,55874000,55880000,0,0.0,0.0,-0.04,0.09,0.09,0.20250002,-0.042396534,0.05435817,0.024100296,-0.043233603,0.03978032,-0.0013397839,0.105977744,0.10595037,0.20818211,0.00067843153,0.0011155452,0.00011159927,-0.00072967634,0.0006947465,-1.1218472e-05,0,0,1
56432000,56274000,56280000,0,-0.01,-0.02,-0.02,0.09,0.09,0.20250002,-0.031302013,0.07263616,0.003207866,-0.037930675,0.054382913,0.000681394,0.10596147,0.10594763,0.20819005,0.0003698763,0.0019919318,1.9771176e-06,-0.0005697652,0.0012712734,-5.3537647e-06,0,0,1
56832000,56678000,56680000,0,-0.02,0.0,0.0,0.09,0.09,0.20250002,-0.015931569,0.05487463,-0.017022647,-0.028099217,0.05460266,-0.007230589,0.10597348,0.10596406,0.2081784,9.580317e-05,0.0011366967,5.5677345e-05,-0.00035795034,0.0012111306,-2.7843504e-05,0,0,1
57232000,57074000,57080000,0,0.0,-0.02,0.0,0.09,0.09,0.20250002,-0.039474264,0.07707524,-0.020870753,-0.03312658,0.06453474,-0.013259054,0.105966024,0.10595579,0.2081671,0.0005881951,0.0022426688,8.369974e-05,-0.0004597103,0.0016670336,-5.2529966e-05,0,0,1
57632000,57474000,57480000,0,0.0,0.0,0.0,0.09,0.09,0.20250002,-0.03713415,0.05998181,-0.02049476,-0.03490772,0.06251121,-0.016474923,0.10597782,0.10595421,0.208176,0.0005204655,0.0013582539,8.07077e-05,-0.0004867126,0.0015297981,-6.5053406e-05,0,0,1
58024000,57870000,57872000,0,0.02,0.0,-0.01,0.09,0.09,0.20250002,-0.05966642,0.065277316,-0.007854981,-0.04585018,0.063733734,-0.012665217,0.10590983,0.10586533,0.20815457,0.0013445708,0.0016100184,1.1856713e-05,-0.00086585525,0.0015652527,-4.1542367e-05,0,0,1
58432000,58274000,58280000,0,0.01,-0.01,-0.01,0.09,0.09,0.20250002,-0.037423737,0.077680245,-0.010317182,-0.04208438,0.069966465,-0.011615874,0.105992265,0.10596824,0.20817405,0.00052854273,0.0022777468,2.0452931e-05,-0.0007151094,0.0018836681,-3.2117445e-05,0,0,1
58832000,58674000,58680000,0,0.0,0.01,0.03,0.09,0.09,0.20250002,-0.023119012,0.06565744,-0.041386314,-0.033655327,0.06805134,-0.024847182,0.105995506,0.10595679,0.20816156,0.00020170241,0.0016274176,0.00032913414,-0.0004869285,0.001769779,-0.00016412488,0,0,1
59232000,59074000,59080000,0,0.0,0.01,0.01,0.09,0.09,0.20250002,-0.026475957,0.07005796,-0.015715843,-0.030464495,0.06894317,-0.020788807,0.10598115,0.10592805,0.20814887,0.0002645664,0.0018533778,4.7463673e-05,-0.0003881009,0.001806934,-0.000112275455,0,0,1
59632000,59474000,59480000,0,-0.01,0.02,0.049999997,0.09,0.09,0.20250002,-0.020968119,0.06821315,-0.055284515,-0.026243882,0.068618715,-0.036120236,0.105993755,0.10590818,0.20815817,0.00016591996,0.0017573842,0.0005873183,-0.0002893538,0.0017849118,-0.00032340563,0,0,1
60032000,59874000,59880000,0,0.0,0.02,0.02,0.09,0.09,0.20250002,-0.04391531,0.06281991,-0.027711842,-0.03409785,0.06604147,-0.032383174,0.10595518,0.10587518,0.20814705,0.0007280642,0.0014909412,0.00014757762,-0.00048433623,0.0016542582,-0.00024525984,0,0,1
60432000,60274000,60280000,0,0.01,0.0,-0.02,0.09,0.09,0.20250002,-0.057601236,0.087541915,0.015896853,-0.0445438,0.07559723,-0.010925382,0.105954215,0.10586269,0.2081372,0.0012525796,0.0028956705,4.8566028e-05,-0.00082577777,0.002205997,-0.00011467056,0,0,1
60832000,60674000,60680000,0,0.02,0.0,0.0,0.09,0.09,0.20250002,-0.07133023,0.086747944,-0.004495144,-0.056448877,0.0805531,-0.008067498,0.10594295,0.10585,0.20814718,0.0019210345,0.0028437246,3.8830826e-06,-0.0013125585,0.0024894315,-6.543168e-05,0,0,1
61224000,61070000,61072000,0,0.0,-0.02,0.01,0.09,0.09,0.20250002,-0.045476653,0.106613085,-0.018533858,-0.051599547,0.092070684,-0.012693254,0.105884,0.10579197,0.20812705,0.0007812799,0.004297623,6.601811e-05,-0.0010777523,0.0032885876,-6.569086e-05,0,0,1
61632000,61474000,61480000,0,0.02,0.0,-0.01,0.09,0.09,0.20250002,-0.056132156,0.08630085,0.004000062,-0.05362518,0.08949213,-0.0052329674,0.10596181,0.1058784,0.2081269,0.0011894167,0.0028137323,3.0751423e-06,-0.0011276555,0.0030763734,-3.4959154e-05,0,0,1
62032000,61874000,61880000,0,0.0,0.02,0.02,0.09,0.09,0.20250002,-0.03588366,0.07269877,-0.021215279,-0.04574006,0.08202841,-0.012336217,0.10596022,0.10586373,0.20813562,0.00048608324,0.0019969488,8.649899e-05,-0.00084251224,0.002596629,-5.786575e-05,0,0,1
62432000,62274000,62280000,0,0.02,0.0,-0.01,0.09,0.09,0.20250002,-0.044423826,0.09144449,0.015819745,-0.045155067,0.086213335,0.00017754454,0.10594368,0.10587627,0.20812368,0.0007451039,0.0031591952,4.8099155e-05,-0.00079921965,0.0028466585,-1.0770233e-05,0,0,1
62832000,62674000,62680000,0,-0.01,0.0,0.01,0.09,0.09,0.20250002,-0.0043301294,0.085576124,-0.0028506014,-0.027010648,0.08593013,-0.0011682982,0.105924964,0.105885066,0.20813198,7.0804913e-06,0.0027664988,1.5616877e-06,-0.00044715777,0.0028110319,-6.6775456e-06,0,0,1
63232000,63074000,63080000,0,0.01,-0.01,0.0,0.09,0.09,0.20250002,-0.01584024,0.09315274,0.0052029714,-0.022046022,0.08914018,0.0016633774,0.10592799,0.105913684,0.2081213,9.474859e-05,0.0032771716,5.2029104e-06,-0.00029053146,0.003018205,-1.3973422e-06,0,0,1
63632000,63474000,63480000,0,0.0,-0.01,-0.02,0.09,0.09,0.20250002,-0.0011352025,0.0842234,0.020444695,-0.012752323,0.086954944,0.01001063,0.105920374,0.105920374,0.20811065,4.866617e-07,0.002678835,8.03391e-05,-0.00016162265,0.0028673739,3.4929966e-05,0,0,1
64032000,63874000,63880000,0,0.01,0.01,0.0,0.09,0.09,0.20250002,-0.0068236636,0.058123864,0.0068456233,-0.010117363,0.07414113,0.00860396,0.105910435,0.105923235,0.20811993,1.7585571e-05,0.0012757856,9.006837e-06,-9.7606164e-05,0.0021600013,2.3408575e-05,0,0,1
64432000,64278000,64280000,0,0.0,0.01,0.0,0.09,0.09,0.20250002,0.007644306,0.048026644,0.004643686,-0.0021796264,0.062470496,0.0068341033,0.1059237,0.105932266,0.20810874,2.2066983e-05,0.00087095593,4.144722e-06,-4.412392e-05,0.0015839236,1.4799508e-05,0,0,1
64832000,64674000,64680000,0,0.0,-0.02,0.0,0.09,0.09,0.20250002,0.005211448,0.0687778,0.0036732107,0.0010869643,0.0652581,0.0054371017,0.10593379,0.10591678,0.20811753,1.0255156e-05,0.0017864536,2.593242e-06,-2.0090312e-05,0.0016734346,9.404775e-06,0,0,1
65232000,65074000,65080000,0,-0.02,-0.01,-0.01,0.09,0.09,0.20250002,0.027400974,0.045689426,0.015745776,0.01278208,0.05656091,0.010018734,0.10595672,0.10591765,0.20810609,0.00028344156,0.0007883573,4.7654437e-05,0.00011481275,0.0012800669,2.6404625e-05,0,0,1
65632000,65474000,65480000,0,-0.01,-0.02,0.0,0.09,0.09,0.20250002,0.023810113,0.046914443,0.0072479993,0.017683428,0.052273594,0.008787297,0.10596901,0.105936944,0.2081146,0.0002139952,0.0008310472,1.0097033e-05,0.00015889385,0.0010805025,1.9156805e-05,0,0,1
66032000,65874000,65880000,0,0.01,0.03,0.0,0.09,0.09,0.20250002,-0.00028103497,-0.022220405,0.012320683,0.009699221,0.019165147,0.010357691,0.10600416,0.10591293,0.20810305,2.980285e-08,0.00018647255,2.9177705e-05,8.8261106e-05,0.0005174024,2.3610539e-05,0,0,1
66432000,66274000,66280000,0,-0.01,-0.01,0.0,0.09,0.09,0.20250002,0.022643633,0.01644672,0.011063643,0.015452294,0.017956957,0.010671447,0.1060299,0.10590941,0.20809135,0.00019343001,0.00010216076,2.3528934e-05,0.00013500285,0.00033285056,2.357427e-05,0,0,1
66832000,66674000,66680000,0,0.0,0.01,0.03,0.09,0.09,0.20250002,0.014829971,-0.007824266,-0.02604854,0.015175706,0.006498635,-0.005648547,0.10603441,0.105912045,0.20809989,8.296478e-05,2.3120749e-05,0.00013042321,0.00011187482,0.00017464107,-4.4869055e-05,0,0,1
67232000,67074000,67080000,0,-0.01,0.0,0.0,0.09,0.09,0.20250002,0.023536343,-0.001017932,0.00988809,0.018891545,0.0031579384,0.0012566256,0.10604196,0.10589535,0.20808825,0.00020895859,3.9139982e-07,1.879478e-05,0.00015502317,9.684885e-05,-1.6574015e-05,0,0,1
67632000,67474000,67480000,0,0.0,0.01,0.0,0.09,0.09,0.20250002,0.010671853,-0.007607685,0.006485097,0.015238348,-0.0016267835,0.003580391,0.10601902,0.10588315,0.20809674,4.2969063e-05,2.186443e-05,8.0840255e-06,0.00010522134,4.408739e-05,-5.6148847e-06,0,0,1
68032000,67874000,67880000,0,0.0,0.0,0.04,0.09,0.09,0.20250002,0.0028248723,0.0043142005,-0.04110904,0.0097212475,0.001013654,-0.01628158,0.10601895,0.105867416,0.20808524,3.0107458e-06,7.032315e-06,0.0003248579,5.979441e-05,2.7618466e-05,-0.00014750067,0,0,1
68432000,68274000,68280000,0,0.0,0.01,0.0,0.09,0.09,0.20250002,-0.005875405,-0.014923366,0.0023797154,0.0027894014,-0.0060694665,-0.007987671,0.1060224,0.10584532,0.20809375,1.3023808e-05,8.416313e-05,1.0885567e-06,2.7430753e-05,-2.206225e-05,-8.146101e-05,0,0,1
68832000,68674000,68680000,0,0.0,0.0,-0.049999997,0.09,0.09,0.20250002,-0.002794438,-0.008380787,0.05206845,0.00030769478,-0.0070967204,0.018703941,0.1060276,0.10584762,0.20808233,2.9459816e-06,2.6542912e-05,0.00052116363,1.3929982e-05,-2.4053656e-05,0.00018637217,0,0,1
69232000,69074000,69080000,0,0.0,0.0,0.02,0.09,0.09,0.20250002,-0.004262856,-0.009717873,-0.008735631,-0.0017236616,-0.008261677,0.006508575,0.105998635,0.10583365,0.20809086,6.8574254e-06,3.5692643e-05,1.4668831e-05,4.6911337e-06,-2.922654e-05,9.702061e-05,0,0,1
69632000,69474000,69480000,0,0.0,0.0,0.02,0.09,0.09,0.20250002,-8.2516955e-05,-0.013239266,-0.006788226,-0.0009942639,-0.010473939,0.0005988851,0.10598268,0.10583238,0.20808065,2.5698719e-09,6.624746e-05,8.8581055e-06,2.6050432e-06,-4.5680285e-05,4.9963397e-05,0,0,1
70032000,69874000,69880000,0,0.0,0.0,0.0,0.09,0.09,0.20250002,0.0070913034,-0.027130825,0.01555454,0.002599322,-0.017877,0.0072458433,0.10600227,0.10583867,0.20807248,1.8975663e-05,0.00027819007,4.6511428e-05,9.880874e-06,-0.00014901797,4.842919e-05,0,0,1
70432000,70274000,70280000,0,0.0,-0.01,-0.04,0.09,0.09,0.20250002,0.0124359885,-0.026589764,0.055848725,0.006971174,-0.02174934,0.028847124,0.10600032,0.105840385,0.20806377,5.8359754e-05,0.00026720067,0.00059963926,3.1427044e-05,-0.00020154362,0.00029341146,0,0,1
70824000,70670000,70672000,0,0.0,-0.01,-0.06,0.09,0.09,0.20250002,0.016496647,-0.037178375,0.07610805,0.011181093,-0.028568422,0.049734764,0.10594389,0.10578117,0.20806506,0.00010274848,0.00052267587,0.0011135816,6.294857e-05,-0.00034347258,0.00065589737,0,0,1
71232000,71074000,71080000,0,0.0,0.0,0.0,0.09,0.09,0.20250002,0.02024774,-0.058984764,0.017280288,0.015233002,-0.042161565,0.035230774,0.10602303,0.10585974,0.20806625,0.00015467244,0.0013146461,5.74064e-05,0.00010394021,-0.0007774926,0.00038843017,0,0,1
71632000,71474000,71480000,0,0.0,0.0,0.04,0.09,0.09,0.20250002,0.017451145,-0.063766964,-0.023508735,0.016218843,-0.051763967,0.009124324,0.1060157,0.10585514,0.20807573,0.00011490466,0.0015365246,0.0001062422,0.0001088133,-0.0011148402,0.00016857576,0,0,1
72032000,71874000,71880000,0,0.0,-0.02,0.0,0.09,0.09,0.20250002,0.02319711,-0.045990568,0.012006298,0.019320296,-0.049198013,0.010405201,0.105994076,0.10585896,0.20806634,0.00020307022,0.0007992266,2.7712542e-05,0.00015070527,-0.00097456743,0.00010596988,0,0,1
72232000,72074000,72080000,0,0.0,0.0,-0.04,0.09,0.09,0.20250002,0.021550197,-0.06518455,0.050789364,0.01995741,-0.053765595,0.021943534,0.104432784,0.104322836,0.20788305,0.00017787938,0.0016291832,0.0004963482,0.0001584693,-0.0011616005,0.00021750655,0,0,1
72632000,72474000,72480000,0,0.0,0.0,0.0,0.09,0.09,0.20250002,0.015623863,-0.07114176,0.0058093816,0.018031389,-0.061488334,0.014772799,0.10479198,0.10467788,0.20791195,9.317702e-05,0.0019339902,6.4929245e-06,0.0001294505,-0.0015048848,0.00012372271,0,0,1
73032000,72874000,72880000,0,0.0,0.01,0.02,0.09,0.09,0.20250002,0.006189793,-0.08111669,-0.005064007,0.012768457,-0.07021205,0.00595644,0.10505138,0.10495552,0.20795205,1.4588494e-05,0.0025076976,4.9327073e-06,7.840071e-05,-0.0019505795,6.654252e-05,0,0,1
73432000,73274000,73280000,0,0.01,0.0,0.02,0.09,0.09,0.20250002,-0.0115991235,-0.070324644,-0.0025423132,0.0019384203,-0.07026209,0.0021792161,0.10526903,0.10518922,0.20796782,5.1122217e-05,0.0018806321,1.2431456e-06,2.0834963e-05,-0.0019194918,3.6415553e-05,0,0,1
73832000,73674000,73680000,0,0.0,-0.01,0.0,0.09,0.09,0.20250002,-0.009874828,-0.05441813,0.015548773,-0.0033119125,-0.06322033,0.008121242,0.10542162,0.10537512,0.207997,3.699895e-05,0.001124111,4.6493813e-05,-4.869e-06,-0.0015659892,4.089478e-05,0,0,1
74232000,74074000,74080000,0,0.0,-0.01,-0.01,0.09,0.09,0.20250002,-0.008567472,-0.051089846,0.024001317,-0.005647717,-0.057829004,0.015179053,0.10554914,0.10551478,0.20800303,2.7817025e-05,0.0009895002,0.00011077978,-1.5068123e-05,-0.0013097718,7.195478e-05,0,0,1
74632000,74474000,74480000,0,0.0,-0.01,-0.04,0.09,0.09,0.20250002,-0.004802436,-0.048004642,0.05944884,-0.0052720364,-0.05346262,0.034854516,0.105631925,0.10560682,0.20802431,8.733493e-06,0.00087283977,0.0006795676,-1.2252732e-05,-0.0011155797,0.00034200493,0,0,1
75032000,74874000,74880000,0,0.01,0.0,-0.02,0.09,0.09,0.20250002,-0.01662916,-0.045221146,0.043178506,-0.010319646,-0.049799744,0.03855407,0.10570169,0.105674826,0.2080236,0.000104645034,0.00077405456,0.0003584946,-5.331598e-05,-0.00096379075,0.00034933368,0,0,1
75432000,75274000,75280000,0,0.0,-0.01,0.0,0.09,0.09,0.20250002,-0.0030960196,-0.023239644,0.015804976,-0.0071091456,-0.037995256,0.028443359,0.10578192,0.105733246,0.20802018,3.6245656e-06,0.00020431836,4.803328e-05,-3.1230906e-05,-0.00062624743,0.00021542239,0,0,1
75832000,75674000,75680000,0,-0.01,0.0,0.01,0.09,0.09,0.20250002,0.017263785,-0.03527,0.008286545,0.0037232693,-0.03678403,0.019484773,0.1058083,0.105760045,0.2080343,0.00011267103,0.00047048883,1.3202982e-05,3.272552e-05,-0.00055702135,0.00012554709,0,0,1
76232000,76074000,76080000,0,0.0,0.0,0.01,0.09,0.09,0.20250002,0.011892102,-0.027344117,0.012036635,0.007353862,-0.03258851,0.01617449,0.10585278,0.10578373,0.20802738,5.3441046e-05,0.00028272808,2.7857981e-05,4.193242e-05,-0.0004351132,8.21297e-05,0,0,1
76632000,76474000,76480000,0,0.02,0.0,0.01,0.09,0.09,0.20250002,-0.009468825,-0.025940064,0.016536845,-0.00012288848,-0.029633645,0.016335536,0.10586269,0.10579176,0.20802015,3.387733e-05,0.00025441943,5.258476e-05,8.239196e-06,-0.00035480486,6.899861e-05,0,0,1
77032000,76874000,76880000,0,0.0,0.0,0.0,0.09,0.09,0.20250002,0.02050904,-0.026342442,0.02520445,0.009046858,-0.028170887,0.020277277,0.10587568,0.10580771,0.2080322,0.00015891118,0.0002623341,0.00012214729,7.520453e-05,-0.00031370675,9.262025e-05,0,0,1
77432000,77274000,77280000,0,0.0,0.0,0.049999997,0.09,0.09,0.20250002,0.02044019,-0.027712531,-0.023630984,0.014110561,-0.027967174,0.0007624924,0.10586867,0.1058096,0.2080237,0.00015785646,0.00029032692,0.00010737688,0.00011193872,-0.00030331573,3.7326317e-06,0,0,1
77832000,77674000,77680000,0,-0.03,0.0,0.0,0.09,0.09,0.20250002,0.04928277,-0.029836161,0.03272597,0.029742656,-0.028797835,0.014968484,0.10585492,0.10580531,0.2080341,0.0009177812,0.00033654133,0.0002059257,0.00047009095,-0.00031808266,9.359622e-05,0,0,1
78232000,78074000,78080000,0,0.0,0.0,0.049999997,0.09,0.09,0.20250002,0.014632537,-0.03507862,-0.015331708,0.023027048,-0.031589296,0.0015017306,0.10584197,0.10580855,0.20802438,8.091729e-05,0.0004651834,4.519879e-05,0.00029712485,-0.00038346078,3.190954e-05,0,0,1
78632000,78474000,78480000,0,0.01,-0.02,0.0,0.09,0.09,0.20250002,0.0047280025,-0.020106025,0.0347888,0.014894138,-0.02648562,0.016295984,0.105823204,0.1058076,0.20803389,8.449568e-06,0.0001528254,0.00023270451,0.00016882471,-0.00028095616,0.00012115175,0,0,1
79032000,78874000,78880000,0,0.0,-0.01,0.0,0.09,0.09,0.20250002,0.015122363,-0.030178001,0.030600172,0.014995571,-0.02812668,0.0226534,0.10583551,0.10581302,0.20802496,8.643068e-05,0.00034427212,0.00018004965,0.00013220514,-0.0003090966,0.0001473286,0,0,1
79432000,79274000,79280000,0,0.0,0.01,-0.02,0.09,0.09,0.20250002,0.021473778,-0.05335886,0.050790492,0.017874774,-0.039340984,0.035158776,0.10582379,0.10581517,0.20801595,0.00017429848,0.0010762797,0.00049605314,0.00015091329,-0.0006500669,0.0003023173,0,0,1
79832000,79674000,79680000,0,0.0,0.0,0.0,0.09,0.09,0.20250002,0.021620207,-0.038614087,0.027134884,0.01953941,-0.03901792,0.0315926,0.105825484,0.1058155,0.20802607,0.00017668083,0.00056364055,0.00014157878,0.00016236553,-0.0006116552,0.00023087795,0,0,1
80232000,80074000,80080000,0,0.01,0.0,0.0,0.09,0.09,0.20250002,0.006472841,-0.037729416,0.027278721,0.013732046,-0.038445253,0.02967532,0.10583048,0.1058153,0.20801805,1.5835767e-05,0.0005381108,0.00014308924,9.724119e-05,-0.0005789688,0.00019186074,0,0,1
80632000,80474000,80480000,0,0.0,0.01,-0.01,0.09,0.09,0.20250002,0.0153729245,-0.038381502,0.029838951,0.0144613255,-0.03841692,0.029748045,0.10585343,0.10581784,0.20800959,8.930341e-05,0.0005568587,0.00017121577,9.3713286e-05,-0.0005691421,0.0001826852,0,0,1
81032000,80874000,80880000,0,0.02,0.0,0.049999997,0.09,0.09,0.20250002,-0.0066478867,-0.022369744,-0.032070294,0.005079453,-0.03128484,0.0022732262,0.1058697,0.10582203,0.20802012,1.6697657e-05,0.00018914983,0.00019777006,4.4641754e-05,-0.00040025663,1.3593963e-05,0,0,1
81432000,81274000,81280000,0,0.0,0.0,0.02,0.09,0.09,0.20250002,0.01943355,-0.012740856,-0.00017177314,0.011459053,-0.023043068,0.0011865597,0.10589193,0.10582152,0.20801096,0.00014265974,6.135969e-05,5.6739338e-09,8.8205314e-05,-0.00024963578,7.549679e-06,0,0,1
81832000,81674000,81680000,0,0.01,0.01,0.01,0.09,0.09,0.20250002,0.013937628,-0.008582375,0.015333457,0.012560641,-0.016616093,0.0074740695,0.10593035,0.1058197,0.20800184,7.335291e-05,2.7842512e-05,4.5214005e-05,8.1604245e-05,-0.00015106099,2.428938e-05,0,0,1
82232000,82074000,82080000,0,0.0,0.0,0.03,0.09,0.09,0.20250002,0.027746893,0.011999517,-0.0015957858,0.019310087,-0.0038980441,0.0034430223,0.10596402,0.10582478,0.20801322,0.0002906232,5.442521e-05,4.896866e-07,0.00017450156,-5.973378e-05,1.3276461e-05,0,0,1
82632000,82474000,82480000,0,0.01,-0.02,-0.03,0.09,0.09,0.20250002,0.02567819,0.03974998,0.057624675,0.022140354,0.015501079,0.02752376,0.10599032,0.1058349,0.20800583,0.00024884136,0.0005971795,0.00063855964,0.00020754148,0.0002322277,0.00029118013,0,0,1
83032000,82874000,82880000,0,0.0,0.01,0.01,0.09,0.09,0.20250002,0.0379118,0.01998835,0.023194095,0.029149886,0.017495422,0.025599465,0.10603352,0.10583137,0.20799848,0.0005422076,0.00015100784,0.00010345576,0.000356282,0.00019612999,0.00020774707,0,0,1
83432000,83274000,83280000,0,-0.01,0.0,0.0,0.09,0.09,0.20250002,0.042166412,0.038392507,0.032150187,0.03493501,0.026783016,0.028510896,0.10605851,0.10583146,0.20800985,0.00067057565,0.0005571064,0.00019876646,0.00049596804,0.00035656395,0.00020375568,0,0,1
83832000,83674000,83680000,0,0.02,0.0,0.03,0.09,0.09,0.20250002,0.009190952,0.04107804,-0.0023178738,0.023493204,0.03313636,0.01480922,0.10605174,0.10583294,0.20800143,3.186128e-05,0.00063776184,1.0331734e-06,0.00028969836,0.0004815408,0.00011273841,0,0,1
84232000,84074000,84080000,0,0.02,0.0,-0.02,0.09,0.09,0.20250002,0.012739934,0.045651875,0.04154702,0.018713973,0.03869881,0.026692687,0.106062055,0.10584188,0.20801191,6.1211686e-05,0.00078762526,0.00033193384,0.00018814873,0.00061757833,0.00021015861,0,0,1
84632000,84474000,84480000,0,0.02,0.0,0.0,0.09,0.09,0.20250002,0.0132444315,0.05913473,0.012477912,0.016283065,0.04778144,0.02037501,0.106107526,0.105844,0.20800288,6.612725e-05,0.0013215359,2.9941566e-05,0.00013391695,0.0009304484,0.00013006214,0,0,1
85032000,84874000,84880000,0,0.01,0.0,0.03,0.09,0.09,0.20250002,0.016740363,0.060536757,-0.014926372,0.01648631,0.053450473,0.004685506,0.10607888,0.10583412,0.20799503,0.00010567222,0.0013850727,4.284652e-05,0.00012136374,0.0011325036,5.3213844e-05,0,0,1
85432000,85274000,85280000,0,0.0,0.01,-0.02,0.09,0.09,0.20250002,0.02818581,0.04944379,0.035595316,0.021686088,0.051669724,0.0184232,0.106049344,0.105837785,0.20800608,0.00029964917,0.0009239378,0.00024365183,0.00020060172,0.0010398077,0.00013785294,0,0,1
85832000,85674000,85680000,0,0.01,0.0,0.0,0.09,0.09,0.20250002,0.013742069,0.0600613,0.014193036,0.018155413,0.055399314,0.016543128,0.10601417,0.10583503,0.20799884,7.1252536e-05,0.0013633897,3.8739112e-05,0.00014311318,0.0011836219,9.3802344e-05,0,0,1
86232000,86074000,86080000,0,0.02,0.0,0.02,0.09,0.09,0.20250002,-0.007744655,0.0582229,-0.0055723973,0.0066442704,0.05665424,0.006714005,0.10598616,0.105838835,0.20799132,2.2636796e-05,0.0012811578,5.971713e-06,6.944652e-05,0.0012269713,4.9458315e-05,0,0,1
86632000,86474000,86480000,0,0.0,-0.01,-0.02,0.09,0.09,0.20250002,0.0051067662,0.06862549,0.032064233,0.0059609353,0.061974794,0.017980773,0.10596352,0.10584386,0.20800243,9.8445435e-06,0.0017797755,0.00019771211,4.295675e-05,0.0014726621,0.0001153489,0,0,1
87032000,86874000,86880000,0,0.01,0.0,0.0,0.09,0.09,0.20250002,7.465202e-05,0.051975124,0.013209461,0.0033448092,0.057530496,0.01586019,0.10591897,0.1058356,0.20799391,2.1045994e-09,0.0010209848,3.3556724e-05,2.3865798e-05,0.0012719167,7.899682e-05,0,0,1
87432000,87274000,87280000,0,0.0,0.01,-0.02,0.09,0.09,0.20250002,0.024793616,0.03787248,0.03152396,0.012877613,0.0487936,0.022821866,0.105897635,0.10583797,0.2079849,0.0002321953,0.0005420832,0.00019112161,0.0001164567,0.0009475462,0.00012883006,0,0,1
87832000,87674000,87680000,0,-0.02,0.01,-0.06,0.09,0.09,0.20250002,0.04596682,0.037149265,0.06646517,0.027583927,0.04361834,0.042218894,0.105877854,0.105839305,0.20799507,0.0007982588,0.0005215711,0.0008495622,0.00041947988,0.00075822393,0.0004491555,0,0,1
88232000,88074000,88080000,0,0.0,0.02,-0.03,0.09,0.09,0.20250002,0.021652078,0.022538323,0.035466447,0.02494755,0.034249444,0.039217807,0.105863504,0.1058411,0.20798562,0.00017713849,0.00019197683,0.00024191459,0.00031177257,0.0005065586,0.0003570484,0,0,1
88632000,88474000,88480000,0,0.0,0.0,-0.04,0.09,0.09,0.20250002,0.01489478,0.039645083,0.047683187,0.020479653,0.036647506,0.042980198,0.10584416,0.10583531,0.20799538,8.384193e-05,0.00059402955,0.00043725708,0.00021047005,0.00054543454,0.0003926967,0,0,1
89032000,88874000,88880000,0,0.0,-0.01,-0.02,0.09,0.09,0.20250002,0.016892994,0.03767267,0.023049291,0.018885583,0.037103135,0.034122016,0.10584126,0.10584128,0.2079857,0.00010784953,0.00053636165,0.000102174294,0.00016486093,0.00054140214,0.00026357564,0,0,1
89432000,89274000,89280000,0,0.0,0.0,0.0,0.09,0.09,0.20250002,0.022131719,0.020837162,0.0035889372,0.02032831,0.029873813,0.020551758,0.105835676,0.10583917,0.20797653,0.00018512207,0.00016409325,2.477293e-06,0.00017386589,0.0003737093,0.00014753191,0,0,1
89832000,89674000,89680000,0,0.0,0.0,0.0,0.09,0.09,0.20250002,0.025384909,0.019969065,0.0015816763,0.022575688,0.025471702,0.01212061,0.10583562,0.105839424,0.20798753,0.00024354506,0.0001507051,4.8112497e-07,0.00020483442,0.00027459633,8.2176004e-05,0,0,1
90232000,90074000,90080000,0,0.0,0.0,0.03,0.09,0.09,0.20250002,0.024545213,0.018557385,-0.028102798,0.023451032,0.022398671,-0.005756462,0.105845004,0.105842,0.20797895,0.00022767915,0.0001301474,0.00015189369,0.00021498764,0.0002103968,-2.1854983e-05,0,0,1
90632000,90474000,90480000,0,0.01,0.01,0.01,0.09,0.09,0.20250002,0.022752283,0.010682771,-0.010698052,0.023140477,0.017191604,-0.007952725,0.10584636,0.10584773,0.20798929,0.00019562937,4.3126707e-05,2.2010425e-05,0.00020638396,0.00013605453,-2.1924068e-05,0,0,1
91032000,90874000,90880000,0,0.01,0.0,0.02,0.09,0.09,0.20250002,0.02842304,0.025582442,-0.016848277,0.025488283,0.020920865,-0.011906303,0.10584244,0.105846055,0.20798023,0.0003053101,0.00024732575,5.4594504e-05,0.00025035115,0.00018550841,-3.6444264e-05,0,0,1
91432000,91274000,91280000,0,0.0,0.0,0.04,0.09,0.09,0.20250002,0.04079313,0.026672369,-0.028076246,0.032290436,0.023477089,-0.019092945,0.10584607,0.10584446,0.20799014,0.00062886765,0.0002688531,0.00015159865,0.00041858072,0.0002225505,-8.7623994e-05,0,0,1
91832000,91674000,91680000,0,0.01,0.0,0.0,0.09,0.09,0.20250002,0.031314902,0.02031239,0.008232914,0.031856865,0.022070555,-0.006948118,0.1058494,0.10584719,0.20798078,0.00037057293,0.00015592031,1.3035987e-05,0.00039724392,0.00019293708,-4.2886222e-05,0,0,1
92232000,92074000,92080000,0,0.01,0.0,-0.04,0.09,0.09,0.20250002,0.04063543,0.014730725,0.04410564,0.03575845,0.018808408,0.015742444,0.10586331,0.105862714,0.2079712,0.00062391325,8.1990824e-05,0.00037414944,0.00049798586,0.00014362764,0.00014246297,0,0,1
92632000,92474000,92480000,0,0.0,0.01,-0.01,0.09,0.09,0.20250002,0.04768516,0.009878108,0.006587552,0.04105921,0.014839386,0.011673602,0.10586351,0.105858535,0.20798095,0.00085917214,3.6870726e-05,8.346119e-06,0.0006585131,9.618011e-05,8.285548e-05,0,0,1
