timestamp,timestamp_sample,time_last_fuse,device_id,observation[0],observation[1],observation[2],observation_variance[0],observation_variance[1],observation_variance[2],innovation[0],innovation[1],innovation[2],innovation_filtered[0],innovation_filtered[1],innovation_filtered[2],innovation_variance[0],innovation_variance[1],innovation_variance[2],test_ratio[0],test_ratio[1],test_ratio[2],test_ratio_filtered[0],test_ratio_filtered[1],test_ratio_filtered[2],estimator_instance,innovation_rejected,fused
1760000,1599586,0,0,0.010244485,-0.2171345,0.42916885,0.0025000002,0.0025000002,0.0025000002,-0.010244485,0.2171345,-0.42916885,-0.010244485,0.2171345,-0.42916885,0.0075000003,0.0075000003,0.0075000003,0.001554807,0.6984799,2.72868,0.001554807,0.6984799,2.72868,0,1,0
1832000,1672030,0,0,0.007826733,-0.2124577,0.43498978,0.0025000002,0.0025000002,0.0025000002,-0.007826733,0.2124577,-0.43498978,-0.009938514,0.21654265,-0.4299055,0.0075000008,0.0075000008,0.0075,0.00090752216,0.66871506,2.8032017,0.001243194,0.6947131,2.0286088,0,1,0
1904000,1744290,0,0,0.008334399,-0.21587203,0.42830285,0.0025000002,0.0025000002,0.0025000002,-0.008334399,0.21587203,-0.42830285,-0.0097359605,0.21645796,-0.42970315,0.0075000003,0.0075000008,0.0075000008,0.0010290697,0.69038117,2.7176788,0.00095627236,0.6941661,1.4292891,0,1,0
1976000,1816687,0,0,0.013755494,-0.21546198,0.4297465,0.0025000002,0.0025000002,0.0025000002,-0.013755494,0.21546198,-0.4297465,-0.010244353,0.21633199,-0.42970863,0.0075000003,0.0075,0.0075000003,0.0028031645,0.68776107,2.7360303,0.0004807773,0.69335604,0.90245783,0,1,0
2048000,1888844,0,0,0.009916232,-0.21515001,0.4305286,0.0025000002,0.0025000002,0.0025000002,-0.009916232,0.21515001,-0.4305286,-0.010202972,0.21618293,-0.42981204,0.0075000003,0.0075000008,0.0075000003,0.0014567652,0.6857707,2.7459981,0.00023642607,0.69239944,0.4423365,0,1,0
2120000,1961236,0,0,0.0067678685,-0.21014261,0.42815337,0.0025000002,0.0025000002,0.0025000002,-0.0067678685,0.21014261,-0.42815337,-0.009768525,0.215419,-0.42960227,0.007500001,0.0075000003,0.007500001,0.00067857833,0.654221,2.715782,0.00012070293,0.6875709,0.0429205,0,1,0
2192000,2032942,0,0,0.009476639,-0.21523856,0.429559,0.0025000002,0.0025000002,0.0025000002,-0.009476639,0.21523856,-0.429559,-0.009731916,0.21539636,-0.42959684,0.0075000003,0.0075000008,0.0075000003,0.0013304695,0.68633527,2.7336433,-6.130981e-05,0.68741596,-0.30532894,0,1,0
2264000,2105693,0,0,0.0068592723,-0.2264844,0.43544698,0.0025000002,0.0025000002,0.0025000002,-0.0068592723,0.2264844,-0.43544698,-0.009367032,0.21680477,-0.43033993,0.0075000003,0.0075000003,0.0075000008,0.0006970313,0.75992864,2.809097,-0.00014205935,0.69662654,-0.6233583,0,1,0
2336000,2178056,0,0,0.0094643645,-0.21607432,0.42818922,0.0025000002,0.0025000002,0.0025000002,-0.0094643645,0.21607432,-0.42818922,-0.009379338,0.21671242,-0.43006802,0.0075000003,0.0075000003,0.0075000008,0.0013270251,0.69167566,2.7162366,-0.00029187277,0.69600064,-0.8879578,0,1,0
2408000,2250075,0,0,0.009598426,-0.21498296,0.4251939,0.0025000002,0.0025000002,0.0025000002,-0.009598426,0.21498296,-0.4251939,-0.009406921,0.21649466,-0.42945436,0.0075000003,0.0075000008,0.0075000003,0.0013648855,0.68470615,2.678368,-0.00042696847,0.69457865,-1.1133761,0,1,0
2480000,2322377,0,0,0.00966748,-0.21524522,0.42815462,0.0025000002,0.0025000002,0.0025000002,-0.00966748,0.21524522,-0.42815462,-0.009439839,0.21633682,-0.42929015,0.0075000003,0.0075000003,0.0075000008,0.0013845952,0.6863778,2.715798,-0.0005479506,0.6935426,-1.3158188,0,1,0
2552000,2394394,0,0,0.0110216355,-0.21137723,0.42361602,0.0025000002,0.0025000002,0.0025000002,-0.0110216355,0.21137723,-0.42361602,-0.0096389875,0.2157124,-0.42857578,0.0075000008,0.0075000008,0.0075000003,0.0017996508,0.6619308,2.6585262,-0.00070553983,0.6895627,-1.4848658,0,1,0
2624000,2465918,0,0,0.010466273,-0.21532777,0.427365,0.0025000002,0.0025000002,0.0025000002,-0.010466273,0.21532777,-0.427365,-0.009742519,0.21566427,-0.42842427,0.0075000003,0.0075000003,0.0075000003,0.0016228572,0.6869044,2.7057903,-0.0008203385,0.68923,-1.6376597,0,1,0
2696000,2538673,0,0,0.015901394,-0.21525575,0.43650934,0.0025000002,0.0025000002,0.0025000002,-0.015901394,0.21525575,-0.43650934,-0.010524859,0.21561238,-0.4294513,0.0075000003,0.0075,0.0075000008,0.00374599,0.68644506,2.8228204,-0.0011919735,0.6888763,-1.7882063,0,1,0
2768000,2610870,0,0,0.008781858,-0.2153973,0.4297381,0.0025000002,0.0025000002,0.0025000002,-0.008781858,0.2153973,-0.4297381,-0.010304935,0.21558525,-0.42948747,0.0075000003,0.0075000003,0.0075000003,0.0011425336,0.68734807,2.7359235,-0.0011857353,0.68868345,-1.9077846,0,1,0
2840000,2682893,0,0,0.004656426,-0.21919428,0.4289531,0.0025000002,0.0025000002,0.0025000002,-0.004656426,0.21919428,-0.4289531,-0.009593735,0.21603966,-0.42942017,0.0075000003,0.0075000008,0.0075000003,0.00032121933,0.71179444,2.7259374,-0.0010768848,0.69159335,-2.0107975,0,1,0
2912000,2754693,0,0,0.0109252455,-0.21585914,0.42888546,0.0025000002,0.0025000002,0.0025000002,-0.0109252455,0.21585914,-0.42888546,-0.009760931,0.216017,-0.42935303,0.0075000003,0.0075000003,0.0075000003,0.0017683108,0.6902988,2.7250774,-0.0011637061,0.6914308,-2.1004884,0,1,0
2984000,2827067,0,0,0.010354972,-0.21860725,0.42534843,0.0025000002,0.0025000002,0.0025000002,-0.010354972,0.21860725,-0.42534843,-0.009836045,0.21634452,-0.42884666,0.0075000003,0.0075000008,0.0075000008,0.0015885251,0.70798695,2.680315,-0.0012174224,0.69352424,-2.1738048,0,1,0
3056000,2899213,2904000,0,0.011801319,-0.21643943,0.42816472,0.0025000002,0.0025000002,0.0025000002,0.0,0.0,0.0,0.0,0.0,0.0,0.0025000002,0.0025000002,0.0025000002,0.0,0.0,0.0,0.0,0.0,0.0,0,0,1
3128000,2971221,2976000,0,0.003865701,-0.2173907,0.4300936,0.0025000002,0.0025000002,0.0025000002,0.0061736843,-0.00064240396,0.0001296401,0.0007771826,-7.132743e-05,1.6192362e-05,0.011839706,0.00758385,0.0075201327,0.00035768884,4.701583e-06,2.4445282e-07,4.5028144e-05,-5.918651e-07,3.0773272e-08,0,0,1
3200000,3043344,3048000,0,0.008986926,-0.21562818,0.43075722,0.0025000002,0.0025000002,0.0025000002,-0.0036199633,-0.0021490157,-0.00071406364,0.00022286933,-0.00033379172,-7.529756e-05,0.004460164,0.0041763005,0.004168972,0.00032644876,0.00012336604,1.3418739e-05,-1.800996e-06,-1.6069029e-05,-1.6646999e-06,0,0,1
3272000,3115350,3120000,0,0.012903935,-0.21162248,0.42832938,0.0025000002,0.0025000002,0.0025000002,-0.0059495806,-0.0052557588,0.0020110607,-0.00055413897,-0.00095444015,0.00018849243,0.0035938516,0.0035038088,0.003500867,0.0010943847,0.0008787627,0.00012953264,-0.00013933904,-0.00012466774,1.48508525e-05,0,0,1
3344000,3187452,3192000,0,0.01089568,-0.21590541,0.43159977,0.0025000002,0.0025000002,0.0025000002,-0.0022209627,0.00044211745,-0.0018661916,-0.00076420873,-0.00077875407,-7.059165e-05,0.0032573473,0.0032165477,0.003214758,0.00016825808,6.67434e-06,0.00012050679,-0.00014298371,-0.000108114706,-2.2082686e-06,0,0,1
3416000,3259458,3264000,0,0.015214064,-0.216379,0.43376076,0.0025000002,0.0025000002,0.0025000002,-0.005905042,0.0007188767,-0.0036671162,-0.0014113537,-0.00059103116,-0.00052357867,0.0030809608,0.0030571446,0.0030558854,0.0012575269,1.8450175e-05,0.0004894755,-0.0002832861,-9.21823e-05,-6.354707e-05,0,0,1
3488000,3330815,3336000,0,0.006957575,-0.21549161,0.42917714,0.0025000002,0.0025000002,0.0025000002,0.0033674624,-0.00032277405,0.0015728176,-0.00081452547,-0.00055716414,-0.0002616144,0.002971431,0.0029559343,0.0029548171,0.00042403073,3.8456997e-06,9.315867e-05,-0.00019494903,-8.1149905e-05,-4.3976033e-05,0,0,1
3560000,3403548,3408000,0,0.006746046,-0.21840955,0.4280996,0.0025000002,0.0025000002,0.0025000002,0.0031158575,0.0027496219,0.002463311,-0.0003153949,-0.00013696571,8.41546e-05,0.002896528,0.0028857347,0.002884853,0.00037242164,0.00029153723,0.00023329385,-0.000122897,-3.38213e-05,-8.764739e-06,0,0,1
3632000,3475619,3480000,0,0.009850428,-0.21308978,0.42967784,0.0025000002,0.0025000002,0.0025000002,-0.0004992997,-0.0031135082,0.00046369433,-0.0003385637,-0.00051199994,0.00013231099,0.0028426046,0.0028343613,0.0028335715,9.744593e-06,0.00038009702,8.529877e-06,-0.00010864177,-7.744602e-05,-6.5859176e-06,0,0,1
3704000,3547623,3552000,0,0.011176178,-0.21356152,0.43094608,0.0025000002,0.0025000002,0.0025000002,-0.0017566218,-0.0021719933,-0.000806123,-0.00051706913,-0.0007211004,1.4339734e-05,0.0028011994,0.0027951144,0.0027943512,0.00012239678,0.00018772413,2.5758303e-05,-0.00011037325,-9.1327856e-05,-8.999342e-06,0,0,1
3776000,3619682,3624000,0,0.008801581,-0.21626729,0.4297198,0.0025000002,0.0025000002,0.0025000002,0.0009971592,0.0007418245,0.000492543,-0.00032633045,-0.00053674914,7.453205e-05,0.0027688108,0.002764154,0.0027633945,3.9901865e-05,2.2156144e-05,9.740564e-06,-9.144395e-05,-7.703293e-05,-6.638783e-06,0,0,1
3848000,3691685,3696000,0,0.00907263,-0.21940787,0.42672274,0.0025000002,0.0025000002,0.0025000002,0.000639574,0.0039211363,0.0034998357,-0.00020474364,2.4451816e-05,0.0005053806,0.0027429939,0.0027391599,0.0027383529,1.6569686e-05,0.000623805,0.0004962772,-7.784733e-05,1.1187643e-05,5.666762e-05,0,0,1
3920000,3763735,3768000,0,0.010846029,-0.21600126,0.42950848,0.0025000002,0.0025000002,0.0025000002,-0.001284349,0.00022466481,0.0004350543,-0.00034072052,4.9561626e-05,0.00049645826,0.0027219262,0.0027185476,0.0027176768,6.733599e-05,2.0473692e-06,7.720063e-06,-7.652342e-05,1.0036421e-05,5.050265e-05,0,0,1
3992000,3835737,3840000,0,0.011889619,-0.21622892,0.42781097,0.0025000002,0.0025000002,0.0025000002,-0.0024474415,0.00033266842,0.0020516515,-0.00060590863,8.499575e-05,0.0006920949,0.0027040166,0.0027011922,0.0027002972,0.00024613464,4.5083075e-06,0.00017303234,-9.7873606e-05,9.340558e-06,6.5926346e-05,0,0,1
4064000,3907779,3912000,0,0.009516013,-0.21577719,0.4285837,0.0025000002,0.0025000002,0.0025000002,0.0001294949,-5.2675605e-05,0.0011722147,-0.00051329314,6.766633e-05,0.0007525609,0.0026888289,0.0026864565,0.0026855012,6.9294646e-07,1.14461585e-07,5.685255e-05,-8.54603e-05,8.149808e-06,6.4783606e-05,0,0,1
4136000,3979781,3984000,0,0.0069049895,-0.21995589,0.43037337,0.0025000002,0.0025000002,0.0025000002,0.0027702851,0.004021719,-0.0007518232,-9.9965546e-05,0.00056563044,0.0005630697,0.0026759151,0.0026738138,0.0026727659,0.00031866482,0.0006727599,2.3559272e-05,-3.4590164e-05,9.180905e-05,5.366325e-05,0,0,1
4208000,4051087,4056000,0,0.00799651,-0.21444134,0.42801607,0.0025000002,0.0025000002,0.0025000002,0.001437109,-0.0018169135,0.0016200244,9.188021e-05,0.00026837504,0.000695148,0.0026646815,0.002662725,0.002661657,8.611753e-05,0.00013761253,0.00010972982,-1.9524363e-05,6.3174426e-05,6.066105e-05,0,0,1
4280000,4123817,4128000,0,0.008167073,-0.22039513,0.4315867,0.0025000002,0.0025000002,0.0025000002,0.0012216207,0.0040427446,-0.0021505356,0.000235344,0.0007477773,0.00033360548,0.002654835,0.0026530926,0.0026519222,6.245866e-05,0.0006847463,0.00019401876,-9.11348e-06,0.00014210677,2.8319697e-05,0,0,1
4352000,4195482,4200000,0,0.010598329,-0.21693484,0.42845884,0.0025000002,0.0025000002,0.0025000002,-0.0011931981,0.00027532876,0.0010580122,5.6259276e-05,0.00068844267,0.0004243438,0.0026462832,0.0026445899,0.0026433074,5.977868e-05,3.1651248e-06,4.700048e-05,-1.5464964e-05,0.00012468878,3.0661555e-05,0,0,1
4424000,4267848,4272000,0,0.011967709,-0.21972081,0.42510173,0.0025000002,0.0025000002,0.0025000002,-0.0025137572,0.0031187236,0.0043961406,-0.00026867585,0.0009954872,0.0009262217,0.0026384972,0.002636913,0.002635596,0.00026610165,0.00040937704,0.0008138995,-4.7153735e-05,0.0001606828,0.00012968875,0,0,1
4496000,4339872,4344000,0,0.009036995,-0.21455714,0.42861438,0.0025000002,0.0025000002,0.0025000002,0.00045207608,-0.002180621,0.00067034364,-0.0001779254,0.0005956228,0.00089410413,0.002631653,0.0026301083,0.0026286975,8.62883e-06,0.00020082227,1.9038936e-05,-4.0130108e-05,0.00011516541,0.000115756746,0,0,1
4568000,4411873,4416000,0,0.0105440505,-0.20994622,0.42719066,0.0025000002,0.0025000002,0.0025000002,-0.0009561316,-0.006878063,0.0019592345,-0.00027588263,-0.00034521526,0.0010284057,0.0026253178,0.0026238991,0.002622457,3.8691087e-05,0.0020036693,0.00016293845,-3.994897e-05,-0.00015154434,0.000121695775,0,0,1
4640000,4483165,4488000,0,0.010410647,-0.21695375,0.4293929,0.0025000002,0.0025000002,0.0025000002,-0.0007498823,0.00035005808,-0.00038284063,-0.00033503343,-0.00025851862,0.00085225096,0.0026196642,0.0026183939,0.0026168288,2.385053e-05,5.1840348e-06,6.234789e-06,-3.794003e-05,-0.00013198607,0.00010573122,0,0,1
4712000,4555895,4560000,0,0.0057817376,-0.21710688,0.42763823,0.0025000002,0.0025000002,0.0025000002,0.0041907113,0.0005516261,0.001414895,0.00023968311,-0.0001552405,0.00092387374,0.0026146472,0.0026134031,0.0026117053,0.00074631104,1.3085103e-05,8.533373e-05,6.1650666e-05,-0.000113563736,0.00010314098,0,0,1
4784000,4627547,4632000,0,0.010181694,-0.21698432,0.42984313,0.0025000002,0.0025000002,0.0025000002,-0.0003940135,0.0004223138,-0.0008415878,0.0001602543,-8.288731e-05,0.00070255436,0.0026099433,0.0026087144,0.0026069875,6.6091957e-06,7.5852113e-06,3.0205656e-05,5.309484e-05,-9.837869e-05,8.642704e-05,0,0,1
4856000,4699912,4704000,0,0.011510804,-0.21479385,0.4320204,0.0025000002,0.0025000002,0.0025000002,-0.0015640726,-0.0019259751,-0.0030596256,-5.7755053e-05,-0.00031607185,0.00022687609,0.002605788,0.0026045244,0.0026026813,0.000104311504,0.00015845339,0.00039968517,3.3193704e-05,-0.000105974024,2.4967114e-05,0,0,1
4928000,4771562,4776000,0,0.012829408,-0.2158644,0.42937446,0.0025000002,0.0025000002,0.0025000002,-0.00283325,-0.00085672736,-0.00033214688,-0.0004056326,-0.00038413453,0.00015668507,0.002601944,0.0026007078,0.0025987283,0.00034279097,3.1532232e-05,4.7449726e-06,-1.3931811e-05,-9.664357e-05,2.1243033e-05,0,0,1
5000000,4843926,4848000,0,0.012440317,-0.21379058,0.4292833,0.0025000002,0.0025000002,0.0025000002,-0.0023004154,-0.0027120858,-0.00013551116,-0.00064519007,-0.0006787,0.00011971513,0.0025982503,0.00259705,0.0025950365,0.00022630235,0.00031513616,7.887884e-07,-4.078183e-05,-0.0001242676,1.845755e-05,0,0,1
5072000,4915938,4920000,0,0.011072164,-0.21636818,0.42884788,0.0025000002,0.0025000002,0.0025000002,-0.00083664176,-0.00011754036,0.00026381016,-0.0006692924,-0.0006081454,0.00013781496,0.0025949888,0.0025938088,0.0025916558,2.997099e-05,5.9914123e-07,2.9764583e-06,-3.9420825e-05,-0.00010869867,1.6508597e-05,0,0,1
5144000,4987939,4992000,0,0.00018592148,-0.21382634,0.4331573,0.0025000002,0.0025000002,0.0025000002,0.01019948,-0.0028063655,-0.0041351616,0.0006988215,-0.00088372175,-0.00039937452,0.0025920097,0.0025908216,0.0025885187,0.004459405,0.00033561047,0.00073209184,0.0005268719,-0.00013726135,-7.772199e-05,0,0,1
5216000,5059584,5064000,0,0.010638326,-0.21763237,0.42827243,0.0025000002,0.0025000002,0.0025000002,-0.0006740871,0.0010961592,0.00089362264,0.00052675314,-0.0006356519,-0.00023740315,0.002589024,0.0025878705,0.0025855543,1.9500845e-05,5.1536223e-05,3.4267257e-05,0.0004583943,-0.00011359911,-6.368624e-05,0,0,1
5288000,5131949,5136000,0,0.007988737,-0.21791294,0.4313535,0.0025000002,0.0025000002,0.0025000002,0.0020109452,0.0013203174,-0.002227366,0.0007144019,-0.00038811652,-0.0004889155,0.0025864858,0.0025852437,0.0025828127,0.00017371922,7.51374e-05,0.00021330244,0.00042240237,-8.973686e-05,-8.260245e-05,0,0,1
5360000,5203957,5208000,0,0.010667646,-0.21510318,0.42904547,0.0025000002,0.0025000002,0.0025000002,-0.00063804456,-0.0014607906,0.00018429756,0.00054414733,-0.0005232253,-0.00040416728,0.002583912,0.0025826802,0.0025802196,1.7505792e-05,9.187793e-05,1.4626308e-06,0.00036702395,-9.000639e-05,-7.20198e-05,0,0,1
5432000,5275957,5280000,0,0.0069457865,-0.21301867,0.42866018,0.0025000002,0.0025000002,0.0025000002,0.0031866583,-0.0035039932,0.0005595088,0.00087677105,-0.0008980491,-0.00028256763,0.0025816788,0.002580439,0.0025778292,0.00043704512,0.0005277723,1.3607621e-05,0.00037583782,-0.00014510978,-6.1241524e-05,0,0,1
5504000,5347964,5352000,0,0.009960196,-0.2174454,0.42681727,0.0025000002,0.0025000002,0.0025000002,0.000104329636,0.0008867383,0.0023150742,0.0007795324,-0.00067335804,4.441294e-05,0.0025795877,0.002578343,0.0025755872,4.6883773e-07,3.3893182e-05,0.00023117586,0.00032858455,-0.00012257602,-2.443061e-05,0,0,1
5576000,5419965,5424000,0,0.011253961,-0.22113498,0.43212017,0.0025000002,0.0025000002,0.0025000002,-0.0012566092,0.0045978874,-0.0030283928,0.0005232317,-9.989482e-06,-0.0003426241,0.0025774476,0.0025762126,0.0025734333,6.807194e-05,0.00091130385,0.00039648675,0.00027865515,7.5642893e-06,-7.126342e-05,0,0,1
5648000,5491970,5496000,0,0.011719449,-0.21576798,0.4310894,0.0025000002,0.0025000002,0.0025000002,-0.0017399874,-0.000941664,-0.001934439,0.00023833368,-0.00012750106,-0.0005430874,0.00257563,0.0025743179,0.0025714308,0.00013060693,3.842173e-05,0.00016180366,0.00022713651,1.7754878e-06,-8.266079e-05,0,0,1
5720000,5563970,5568000,0,0.009117975,-0.20764518,0.4280289,0.0025000002,0.0025000002,0.0025000002,0.0009142023,-0.009147674,0.0011215806,0.00032340805,-0.0012627864,-0.00033319448,0.0025739335,0.0025725968,0.0025695576,3.6078192e-05,0.0036134021,5.466853e-05,0.00020308721,-0.00045328183,-6.537458e-05,0,0,1
5792000,5635611,5640000,0,0.009458634,-0.21599454,0.42965406,0.0025000002,0.0025000002,0.0025000002,0.00036618402,-0.00055629015,-0.00052779913,0.00032876895,-0.0011741968,-0.0003575368,0.002572089,0.002570802,0.0025677374,5.7925567e-06,1.3356568e-05,1.2037413e-05,0.00017836122,-0.0003981481,-5.8690093e-05,0,0,1
5864000,5707975,5712000,0,0.006182937,-0.21847288,0.42707652,0.0025000002,0.0025000002,0.0025000002,0.0037396841,0.0021725893,0.0021812618,0.00076001114,-0.00075055787,-3.6386977e-05,0.0025705998,0.0025692885,0.002566058,0.00060449523,0.00020487774,0.000206272,0.00023223736,-0.00032190752,-2.5190922e-05,0,0,1
5936000,5779979,5784000,0,0.008360278,-0.21680287,0.42719188,0.0025000002,0.0025000002,0.0025000002,0.0014079415,0.000585258,0.0020812452,0.00084157276,-0.0005822094,0.0002302553,0.002569217,0.0025678638,0.0025644694,8.5728636e-05,1.4899947e-05,0.00018778161,0.00021379482,-0.0002795101,1.6181075e-06,0,0,1
6008000,5851980,5856000,0,0.009596171,-0.21597472,0.4317481,0.0025000002,0.0025000002,0.0025000002,0.00013982784,-0.0003155619,-0.0025560856,0.00075324014,-0.0005486246,-0.00012045298,0.0025676605,0.0025663285,0.0025629152,8.4607177e-07,4.3069476e-06,0.0002832103,0.00018698975,-0.00024486872,-3.423486e-05,0,0,1
6080000,5923983,5928000,0,0.010929837,-0.21691425,0.4289709,0.0025000002,0.0025000002,0.0025000002,-0.0013067718,0.0007125288,0.00032648444,0.0004939285,-0.00039006578,-6.4319356e-05,0.002566372,0.0025649879,0.002561464,7.393284e-05,2.1897842e-05,4.5953816e-06,0.00015414515,-0.00021128848,-2.934696e-05,0,0,1
6152000,5995983,6000000,0,0.009485354,-0.21520244,0.4298198,0.0025000002,0.0025000002,0.0025000002,0.00014721975,-0.0010077804,-0.0005258322,0.00045028684,-0.0004678002,-0.00012237388,0.0025652186,0.002563795,0.0025601047,9.387831e-07,4.400181e-05,1.19865945e-05,0.00013486043,-0.00019023143,-2.716174e-05,0,0,1
6224000,6067986,6072000,0,0.011676725,-0.21567638,0.42925182,0.0025000002,0.0025000002,0.0025000002,-0.002007288,-0.00065881014,-2.1576881e-05,0.00014093053,-0.0004921477,-0.000109809844,0.0025638642,0.002562466,0.0025587608,0.00017461511,1.8958008e-05,2.2107013e-08,9.590405e-05,-0.00016867174,-2.3745437e-05,0,0,1
6296000,6139986,6144000,0,0.011546408,-0.22074114,0.43010145,0.0025000002,0.0025000002,0.0025000002,-0.0017614097,0.00433065,-0.0009162426,-9.852486e-05,0.00011465099,-0.00021164888,0.002562832,0.0025613979,0.0025575284,0.0001345111,0.0008127597,3.6680947e-05,6.690074e-05,-4.5134933e-05,-2.5373683e-05,0,0,1
6368000,6211988,6216000,0,0.011607134,-0.21541198,0.4286488,0.0025000002,0.0025000002,0.0025000002,-0.0017268517,-0.0009163022,0.0006431043,-0.00030349405,-1.5379585e-05,-0.000104149716,0.0025616353,0.0025601964,0.0025562989,0.00012934518,3.6601272e-05,1.7934608e-05,4.219786e-05,-4.406074e-05,-1.9922158e-05,0,0,1
6440000,6283988,6288000,0,0.0074101053,-0.21908641,0.43264544,0.0025000002,0.0025000002,0.0025000002,0.0024575596,0.0028012842,-0.003353268,4.405115e-05,0.0003395594,-0.0005130335,0.0025606183,0.0025591291,0.0025551459,0.00026207208,0.00034146797,0.00048874336,6.987433e-05,4.467347e-06,-7.893461e-05,0,0,1
6512000,6355626,6360000,0,0.009974253,-0.21542148,0.43002963,0.0025000002,0.0025000002,0.0025000002,-0.00023088686,-0.0009828657,-0.0006968677,9.5957585e-06,0.00017379434,-0.0005360424,0.0025597585,0.0025582192,0.0025540735,2.3139658e-06,4.1983294e-05,2.1112215e-05,6.0827653e-05,-1.3538743e-06,-7.168827e-05,0,0,1
6584000,6427990,6432000,0,0.009150046,-0.2142015,0.43373054,0.0025000002,0.0025000002,0.0025000002,0.00051747833,-0.0021859556,-0.004383594,7.380738e-05,-0.00012446445,-0.0010223549,0.0025586893,0.002557164,0.0025529962,1.16285155e-05,0.0002074993,0.00083590933,5.4607404e-05,-2.7416849e-05,-0.00016830878,0,0,1
6656000,6499264,6504000,0,0.008264642,-0.21670869,0.42960972,0.0025000002,0.0025000002,0.0025000002,0.0013389535,0.0003682226,-0.0001706779,0.00023165112,-6.2783365e-05,-0.00091599737,0.002557909,0.0025563517,0.002552013,7.787596e-05,5.947777e-06,1.2564897e-06,5.7510464e-05,-2.325417e-05,-0.0001474668,0,0,1
6728000,6571992,6576000,0,0.010819217,-0.21263213,0.42458707,0.0025000002,0.0025000002,0.0025000002,-0.001322491,-0.00395377,0.004735023,3.429802e-05,-0.0005571063,-0.00019832107,0.0025571832,0.0025555817,0.0025510779,7.5994314e-05,0.0006802688,0.0009767745,4.055733e-05,-0.00010668533,-4.7047506e-06,0,0,1
6800000,6643265,6648000,0,0.010218048,-0.21505922,0.42872757,0.0025000002,0.0025000002,0.0025000002,-0.0006260616,-0.0014801174,0.00048664212,-4.8089583e-05,-0.0006723632,-0.00011284744,0.0025562164,0.0025546437,0.0025501233,1.7037033e-05,9.5387724e-05,1.0324086e-05,3.3371758e-05,-0.00010527582,-2.829727e-06,0,0,1
6872000,6715993,6720000,0,0.0032847107,-0.21615365,0.42591348,0.0025000002,0.0025000002,0.0025000002,0.0063739945,-0.00043308735,0.0032523572,0.0007674203,-0.0006408538,0.00031507056,0.0025554185,0.0025537994,0.002549219,0.001766521,7.830178e-06,0.00046236033,0.00025345612,-9.290167e-05,5.6242545e-05,0,0,1
6944000,6787631,6792000,0,0.0105782775,-0.2157098,0.4277745,0.0025000002,0.0025000002,0.0025000002,-0.000919705,-0.00073736906,0.0013943017,0.00055598875,-0.0006531107,0.0004502639,0.0025547966,0.002553142,0.002548386,3.6787333e-05,2.3744897e-05,8.470818e-05,0.00021708265,-8.42349e-05,5.9809874e-05,0,0,1
7016000,6859995,6864000,0,0.012677295,-0.21296278,0.4306088,0.0025000002,0.0025000002,0.0025000002,-0.0031490065,-0.0036319345,-0.0015450418,8.7566004e-05,-0.0010302757,0.00019789996,0.002553958,0.0025523065,0.0025475388,0.00043141062,0.00057563256,0.000104219886,0.0001350936,-0.00014636233,3.9071583e-05,0,0,1
7088000,6931996,6936000,0,0.009377642,-0.21557535,0.42958745,0.0025000002,0.0025000002,0.0025000002,0.00012481282,-0.0009384155,-0.0004849732,9.225447e-05,-0.001018688,0.000111996575,0.002553396,0.002551715,0.002546772,6.7788767e-07,3.832957e-05,1.0243279e-05,0.000118173935,-0.00013276364,3.286404e-05,0,0,1
7160000,7003996,7008000,0,0.010383647,-0.21142933,0.4321266,0.0025000002,0.0025000002,0.0025000002,-0.0007775493,-0.0049999803,-0.0029854178,-1.7231308e-05,-0.0015199647,-0.0002776818,0.002552618,0.0025509498,0.0025459803,2.6316464e-05,0.0010893798,0.00038854146,9.998633e-05,-0.00025317684,-2.0180003e-05,0,0,1
7232000,7075632,7080000,0,0.010455789,-0.21399458,0.42882285,0.0025000002,0.0025000002,0.0025000002,-0.000852071,-0.0023476034,0.00037190318,-0.00012185133,-0.0016238282,-0.00019621877,0.0025521154,0.0025504215,0.0025452713,3.1608855e-05,0.0002403403,6.0530833e-06,8.349515e-05,-0.00025156818,-1.6892538e-05,0,0,1
7304000,7147996,7152000,0,0.012127366,-0.21467537,0.42338407,0.0025000002,0.0025000002,0.0025000002,-0.0024113387,-0.0014282167,0.005902916,-0.00041131137,-0.0015995563,0.0005747327,0.0025514432,0.002549709,0.0025445297,0.00025321418,8.934342e-05,0.0015208798,4.0924973e-05,-0.0002310581,0.0001775281,0,0,1
7376000,7219997,7224000,0,0.0095125185,-0.21702035,0.42778882,0.0025000002,0.0025000002,0.0025000002,0.00028255163,0.0009110868,0.0013840497,-0.0003239709,-0.0012834752,0.00067658245,0.0025507405,0.00254902,0.0025438198,3.4776579e-06,3.6216014e-05,8.364847e-05,3.6211266e-05,-0.0001974148,0.00016571094,0,0,1
7440000,7287997,7288000,0,0.008531988,-0.21579343,0.43161052,0.0025000002,0.0025000002,0.0025000002,0.0012433364,-0.00027778745,-0.0024338067,-0.00013633553,-0.0011628554,0.00030433058,0.0025502576,0.002548511,0.0025431723,6.735203e-05,3.3198396e-06,0.00025858363,3.9939387e-05,-0.00017417809,0.00011491512,0,0,1
7512000,7357998,7360000,0,0.009652554,-0.21541123,0.43016815,0.0025000002,0.0025000002,0.0025000002,2.3757224e-05,-0.00061416626,-0.0009293258,-0.00011667477,-0.0010954709,0.00015286118,0.0025498644,0.0025480818,0.0025425625,2.4594149e-08,1.6447766e-05,3.7719234e-05,3.503751e-05,-0.00015480745,9.617032e-05,0,0,1
7584000,7429998,7432000,0,0.011697531,-0.21777436,0.4267978,0.0025000002,0.0025000002,0.0025000002,-0.001951988,0.0018031746,0.0024778545,-0.0003476932,-0.0007309693,0.00044522923,0.0025492343,0.0025474671,0.00254192,0.00016607414,0.00014136292,0.00026788266,9.7227585e-06,-0.00011752727,0.00011778446,0,0,1
7656000,7501598,7504000,0,0.0092986105,-0.21780287,0.42791256,0.0025000002,0.0025000002,0.0025000002,0.0003382594,0.0020591915,0.0014563799,-0.0002617691,-0.00038139898,0.0005718159,0.0025486178,0.0025468029,0.0025412766,4.988299e-06,0.00018509116,9.266385e-05,9.129709e-06,-7.962056e-05,0.00011463779,0,0,1
7728000,7573998,7576000,0,0.011332997,-0.21554218,0.43415844,0.0025000002,0.0025000002,0.0025000002,-0.0016951037,-9.11355e-05,-0.0047414005,-0.00044306437,-0.000345019,-0.00010039366,0.00254828,0.002546431,0.0025407248,0.00012528611,3.837172e-07,0.0009836864,-7.871874e-06,-6.959829e-05,-2.4283712e-05,0,0,1
7800000,7645598,7648000,0,0.009372688,-0.2164206,0.4297676,0.0025000002,0.0025000002,0.0025000002,0.00033350592,0.000771001,-0.0002875328,-0.0003457893,-0.00020515783,-0.00012384195,0.0025477153,0.0025458806,0.002540144,4.850803e-06,2.597898e-05,3.6177496e-06,-6.278201e-06,-5.762605e-05,-2.1695045e-05,0,0,1
7872000,7717999,7720000,0,0.01031141,-0.21955998,0.43080235,0.0025000002,0.0025000002,0.0025000002,-0.00065846805,0.0039512515,-0.0012888014,-0.00038533894,0.00032044103,-0.000271509,0.0025474166,0.0025455481,0.002539631,1.8911542e-05,0.000681113,7.295226e-05,-7.876148e-06,3.5814475e-05,-2.817839e-05,0,0,1
7944000,7789999,7792000,0,0.010909541,-0.2155089,0.42948285,0.0025000002,0.0025000002,0.0025000002,-0.0013019945,-0.000120192766,6.8217516e-05,-0.00050072215,0.00026471884,-0.00022886893,0.002547144,0.0025452361,0.0025391374,7.3947296e-05,6.5232376e-07,1.978617e-07,-1.6192796e-05,3.122425e-05,-2.4606554e-05,0,0,1
8016000,7861999,7864000,0,0.010948038,-0.21189788,0.427658,0.0025000002,0.0025000002,0.0025000002,-0.0011488,-0.0038509816,0.0018249452,-0.0005822984,-0.00025356206,2.9802133e-05,0.00254662,0.0025447283,0.0025386065,5.7581397e-05,0.00064811995,0.00014595743,-2.140255e-05,-5.42876e-05,-3.1369618e-06,0,0,1
8088000,7933199,7936000,0,0.010728686,-0.21506777,0.4293378,0.0025000002,0.0025000002,0.0025000002,-0.000866757,-0.00054965913,0.0001578629,-0.0006177561,-0.00029063897,4.5712794e-05,0.002546007,0.0025440839,0.0025380477,3.2786316e-05,1.32601035e-05,1.0852164e-06,-2.2821534e-05,-4.917353e-05,-2.610668e-06,0,0,1
8152000,7999999,8000000,0,0.013892714,-0.21719795,0.42950895,0.0025000002,0.0025000002,0.0025000002,-0.0039404472,0.001482889,-6.9499016e-05,-0.0010093506,-8.236835e-05,3.1671545e-05,0.00254571,0.002543764,0.0025375874,0.0006777033,9.523008e-05,2.3607859e-07,-0.00010000238,-3.2154898e-05,-2.3308116e-06,0,0,1
8224000,8071999,8072000,0,0.008604362,-0.21486752,0.43055767,0.0025000002,0.0025000002,0.0025000002,0.0012504995,-0.00084385276,-0.0011025071,-0.000724894,-0.00017796899,-0.00011091707,0.0025452464,0.0025433095,0.0025371034,6.826447e-05,3.096289e-05,5.309902e-05,-7.882193e-05,-3.2004853e-05,-8.721215e-06,0,0,1
8296000,8143999,8144000,0,0.005481605,-0.21304272,0.43378916,0.0025000002,0.0025000002,0.0025000002,0.004389761,-0.0025496334,-0.004266441,-8.1091304e-05,-0.00047561794,-0.00063337194,0.0025450394,0.0025430755,0.0025366812,0.00084128807,0.00028246437,0.0007954705,3.6996105e-05,-6.3531224e-05,-0.00010775259,0,0,1
8368000,8215272,8216000,0,0.010558178,-0.21318725,0.43244252,0.0025000002,0.0025000002,0.0025000002,-0.0008641682,-0.0022349209,-0.002790451,-0.00017878933,-0.0006952804,-0.0009024263,0.002544588,0.00254265,0.0025362214,3.2608936e-05,0.00021853538,0.00034100006,2.831206e-05,-8.286981e-05,-0.00013685295,0,0,1
8440000,8288000,8288000,0,0.011640849,-0.21064766,0.42993912,0.0025000002,0.0025000002,0.0025000002,-0.0017755919,-0.0049221814,-0.0003437996,-0.00038155966,-0.0012323982,-0.0008313659,0.00254395,0.0025419714,0.002535711,0.00013770041,0.00106025,5.1501206e-06,7.2309285e-06,-0.00020698267,-0.000120128636,0,0,1
8512000,8358909,8360000,0,0.009202777,-0.21713838,0.43048206,0.0025000002,0.0025000002,0.0025000002,0.00094808644,0.0016721934,-0.00086572766,-0.00021641272,-0.0008714449,-0.00083564344,0.002543765,0.002541763,0.0025353231,3.926236e-05,0.00012246183,3.2852357e-05,1.1209349e-05,-0.00016606445,-0.0001092886,0,0,1
8584000,8432000,8432000,0,0.011110598,-0.20716718,0.42768207,0.0025000002,0.0025000002,0.0025000002,-0.0010822595,-0.008427456,0.0018890798,-0.00032684125,-0.0018353462,-0.00048768564,0.0025433807,0.0025413807,0.0025349057,5.1169234e-05,0.0031064223,0.00015700872,3.2536973e-06,-0.00054107246,-7.5325515e-05,0,0,1
8656000,8503636,8504000,0,0.012351223,-0.21674213,0.42835325,0.0025000002,0.0025000002,0.0025000002,-0.002148356,0.0012957603,0.0012148619,-0.00055510894,-0.0014434019,-0.00027464685,0.0025432196,0.0025412038,0.0025345418,0.00020164439,7.301663e-05,6.442944e-05,-2.2423617e-05,-0.00046411634,-5.7811772e-05,0,0,1
8728000,8576000,8576000,0,0.017117437,-0.21163836,0.43269616,0.0025000002,0.0025000002,0.0025000002,-0.0070556058,-0.0038779676,-0.0031694174,-0.0013769672,-0.0017526618,-0.00064108684,0.0025430806,0.0025410315,0.002534195,0.0021750336,0.00066150806,0.0004414294,-0.0002945782,-0.0004890726,-0.00010631257,0,0,1
8800000,8648000,8648000,0,0.009596248,-0.21523646,0.42718655,0.0025000002,0.0025000002,0.0025000002,0.0005246669,-0.00024305284,0.0023768842,-0.0011376006,-0.0015625365,-0.0002611333,0.0025427043,0.0025406762,0.002533807,1.2028985e-05,2.5658771e-06,0.00024785742,-0.00025598428,-0.000427834,-6.1731735e-05,0,0,1
8872000,8716000,8720000,0,0.0073649255,-0.211225,0.43196177,0.0025000002,0.0025000002,0.0025000002,0.0026755698,-0.0041166395,-0.0023602247,-0.00068109436,-0.0018677966,-0.00051191763,0.002542049,0.0025399781,0.0025333355,0.00031290046,0.000739793,0.0002434373,-0.00018787837,-0.0004651812,-8.348522e-05,0,0,1
8944000,8784800,8792000,0,0.010609358,-0.21697555,0.42931244,0.0025000002,0.0025000002,0.0025000002,-0.00057556946,0.0017419159,0.00034952164,-0.00066833047,-0.0014312934,-0.00040788486,0.0025419241,0.002539831,0.0025330114,1.4480728e-05,0.00013259746,5.317377e-06,-0.0001669048,-0.00039287604,-7.274398e-05,0,0,1
9008000,8852000,8856000,0,0.006526998,-0.21953362,0.42977136,0.0025000002,0.0025000002,0.0025000002,0.0036569852,0.004267618,-0.00012111664,-0.00015588122,-0.0007554159,-0.00037384487,0.002541531,0.0025394687,0.0025326416,0.00058466685,0.0007990424,6.3778225e-07,-7.7861056e-05,-0.00025166143,-6.420107e-05,0,0,1
9080000,8924000,8928000,0,0.011488569,-0.21704258,0.42799968,0.0025000002,0.0025000002,0.0025000002,-0.001361211,0.0016797185,0.001627922,-0.00030760106,-0.00044917202,-0.00012214601,0.0025414317,0.0025393376,0.0025323406,8.100837e-05,0.00012313294,0.000115971496,-7.8257224e-05,-0.00020448453,-4.152201e-05,0,0,1
9152000,8996000,9000000,0,0.006914685,-0.21707478,0.42752537,0.0025000002,0.0025000002,0.0025000002,0.0032332055,0.0017658919,0.0021200478,0.00013809482,-0.00016968808,0.00016029007,0.0025413448,0.0025392266,0.0025320465,0.00045704667,0.00013727101,0.00019753113,-1.087632e-05,-0.00016146636,-1.1431406e-05,0,0,1
9224000,9067636,9072000,0,0.005893552,-0.21653031,0.4301501,0.0025000002,0.0025000002,0.0025000002,0.0042251484,0.001252681,-0.00050380826,0.00065027416,9.409967e-06,7.739848e-05,0.002541031,0.0025389334,0.0025317145,0.0007806052,6.94193e-05,1.1023046e-05,8.831017e-05,-0.00013253235,-1.1380232e-05,0,0,1
9296000,9140000,9144000,0,0.017270766,-0.21505523,0.42614707,0.0025000002,0.0025000002,0.0025000002,-0.0073543233,-0.0003363043,0.0034576654,-0.00036174752,-3.5785102e-05,0.00050403905,0.0025403202,0.0025381634,0.002531272,0.0023656716,5.303341e-06,0.00052304706,-0.00022194686,-0.00011644678,5.618744e-05,0,0,1
9368000,9211636,9216000,0,0.010629882,-0.21603864,0.42809063,0.0025000002,0.0025000002,0.0025000002,-0.0006838247,0.00074385107,0.0015232265,-0.00040210944,6.1778956e-05,0.00063164276,0.0025400294,0.0025378952,0.0025309557,2.0455416e-05,2.4152936e-05,0.000101733676,-0.00019669646,-9.882718e-05,6.189518e-05,0,0,1
9440000,9284000,9288000,0,0.008198866,-0.21279456,0.4286737,0.0025000002,0.0025000002,0.0025000002,0.0017921564,-0.0021890253,0.0010811388,-0.00012468829,-0.00022243321,0.0006888161,0.0025399593,0.0025378114,0.0025306859,0.00014050202,0.00020925657,5.1577892e-05,-0.00015406444,-0.00011278877,6.0590766e-05,0,0,1
9512000,9356000,9360000,0,0.0085979,-0.21489517,0.43070018,0.0025000002,0.0025000002,0.0025000002,0.0013224271,-2.7999282e-05,-0.0009369254,5.746608e-05,-0.0001976942,0.00048431614,0.0025398915,0.0025377248,0.0025304276,7.6504286e-05,2.9360272e-08,3.8454924e-05,-0.00012504181,-9.859528e-05,4.812348e-05,0,0,1
9584000,9428000,9432000,0,0.013859528,-0.21667127,0.42616636,0.0025000002,0.0025000002,0.0025000002,-0.0040195803,0.001643151,0.003557235,-0.0004557285,3.3217686e-05,0.00087057776,0.0025396198,0.002537471,0.0025301378,0.00070688734,0.00011730974,0.0005543614,-0.00019828111,-7.141843e-05,0.00011184573,0,0,1
9656000,9498909,9504000,0,0.008858343,-0.21629408,0.42698035,0.0025000002,0.0025000002,0.0025000002,0.00096481317,0.0015135258,0.0028387606,-0.000279292,0.0002172606,0.0011150241,0.002538866,0.0025366608,0.0025297024,4.073842e-05,0.00010053604,0.0003539354,-0.00016859401,-5.0061048e-05,0.00014191416,0,0,1
9728000,9572000,9576000,0,0.009697707,-0.21712257,0.43344513,0.0025000002,0.0025000002,0.0025000002,0.0003163073,0.0023505539,-0.0036484003,-0.00020333033,0.00048939954,0.0005073746,0.002538803,0.0025365765,0.0025294577,4.378717e-06,0.00024212079,0.0005850335,-0.00014653338,-1.27967e-05,4.9200564e-05,0,0,1
9800000,9643272,9648000,0,0.010195267,-0.21653426,0.4292636,0.0025000002,0.0025000002,0.0025000002,-0.00024976325,0.0016383827,0.0005238056,-0.00020912332,0.0006326964,0.0005092862,0.002538567,0.002536356,0.0025291895,2.730398e-06,0.000117534175,1.2002661e-05,-0.0001285925,3.463405e-06,4.4559747e-05,0,0,1
9872000,9716000,9720000,0,0.006137067,-0.21200605,0.4309583,0.0025000002,0.0025000002,0.0025000002,0.0038811334,-0.0029153228,-0.0011849105,0.0003102789,0.00018291696,0.00029475865,0.0025385243,0.0025362917,0.0025289615,0.00065931556,0.00037079342,6.1186685e-05,-2.8539805e-05,-4.4061686e-05,3.1131513e-05,0,0,1
9944000,9787636,9792000,0,0.00869618,-0.21564029,0.42629346,0.0025000002,0.0025000002,0.0025000002,0.0012672717,0.00086537004,0.0035532415,0.00043020686,0.0002686892,0.00070315856,0.002538487,0.0025362396,0.0025287387,7.0294605e-05,3.2958196e-05,0.00055489637,-1.6154125e-05,-3.4409746e-05,9.676842e-05,0,0,1
10016000,9860000,9864000,0,0.012817923,-0.20988823,0.435837,0.0025000002,0.0025000002,0.0025000002,-0.00286992,-0.0049589872,-0.0060625076,1.2971665e-05,-0.00039280453,-0.00015211594,0.002538259,0.0025360314,0.002528486,0.00036054643,0.0010793518,0.0016146542,-5.9695663e-05,-0.00016652183,-0.00011960682,0,0,1
10088000,9931272,9936000,0,0.009106472,-0.21698646,0.42924285,0.0025000002,0.0025000002,0.0025000002,0.0007709447,0.0021153092,0.0005630255,0.00010753652,-7.9744525e-05,-6.2969164e-05,0.0025374454,0.0025351408,0.002528064,2.6025986e-05,0.00019633086,1.39029335e-05,-4.9001013e-05,-0.00012125226,-0.000102950115,0,0,1
10160000,10004000,10008000,0,0.0061730584,-0.21533777,0.4238707,0.0025000002,0.0025000002,0.0025000002,0.0035955957,0.00040987134,0.0059129894,0.0005504685,-1.6893951e-05,0.0006962016,0.0025372345,0.00253495,0.0025278237,0.00056615926,7.556183e-06,0.0015381097,2.9115261e-05,-0.00010489549,0.00010544027,0,0,1
10232000,10075636,10080000,0,0.009473026,-0.21631458,0.42993638,0.0025000002,0.0025000002,0.0025000002,0.00055391487,0.0013374984,-0.00024104118,0.0005509004,0.00015293487,0.0005787042,0.0025371981,0.002534897,0.002527618,1.3436592e-05,7.850572e-05,2.5615811e-06,2.7150449e-05,-8.1912105e-05,9.190575e-05,0,0,1
10304000,10148000,10152000,0,0.010214753,-0.21912782,0.43088898,0.0025000002,0.0025000002,0.0025000002,-0.00021913664,0.004204154,-0.0011553466,0.00045354458,0.0006650852,0.0003591216,0.002537174,0.0025348563,0.0025274209,2.10299e-06,0.0007746185,5.896087e-05,2.3451936e-05,2.6379093e-05,7.283167e-05,0,0,1
10376000,10219636,10224000,0,0.008237018,-0.21695685,0.4291427,0.0025000002,0.0025000002,0.0025000002,0.001688123,0.0020574182,0.00063559413,0.0006082589,0.000839883,0.00039377366,0.0025369849,0.0025346896,0.0025271948,0.00012480955,0.00018600993,1.7763843e-05,3.615382e-05,4.6383633e-05,6.593071e-05,0,0,1
10448000,10292000,10296000,0,0.010632566,-0.21027684,0.42874533,0.0025000002,0.0025000002,0.0025000002,-0.00069657265,-0.0047600567,0.0009634197,0.00044328894,0.00013175159,0.0004660415,0.0025361218,0.0025337343,0.002526778,2.1257893e-05,0.0009940544,4.0981275e-05,2.8895254e-05,-8.515899e-05,6.277635e-05,0,0,1
10520000,10363272,10368000,0,0.008803102,-0.21608381,0.4311959,0.0025000002,0.0025000002,0.0025000002,0.00097412104,0.001119718,-0.0014761686,0.00050951564,0.00025518384,0.00022374885,0.0025360922,0.002533688,0.0025265906,4.1573665e-05,5.511883e-05,9.581019e-05,3.0477015e-05,-6.76579e-05,4.2991065e-05,0,0,1
10592000,10436000,10440000,0,0.006391226,-0.21611375,0.42737782,0.0025000002,0.0025000002,0.0025000002,0.0033972533,0.0012718737,0.0024225414,0.0008762157,0.0003849001,0.00050318375,0.0025359197,0.0025335443,0.0025263785,0.00050568243,7.1482726e-05,0.0002584793,9.082109e-05,-4.9989096e-05,7.035489e-05,0,0,1
10664000,10506545,10512000,0,0.009332955,-0.21509017,0.4276504,0.0025000002,0.0025000002,0.0025000002,0.00051621586,0.00041228533,0.002212733,0.00083170354,0.00038837956,0.00071458163,0.0025358996,0.0025335143,0.002526197,1.1675839e-05,7.48205e-06,0.00021538508,8.1035185e-05,-4.288308e-05,8.828714e-05,0,0,1
10736000,10580000,10584000,0,0.011131395,-0.22025545,0.43219674,0.0025000002,0.0025000002,0.0025000002,-0.0015087709,0.005354643,-0.0024564266,0.0005319075,0.0010242369,0.00030785255,0.002535893,0.0025334803,0.0025260304,9.9740864e-05,0.0012564508,0.00026634228,5.7879217e-05,0.0001235512,4.2861946e-05,0,0,1
10808000,10652000,10656000,0,0.009157057,-0.21600938,0.4276175,0.0025000002,0.0025000002,0.0025000002,0.0005210956,0.0010811687,0.0021534562,0.00053054653,0.0010314947,0.0005401306,0.002535729,0.0025333425,0.0025258332,1.1898424e-05,5.133754e-05,0.00020394454,5.2091425e-05,0.00011446137,6.3138075e-05,0,0,1
10880000,10724000,10728000,0,0.005305911,-0.2163519,0.42223766,0.0025000002,0.0025000002,0.0025000002,0.0044792867,0.0013565719,0.00748232,0.0010275907,0.0010731805,0.0014142633,0.0025348442,0.0025323564,0.0025254234,0.0008794759,8.147263e-05,0.0024647058,0.00015623771,0.000110308945,0.0003654333,0,0,1
10952000,10795272,10800000,0,0.01001486,-0.21719205,0.42998323,0.0025000002,0.0025000002,0.0025000002,-0.00039816706,0.0022981167,-0.00027114153,0.00084971293,0.00122594,0.001203798,0.0025348286,0.0025323245,0.0025252576,6.9492758e-06,0.0002316273,3.2719663e-06,0.00013587848,0.00012544464,0.00031943357,0,0,1
11024000,10868000,10872000,0,0.007047631,-0.21959518,0.43010268,0.0025000002,0.0025000002,0.0025000002,0.0027339782,0.0047655404,-0.0003475845,0.0010889869,0.0016758894,0.0010066952,0.0025346747,0.0025322014,0.0025250688,0.00032766146,0.0009980726,5.3403955e-06,0.00016023208,0.00023625551,0.00027819208,0,0,1
11096000,10939636,10944000,0,0.009483491,-0.21595839,0.42944857,0.0025000002,0.0025000002,0.0025000002,0.00044523767,0.0010978729,0.00030964613,0.0010083138,0.0016035283,0.0009192954,0.002534671,0.0025321818,0.002524911,8.689999e-06,5.29465e-05,4.209044e-06,0.00014124121,0.00021328368,0.00024385721,0,0,1
11168000,11012000,11016000,0,0.007408005,-0.21584798,0.42869678,0.0025000002,0.0025000002,0.0025000002,0.0025717642,0.00091920793,0.0010278523,0.001205981,0.00151745,0.0009331776,0.0025345343,0.002532069,0.0025247345,0.00028994898,3.7358972e-05,4.6607478e-05,0.00016004234,0.00019104152,0.00021891893,0,0,1
11240000,11084000,11088000,0,0.009602337,-0.21526578,0.42855957,0.0025000002,0.0025000002,0.0025000002,0.00048594511,0.00012782216,0.0010514259,0.0011153471,0.0013426088,0.0009480907,0.0025336337,0.0025310484,0.0025243338,1.0355906e-05,7.241322e-07,4.868075e-05,0.0001412007,0.00016708548,0.00019749034,0,0,1
11312000,11156000,11160000,0,0.010937045,-0.21992597,0.43479836,0.0025000002,0.0025000002,0.0025000002,-0.00083376165,0.0047304183,-0.0052230954,0.00087000476,0.0017689132,0.00017093244,0.0025336263,0.0025310207,0.0025241848,3.0485882e-05,0.0009819,0.0012021989,0.0001195898,0.00026964955,2.1305692e-05,0,0,1
11384000,11228000,11232000,0,0.011232552,-0.21472706,0.42955852,0.0025000002,0.0025000002,0.0025000002,-0.0013265552,-0.00046601892,8.5920095e-05,0.00059351476,0.0014873804,0.00016016106,0.0025334945,0.002530914,0.002524018,7.717704e-05,9.603584e-06,3.2075457e-07,9.482195e-05,0.0002344988,1.8664232e-05,0,0,1
11456000,11300000,11304000,0,0.0065176305,-0.21523821,0.42972714,0.0025000002,0.0025000002,0.0025000002,0.003481382,-7.286668e-05,-0.00014641881,0.00095702254,0.0012915463,0.00012185135,0.0025334922,0.002530893,0.0025238767,0.00053154654,2.0547255e-07,9.1527244e-07,0.00014979427,0.0002049556,1.619968e-05,0,0,1
11528000,11372000,11376000,0,0.009199845,-0.21569896,0.42878342,0.0025000002,0.0025000002,0.0025000002,0.0007196921,0.00050520897,0.0008587539,0.0009271488,0.0011926844,0.00021462739,0.0025334943,0.0025308835,0.0025237359,2.2715958e-05,1.1246923e-05,3.2479224e-05,0.0001337984,0.0001805727,1.8248853e-05,0,0,1
11600000,11444000,11448000,0,0.010383061,-0.21967238,0.42820033,0.0025000002,0.0025000002,0.0025000002,-0.0004316775,0.004367858,0.0013822019,0.00075610774,0.0015922823,0.0003612502,0.0025333709,0.0025307862,0.0025235803,8.172926e-06,0.0008373793,8.378428e-05,0.00011592788,0.00026324764,2.6498066e-05,0,0,1
11672000,11516000,11520000,0,0.008742282,-0.21520226,0.43050027,0.0025000002,0.0025000002,0.0025000002,0.0014596028,-0.00014704466,-0.0009416342,0.0008446596,0.0013735677,0.00019736313,0.002532473,0.0025297592,0.002523187,9.347211e-05,9.270738e-07,3.897173e-05,0.00011310128,0.00022999488,1.8257113e-05,0,0,1
11744000,11588000,11592000,0,0.0061895414,-0.21736248,0.43490314,0.0025000002,0.0025000002,0.0025000002,0.0040561347,0.0019220263,-0.0053834617,0.0012489012,0.0014432212,-0.0005049371,0.002532474,0.0025297399,0.002523055,0.00072183384,0.00016308442,0.0012756246,0.00018972496,0.00022157258,-0.0001446091,0,0,1
11816000,11659636,11664000,0,0.009599419,-0.2145828,0.42905992,0.0025000002,0.0025000002,0.0025000002,0.0002803038,-0.0006170571,0.00063961744,0.0011275191,0.0011850714,-0.00036145098,0.0025323592,0.0025296586,0.0025229028,3.4473878e-06,1.6707329e-05,1.804168e-05,0.00016638113,0.00019171194,-0.00012422612,0,0,1
11888000,11732000,11736000,0,0.005065791,-0.22012429,0.4199899,0.0025000002,0.0025000002,0.0025000002,0.0047675935,0.0049808472,0.009734213,0.0015877339,0.001665694,0.00091496704,0.0025323632,0.002529648,0.0025227738,0.0009973095,0.0010921954,0.004173477,0.00027143542,0.0003055601,0.00041913273,0,0,1
11960000,11803636,11808000,0,0.009681484,-0.21590494,0.42896843,0.0025000002,0.0025000002,0.0025000002,0.00029192382,0.0006894767,0.0006543994,0.0014253461,0.0015433963,0.0008822865,0.0025322505,0.0025295664,0.0025226308,3.7392963e-06,2.0900006e-05,1.8849776e-05,0.00023788841,0.0002698872,0.00036897027,0,0,1
12032000,11876000,11880000,0,0.009935102,-0.21864791,0.4287797,0.0025000002,0.0025000002,0.0025000002,0.00024909113,0.0033711046,0.00080633163,0.0012766322,0.0017745123,0.000872463,0.0025322633,0.002529564,0.0025225098,2.722483e-06,0.0004992705,2.8514907e-05,0.00020815637,0.00029888816,0.0003259265,0,0,1
12104000,11947636,11952000,0,0.007910293,-0.21643737,0.4314691,0.0025000002,0.0025000002,0.0025000002,0.002162566,0.0009809732,-0.0019651651,0.0013876552,0.0016753697,0.00051694614,0.0025313864,0.002528534,0.0025221345,0.00020527579,4.2494463e-05,0.00017001187,0.00020779538,0.00026675756,0.00026377675,0,0,1
12176000,12020000,12024000,0,0.014596087,-0.2158001,0.43050855,0.0025000002,0.0025000002,0.0025000002,-0.004466434,0.00028795004,-0.0010154247,0.00064752233,0.0014993292,0.0003228835,0.0025312821,0.0025284586,0.002521999,0.00087566656,3.5188502e-06,4.5656685e-05,7.081324e-05,0.00023347628,0.00022465506,0,0,1
12248000,12092000,12096000,0,0.009204156,-0.2173357,0.42951941,0.0025000002,0.0025000002,0.0025000002,0.0008745167,0.0017315745,-6.067753e-05,0.0006760951,0.0015286845,0.0002745498,0.0025312915,0.002528448,0.0025218837,3.3570017e-05,0.00013190796,1.644867e-07,6.6125285e-05,0.00022069147,0.0001963561,0,0,1
12320000,12164000,12168000,0,0.010580442,-0.21324147,0.43060273,0.0025000002,0.0025000002,0.0025000002,-0.00063449185,-0.002379477,-0.0011444092,0.0005111261,0.0010366549,9.604395e-05,0.0025313015,0.0025284418,0.00252177,1.7671187e-05,0.0002489649,5.7621717e-05,5.557748e-05,0.00016157389,0.00016438686,0,0,1
12392000,12236000,12240000,0,0.01060612,-0.2157061,0.43020207,0.0025000002,0.0025000002,0.0025000002,-0.00075710786,5.7041645e-05,-0.000754714,0.0003514883,0.0009132399,-1.1106953e-05,0.0025311974,0.0025283708,0.0025216436,2.5162108e-05,1.3875567e-07,2.5131065e-05,4.5414454e-05,0.00014125337,0.00014053145,0,0,1
12464000,12308000,12312000,0,0.0063622673,-0.22002816,0.43246537,0.0025000002,0.0025000002,0.0025000002,0.0036161952,0.0043173134,-0.0030440986,0.00076243037,0.0013421958,-0.00039288605,0.0025303438,0.002527356,0.0025212758,0.00057422445,0.00082086417,0.00040838003,0.00011197795,0.00022679879,7.14377e-05,0,0,1
12536000,12379272,12384000,0,0.0083265975,-0.21620707,0.4290136,0.0025000002,0.0025000002,0.0025000002,0.0016826044,0.0003605634,0.0003758669,0.0008772315,0.0012199457,-0.00029688925,0.0025303483,0.0025273392,0.002521166,0.00012432007,5.7712105e-06,6.2493637e-06,0.00011351775,0.00019922334,6.330479e-05,0,0,1
12608000,12452000,12456000,0,0.0124398265,-0.2181385,0.42732212,0.0025000002,0.0025000002,0.0025000002,-0.0022651935,0.0022818893,0.002057463,0.0004781899,0.0013544952,1.7901184e-06,0.002530257,0.0025272805,0.0025210432,0.00022532194,0.00022844865,0.00018615814,7.049012e-05,0.00020293453,7.890535e-05,0,0,1
12680000,12524000,12528000,0,0.007963906,-0.21562223,0.42876783,0.0025000002,0.0025000002,0.0025000002,0.002257226,-0.00017629564,0.0006324649,0.0007021245,0.0011621047,8.133052e-05,0.0025302663,0.0025272735,0.0025209351,0.00022373884,1.3301793e-06,1.7699322e-05,8.9780166e-05,0.00017722289,7.1201095e-05,0,0,1
12752000,12596000,12600000,0,0.004739561,-0.21051972,0.43088013,0.0025000002,0.0025000002,0.0025000002,0.005417479,-0.005374551,-0.0015350282,0.0012956655,0.00034002232,-0.00012143838,0.0025302772,0.002527269,0.0025208332,0.0012887951,0.001267285,0.00010312051,0.0002407051,-4.6032656e-06,4.9258517e-05,0,0,1
12824000,12668000,12672000,0,0.0105503695,-0.21523951,0.42912823,0.0025000002,0.0025000002,0.0025000002,-0.0005473783,-0.0006251633,0.00022813678,0.001063674,0.00021845844,-7.7433564e-05,0.0025301923,0.0025272171,0.0025207181,1.3157674e-05,1.7214581e-05,2.2945408e-06,0.00020875035,-6.190704e-06,4.334697e-05,0,0,1
12896000,12740000,12744000,0,0.006791711,-0.20842385,0.42681196,0.0025000002,0.0025000002,0.0025000002,0.003148266,-0.007606566,0.0024553537,0.0013260702,-0.0007661276,0.00024197382,0.0025293736,0.0025262241,0.0025203691,0.00043539895,0.002542826,0.00026680424,0.00023727954,-0.00032548743,7.147445e-05,0,0,1
12968000,12812000,12816000,0,0.0093768835,-0.21498215,0.42760274,0.0025000002,0.0025000002,0.0025000002,0.0005182865,-0.00096796453,0.0016625822,0.0012243912,-0.00079146674,0.00042087547,0.0025292824,0.0025261673,0.002520256,1.1800487e-05,4.1165877e-05,0.000121962905,0.00020889756,-0.0002896987,7.7829645e-05,0,0,1
13040000,12884000,12888000,0,0.012325219,-0.21899323,0.43348277,0.0025000002,0.0025000002,0.0025000002,-0.002475115,0.0031840354,-0.0041590333,0.00075871905,-0.00029135455,-0.0001559458,0.0025292935,0.0025261622,0.0025201542,0.0002691219,0.00044524664,0.0007635935,0.00014872728,-0.00019718811,-2.8083748e-05,0,0,1
13112000,12956000,12960000,0,0.008383113,-0.21459836,0.42851686,0.0025000002,0.0025000002,0.0025000002,0.0013784365,-0.0011532903,0.0008778274,0.0008367254,-0.0003996796,-2.5666071e-05,0.002529305,0.0025261582,0.0025200553,8.346989e-05,5.8365295e-05,3.40706e-05,0.00014051306,-0.00017971391,-2.0260126e-05,0,0,1
13184000,13028000,13032000,0,0.008046919,-0.21210876,0.4341723,0.0025000002,0.0025000002,0.0025000002,0.0017499337,-0.0036771,-0.004807532,0.0009516747,-0.00081200944,-0.000627249,0.0025292253,0.0025261121,0.0025199496,0.00013452815,0.00059417885,0.0010179742,0.00013975971,-0.00023188432,-0.00014584651,0,0,1
13256000,13099636,13104000,0,0.010232191,-0.21839282,0.42819944,0.0025000002,0.0025000002,0.0025000002,-0.00023919874,0.002625674,0.0011938214,0.0008024374,-0.00038123934,-0.0003991842,0.0025284472,0.0025251526,0.0025196094,2.5143247e-06,0.00030329675,6.272617e-05,0.00012193028,-0.00016481677,-0.000119708704,0,0,1
13328000,13172000,13176000,0,0.0096275285,-0.21172185,0.42871815,0.0025000002,0.0025000002,0.0025000002,0.0005913729,-0.004036486,0.0006724894,0.00077575253,-0.0008433112,-0.00026345102,0.0025284535,0.0025251415,0.0025195132,1.5368283e-05,0.0007167616,2.005744e-05,0.00010845764,-0.00023459918,-0.000102038066,0,0,1
13400000,13244000,13248000,0,0.009588085,-0.21817724,0.429148,0.0025000002,0.0025000002,0.0025000002,0.0006526789,0.0024187714,0.00022572279,0.00076026074,-0.00043262428,-0.00020197203,0.0025283764,0.0025250965,0.0025194115,1.872039e-05,0.0002575632,2.231984e-06,9.716205e-05,-0.00017264868,-8.891316e-05,0,0,1
13472000,13316000,13320000,0,0.00938387,-0.22100729,0.42773452,0.0025000002,0.0025000002,0.0025000002,0.00085379515,0.0053234696,0.0016850233,0.0007720343,0.0002920147,3.5309e-05,0.002528388,0.0025250916,0.0025193186,3.2034735e-05,0.0012473668,0.00012493724,8.89642e-05,6.0945167e-06,-6.199493e-05,0,0,1
13544000,13386909,13392000,0,0.010747897,-0.2153795,0.42814273,0.0025000002,0.0025000002,0.0025000002,-0.00029844113,-0.00045399368,0.0012003779,0.0006390773,0.000199322,0.00018001748,0.002528401,0.0025250856,0.0025192339,3.9140727e-06,9.08095e-06,6.3553765e-05,7.742838e-05,4.209668e-06,-4.640132e-05,0,0,1
13616000,13460000,13464000,0,0.008041255,-0.216447,0.4248265,0.0025000002,0.0025000002,0.0025000002,0.0021903743,0.00042431056,0.004416853,0.0008369269,0.0002282706,0.00072047027,0.0025283326,0.0025250465,0.0025191416,0.00021084338,7.996918e-06,0.00086075044,9.4443894e-05,4.692687e-06,6.929519e-05,0,0,1
13688000,13530545,13536000,0,0.00995905,-0.21678962,0.42832956,0.0025000002,0.0025000002,0.0025000002,0.00041154065,0.0008409023,0.0009189844,0.00078433007,0.00030406224,0.0007449969,0.0025276018,0.0025241268,0.002518817,7.4451646e-06,3.1152675e-05,3.7242185e-05,8.3686944e-05,7.9643305e-06,6.5331995e-05,0,0,1
13760000,13604000,13608000,0,0.010435999,-0.21982743,0.43270066,0.0025000002,0.0025000002,0.0025000002,5.710411e-05,0.0038025826,-0.0034958124,0.00069117825,0.0007521977,0.00020159362,0.0025275259,0.0025240842,0.0025187247,1.4334964e-07,0.0006365264,0.00053956173,7.298568e-05,8.8478104e-05,-1.2150056e-05,0,0,1
13832000,13676000,13680000,0,0.010132943,-0.21615884,0.42751122,0.0025000002,0.0025000002,0.0025000002,0.0003216798,5.7041645e-05,0.0016904771,0.00064466795,0.00066472776,0.0003890163,0.0025275385,0.0025240758,0.0025186404,4.5489096e-06,1.4451972e-07,0.00012608242,6.4371256e-05,7.735919e-05,5.2498362e-06,0,0,1
13904000,13748000,13752000,0,0.0042621414,-0.21962191,0.42377856,0.0025000002,0.0025000002,0.0025000002,0.006228719,0.0036637038,0.005485326,0.0013475554,0.0010428821,0.0010306339,0.0025275508,0.0025240725,0.0025185533,0.0017055131,0.0005925709,0.0013279081,0.00027094854,0.000142211,0.00017173828,0,0,1
13976000,13819636,13824000,0,0.008131412,-0.21417683,0.42997518,0.0025000002,0.0025000002,0.0025000002,0.0022888035,-0.0016750842,-0.00068327785,0.0014655102,0.0007025132,0.0008160537,0.0025274826,0.0025240402,0.0025184609,0.00023029596,0.00012323717,2.0500158e-05,0.00026585406,0.00010894571,0.00014764744,0,0,1
14048000,13892000,13896000,0,0.004086611,-0.21617948,0.43295676,0.0025000002,0.0025000002,0.0025000002,0.0063838605,0.00029689074,-0.0036819577,0.0020873374,0.00065185264,0.0002476484,0.0025267974,0.0025231612,0.0025181556,0.0017920654,4.0113227e-06,0.00059746613,0.00045881304,9.567885e-05,5.3442694e-05,0,0,1
14120000,13963636,13968000,0,0.009637335,-0.21611151,0.42723405,0.0025000002,0.0025000002,0.0025000002,0.0006733077,5.8442354e-05,0.0019822419,0.0019101348,0.0005775524,0.0004650572,0.0025268057,0.0025231459,0.002518077,1.9934841e-05,1.530681e-07,0.00017342868,0.00040381393,8.37078e-05,6.8479036e-05,0,0,1
14192000,14036000,14040000,0,0.014157398,-0.21615355,0.42555347,0.0025000002,0.0025000002,0.0025000002,-0.0036726473,0.00025102496,0.0037219524,0.0012043035,0.00053590507,0.0008766451,0.0025267361,0.002523113,0.0025179887,0.00059313845,2.7115784e-06,0.00061081664,0.00027776917,7.346744e-05,0.0001370468,0,0,1
14264000,14108000,14112000,0,0.009246097,-0.2167697,0.4291672,0.0025000002,0.0025000002,0.0025000002,0.0011388841,0.0008224249,6.571412e-05,0.0011960688,0.0005720843,0.0007745857,0.0025267494,0.0025231058,0.0025179104,5.70367e-05,2.9851693e-05,1.9129038e-07,0.00024998467,6.7977344e-05,0.00011982023,0,0,1
14336000,14180000,14184000,0,0.00943627,-0.21850228,0.42826715,0.0025000002,0.0025000002,0.0025000002,0.0009862107,0.0025056005,0.00094270706,0.0011696531,0.000815559,0.00079566345,0.0025267615,0.0025231005,0.0025178345,4.276935e-05,0.0002766359,3.916215e-05,0.00022390163,9.424205e-05,0.00010966747,0,0,1
14408000,14252000,14256000,0,0.009875373,-0.21737346,0.43208167,0.0025000002,0.0025000002,0.0025000002,0.0006259021,0.0012715459,-0.0029255152,0.001101209,0.0008730185,0.00032722874,0.002526703,0.0025230744,0.002517755,1.7227256e-05,7.1257586e-05,0.0003777732,0.00019788668,9.1348906e-05,4.8311304e-05,0,0,1
14480000,14324000,14328000,0,0.017288312,-0.21729593,0.4280453,0.0025000002,0.0025000002,0.0025000002,-0.0068372423,0.0011904538,0.0011324584,0.00010196341,0.0009123544,0.00042824153,0.0025260635,0.0025222395,0.002517466,0.0020562464,6.191404e-05,5.632945e-05,-8.585035e-05,8.764382e-05,4.932058e-05,0,0,1
14552000,14395272,14400000,0,0.00801493,-0.21656388,0.43057698,0.0025000002,0.0025000002,0.0025000002,0.0024432596,0.00035469234,-0.0014542043,0.0003940639,0.0008429978,0.00019346988,0.0025260756,0.002522228,0.0025173926,0.00026257322,5.5967353e-06,9.325288e-05,-4.238096e-05,7.740761e-05,3.153309e-05,0,0,1
14624000,14468000,14472000,0,0.010460281,-0.21654108,0.42747602,0.0025000002,0.0025000002,0.0025000002,4.4981738e-05,0.0003618598,0.001670599,0.00034973564,0.0007819019,0.00038102773,0.0025260109,0.0025221983,0.002517313,8.900097e-08,5.7688285e-06,0.00012316882,-3.6987905e-05,6.8310546e-05,4.3169475e-05,0,0,1
14696000,14539636,14544000,0,0.008570551,-0.21620949,0.4294103,0.0025000002,0.0025000002,0.0025000002,0.0019601195,0.00020863116,-0.0001834333,0.00055154494,0.00071023783,0.0003103679,0.0025260246,0.0025221955,0.002517236,0.00016899935,1.943532e-06,1.4752832e-06,-1.1174099e-05,5.99936e-05,3.7574704e-05,0,0,1
14768000,14612000,14616000,0,0.008726342,-0.21743372,0.4292684,0.0025000002,0.0025000002,0.0025000002,0.001834984,0.0014779717,-1.7523766e-05,0.0007138102,0.00080746994,0.0002689168,0.0025259666,0.0025221724,0.0025171586,0.00014811344,9.6403586e-05,1.3503001e-08,8.964631e-06,6.459691e-05,3.2822427e-05,0,0,1
14840000,14684000,14688000,0,0.009798005,-0.2167104,0.42855534,0.0025000002,0.0025000002,0.0025000002,0.0008290307,0.0005185008,0.0005785525,0.00072831346,0.00077116874,0.00030790322,0.0025253738,0.0025213812,0.0025168913,3.0239391e-05,1.1873599e-05,1.4781339e-05,1.1642573e-05,5.7960413e-05,3.055152e-05,0,0,1
14912000,14756000,14760000,0,0.0058623757,-0.218787,0.43037027,0.0025000002,0.0025000002,0.0025000002,0.0048351614,0.0026561916,-0.0012084842,0.0012452593,0.0010088494,0.000117105825,0.0025253848,0.002521373,0.0025168187,0.0010286126,0.00031166713,6.440964e-05,0.00013965278,8.989552e-05,1.8598368e-05,0,0,1
14984000,14827636,14832000,0,0.011396637,-0.21709532,0.42971206,0.0025000002,0.0025000002,0.0025000002,-0.0007457931,0.00086708367,-0.00058436394,0.0009957456,0.0009910183,2.9127303e-05,0.002525325,0.002521345,0.002516746,2.447242e-05,3.3092143e-05,1.5105669e-05,0.000119085016,8.2777064e-05,1.4374662e-05,0,0,1
15056000,14900000,14904000,0,0.009404894,-0.21581416,0.42712152,0.0025000002,0.0025000002,0.0025000002,0.001181544,-0.0003811717,0.002030313,0.0010192362,0.0008176281,0.0002821979,0.0025253363,0.0025213372,0.0025166767,6.1424e-05,6.3773173e-06,0.00018207975,0.00011179493,7.1505274e-05,3.5577625e-05,0,0,1
15128000,14972000,14976000,0,0.010373333,-0.21625552,0.4300301,0.0025000002,0.0025000002,0.0025000002,9.1686765e-05,4.3913722e-05,-0.0008969009,0.0009024817,0.0007202444,0.00013377768,0.0025253487,0.0025213314,0.0025166092,3.698703e-07,8.5195495e-08,3.5517973e-05,9.77694e-05,6.251533e-05,2.662853e-05,0,0,1
15200000,15044000,15048000,0,0.012169817,-0.21010041,0.4367585,0.0025000002,0.0025000002,0.0025000002,-0.0016588537,-0.0060565174,-0.0075956583,0.0005800759,-0.00013291585,-0.00083894294,0.0025252944,0.0025213137,0.0025165367,0.000121077,0.0016171035,0.0025461852,7.0222304e-05,-0.00014890521,-0.00029722214,0,0,1
15272000,15116000,15120000,0,0.01054848,-0.21513483,0.42765462,0.0025000002,0.0025000002,0.0025000002,1.1529319e-06,-0.0008826405,0.0016068816,0.0005072045,-0.00022728895,-0.0005310408,0.002524747,0.0025205717,0.0025162785,5.8498796e-11,3.43434e-05,0.000114057075,6.138314e-05,-0.00013448484,-0.00024545274,0,0,1
15344000,15188000,15192000,0,0.006836408,-0.21247767,0.42390627,0.0025000002,0.0025000002,0.0025000002,0.0035556029,-0.0036390722,0.0052960813,0.00089091895,-0.000656459,0.00020271027,0.0025247615,0.0025205638,0.002516214,0.0005563699,0.0005830427,0.0012395607,0.00012368917,-0.00019094667,-5.8527992e-05,0,0,1
15416000,15260000,15264000,0,0.009346498,-0.21541674,0.4299562,0.0025000002,0.0025000002,0.0025000002,0.0009820438,-0.0007079989,-0.000797838,0.00090238923,-0.00066286756,7.683228e-05,0.002524702,0.002520539,0.0025161456,4.244329e-05,2.2057646e-05,2.8072951e-05,0.00011346242,-0.0001696879,-5.469449e-05,0,0,1
15488000,15332000,15336000,0,0.011133097,-0.21489385,0.4272896,0.0025000002,0.0025000002,0.0025000002,-0.0007308112,-0.0012772232,0.0018457472,0.0006968116,-0.0007402585,0.0002995162,0.0025247177,0.002520535,0.0025160827,2.3504717e-05,7.19647e-05,0.00015047505,9.6221804e-05,-0.00015738708,-2.8868955e-05,0,0,1
15560000,15404000,15408000,0,0.008401324,-0.21510582,0.42852512,0.0025000002,0.0025000002,0.0025000002,0.0019596105,-0.0009863377,0.00063702464,0.0008557653,-0.0007710745,0.00034211067,0.002524665,0.0025205163,0.002516015,0.00016900254,4.2776614e-05,1.797039e-05,0.00010538301,-0.00014296059,-2.2973094e-05,0,0,1
15632000,15476000,15480000,0,0.013600991,-0.21473923,0.43236634,0.0025000002,0.0025000002,0.0025000002,-0.0034855588,-0.0013582557,-0.00320822,0.00030930497,-0.0008452654,-0.0001048503,0.0025246802,0.0025205128,0.002515954,0.0005346825,8.1593e-05,0.00045470113,2.4815337e-05,-0.000135236,-7.731648e-05,0,0,1
