timestamp,timestamp_sample,control[0],control[1],control[2],control[3],control[4],control[5],control[6],control[7],control[8],control[9],control[10],control[11],reversible_flags
1264000,1264000,0.0,0.0,0.0,0.0,nan,nan,nan,nan,nan,nan,nan,nan,0
1268000,1268000,2.3283064e-10,0.0,0.0,2.3283064e-10,nan,nan,nan,nan,nan,nan,nan,nan,0
1364000,1364000,0.0,0.0,0.0,0.0,nan,nan,nan,nan,nan,nan,nan,nan,0
1464000,1464000,0.0,0.0,0.0,7.838632e-11,nan,nan,nan,nan,nan,nan,nan,nan,0
1564000,1564000,0.0,0.0,0.0,0.0,nan,nan,nan,nan,nan,nan,nan,nan,0
1664000,1664000,0.0,1.5677264e-10,0.0,0.0,nan,nan,nan,nan,nan,nan,nan,nan,0
1764000,1764000,0.0,2.5766594e-10,0.0,0.0,nan,nan,nan,nan,nan,nan,nan,nan,0
1864000,1864000,2.8376235e-10,0.0,0.0,0.0,nan,nan,nan,nan,nan,nan,nan,nan,0
1964000,1964000,0.0,5.820766e-11,0.0,0.0,nan,nan,nan,nan,nan,nan,nan,nan,0
2064000,2064000,0.002,0.0,0.0019999999,0.0,nan,nan,nan,nan,nan,nan,nan,nan,0
2164000,2164000,0.0,0.002,0.0,0.0019999999,nan,nan,nan,nan,nan,nan,nan,nan,0
2264000,2264000,0.0019999999,0.0,0.0019999999,0.0,nan,nan,nan,nan,nan,nan,nan,nan,0
2360000,2360000,0.0001872424,0.0018127573,0.0019999999,0.0,nan,nan,nan,nan,nan,nan,nan,nan,0
2464000,2464000,0.0019999999,0.0,0.0019999999,5.820766e-11,nan,nan,nan,nan,nan,nan,nan,nan,0
2564000,2564000,0.0005190476,0.00023092522,0.0025419192,0.0007081078,nan,nan,nan,nan,nan,nan,nan,nan,0
2664000,2664000,0.0019999996,2.3283064e-10,0.0019999996,0.0,nan,nan,nan,nan,nan,nan,nan,nan,0
2764000,2764000,0.0,0.0019999999,1.1641532e-10,0.002,nan,nan,nan,nan,nan,nan,nan,nan,0
2864000,2864000,0.00013372942,0.0016228661,0.002105522,0.00013788206,nan,nan,nan,nan,nan,nan,nan,nan,0
2964000,2964000,0.00011727891,0.0021532446,0.00018231067,0.0015471658,nan,nan,nan,nan,nan,nan,nan,nan,0
3064000,3064000,0.0020000003,0.0,0.0020000003,0.0,nan,nan,nan,nan,nan,nan,nan,nan,0
3164000,3164000,0.0,0.0020000003,0.0,0.0020000003,nan,nan,nan,nan,nan,nan,nan,nan,0
3264000,3264000,0.002,0.0,0.0019999999,0.0,nan,nan,nan,nan,nan,nan,nan,nan,0
3364000,3364000,0.0019999999,0.0,0.0019999999,0.0,nan,nan,nan,nan,nan,nan,nan,nan,0
3464000,3464000,0.00114773,0.0008522698,0.0019999999,0.0,nan,nan,nan,nan,nan,nan,nan,nan,0
3564000,3564000,0.0019999996,0.0,0.0019999996,0.0,nan,nan,nan,nan,nan,nan,nan,nan,0
3664000,3664000,0.0019999999,2.3283064e-10,0.0019999999,0.0,nan,nan,nan,nan,nan,nan,nan,nan,0
3764000,3764000,0.0,0.0019999999,0.0,0.002,nan,nan,nan,nan,nan,nan,nan,nan,0
3864000,3864000,0.00096683425,0.0020417825,0.0007018901,0.00028949295,nan,nan,nan,nan,nan,nan,nan,nan,0
3964000,3964000,0.0,0.0020000003,0.0,0.0019999994,nan,nan,nan,nan,nan,nan,nan,nan,0
4064000,4064000,0.0019999999,0.0,0.0019999999,0.0,nan,nan,nan,nan,nan,nan,nan,nan,0
4164000,4164000,0.0,0.0019999999,0.0,0.0019999996,nan,nan,nan,nan,nan,nan,nan,nan,0
4264000,4264000,0.0019999999,0.0,0.0019999999,0.0,nan,nan,nan,nan,nan,nan,nan,nan,0
4364000,4364000,0.0019999999,0.0,0.002,0.0,nan,nan,nan,nan,nan,nan,nan,nan,0
4464000,4464000,0.0019999999,0.0,0.0019999999,0.0,nan,nan,nan,nan,nan,nan,nan,nan,0
4564000,4564000,0.0019999999,0.0,0.0019999996,0.0,nan,nan,nan,nan,nan,nan,nan,nan,0
4664000,4664000,0.0005899323,0.0014100675,0.0019999999,0.0,nan,nan,nan,nan,nan,nan,nan,nan,0
4764000,4764000,0.0020000003,0.0,0.0020000003,0.0,nan,nan,nan,nan,nan,nan,nan,nan,0
4864000,4864000,0.0,0.0019999999,7.869443e-06,0.0019921304,nan,nan,nan,nan,nan,nan,nan,nan,0
4964000,4964000,0.0004883175,0.002638068,0.0005471048,0.0003265094,nan,nan,nan,nan,nan,nan,nan,nan,0
5064000,5064000,0.0020846215,0.00011057245,0.0004823936,0.0013224119,nan,nan,nan,nan,nan,nan,nan,nan,0
5164000,5164000,0.0019999999,1.4551915e-11,0.0019999999,0.0,nan,nan,nan,nan,nan,nan,nan,nan,0
5264000,5264000,0.00019178353,0.002250597,0.0,0.0015576192,nan,nan,nan,nan,nan,nan,nan,nan,0
5364000,5364000,0.0020105715,0.0004592947,0.0014858415,4.4292246e-05,nan,nan,nan,nan,nan,nan,nan,nan,0
5464000,5464000,0.0,0.00048192116,0.0026581264,0.0008599522,nan,nan,nan,nan,nan,nan,nan,nan,0
5564000,5564000,0.0,0.0019999999,0.0010752548,0.0009247452,nan,nan,nan,nan,nan,nan,nan,nan,0
5664000,5664000,0.002,0.0,0.002,0.0,nan,nan,nan,nan,nan,nan,nan,nan,0
5764000,5764000,0.0018952162,0.00010478377,0.0,0.0019999996,nan,nan,nan,nan,nan,nan,nan,nan,0
5864000,5864000,0.0012890423,0.00095729076,0.001650263,0.00010340371,nan,nan,nan,nan,nan,nan,nan,nan,0
5964000,5964000,0.000307958,0.0016920418,0.0019999999,0.0,nan,nan,nan,nan,nan,nan,nan,nan,0
6064000,6064000,0.0011465736,0.0008534263,0.0019999999,0.0,nan,nan,nan,nan,nan,nan,nan,nan,0
6164000,6164000,0.0019999996,0.0,0.0019999996,0.0,nan,nan,nan,nan,nan,nan,nan,nan,0
6260000,6260000,0.0,0.0019999999,0.0,0.0019999999,nan,nan,nan,nan,nan,nan,nan,nan,0
6364000,6364000,0.0019999999,0.0,0.002,0.0,nan,nan,nan,nan,nan,nan,nan,nan,0
6464000,6464000,0.0,0.0019999999,0.0,0.0020000003,nan,nan,nan,nan,nan,nan,nan,nan,0
6564000,6564000,0.0,0.0019999996,0.0,0.0019999996,nan,nan,nan,nan,nan,nan,nan,nan,0
6664000,6664000,0.00142498,0.00057502,0.0019999999,0.0,nan,nan,nan,nan,nan,nan,nan,nan,0
6764000,6764000,0.0,0.0019999999,0.0,0.0020000003,nan,nan,nan,nan,nan,nan,nan,nan,0
6864000,6864000,0.0017466949,0.0,0.0012552456,0.0009980592,nan,nan,nan,nan,nan,nan,nan,nan,0
6964000,6964000,0.0019999999,0.0,0.0019999999,0.0,nan,nan,nan,nan,nan,nan,nan,nan,0
7064000,7064000,0.0,0.0019999999,0.0,0.0019999999,nan,nan,nan,nan,nan,nan,nan,nan,0
7164000,7164000,0.0,0.0019999999,0.0,0.0019999999,nan,nan,nan,nan,nan,nan,nan,nan,0
7264000,7264000,0.0,0.00073511596,0.0025483603,0.00071652373,nan,nan,nan,nan,nan,nan,nan,nan,0
7364000,7364000,0.0019999999,0.0,0.001509736,0.0004902639,nan,nan,nan,nan,nan,nan,nan,nan,0
7464000,7464000,2.3283064e-10,0.0019999999,0.0,0.0019999994,nan,nan,nan,nan,nan,nan,nan,nan,0
7560000,7560000,0.0,0.0019999999,0.0,0.0020000003,nan,nan,nan,nan,nan,nan,nan,nan,0
7664000,7664000,0.0,0.0019999999,0.0,0.0019999999,nan,nan,nan,nan,nan,nan,nan,nan,0
7764000,7764000,0.0019999999,0.0,0.0016203716,0.00037962827,nan,nan,nan,nan,nan,nan,nan,nan,0
7864000,7864000,0.0,0.0019999996,0.0,0.0019999999,nan,nan,nan,nan,nan,nan,nan,nan,0
7960000,7960000,0.0019345602,6.543961e-05,0.0019999999,0.0,nan,nan,nan,nan,nan,nan,nan,nan,0
8064000,8064000,0.0,0.0019999999,0.0,0.0020000003,nan,nan,nan,nan,nan,nan,nan,nan,0
8164000,8164000,0.0006942576,0.0013057422,0.0,0.0019999999,nan,nan,nan,nan,nan,nan,nan,nan,0
8264000,8264000,0.0019999999,0.0,0.0019999999,0.0,nan,nan,nan,nan,nan,nan,nan,nan,0
8364000,8364000,0.0,0.0019999999,0.0,0.0019999999,nan,nan,nan,nan,nan,nan,nan,nan,0
8464000,8464000,0.002,0.0,0.002,0.0,nan,nan,nan,nan,nan,nan,nan,nan,0
8564000,8564000,0.0014148168,0.0014559148,1.4551915e-11,0.0011292681,nan,nan,nan,nan,nan,nan,nan,nan,0
8664000,8664000,0.0011162398,0.00088376016,0.0019999999,0.0,nan,nan,nan,nan,nan,nan,nan,nan,0
8764000,8764000,0.0,0.0019999994,0.0,0.0019999999,nan,nan,nan,nan,nan,nan,nan,nan,0
8864000,8864000,0.0019999999,0.0,0.0020000003,0.0,nan,nan,nan,nan,nan,nan,nan,nan,0
8964000,8964000,0.0,0.0019999999,0.0,0.0019999999,nan,nan,nan,nan,nan,nan,nan,nan,0
9064000,9064000,0.0013126588,0.0014468594,0.0012404813,0.0,nan,nan,nan,nan,nan,nan,nan,nan,0
9164000,9164000,0.0,0.0019999999,0.0,0.002,nan,nan,nan,nan,nan,nan,nan,nan,0
9264000,9264000,0.0,0.0019999999,0.0,0.0019999999,nan,nan,nan,nan,nan,nan,nan,nan,0
9364000,9364000,0.0,0.0019999999,0.0,0.0019999999,nan,nan,nan,nan,nan,nan,nan,nan,0
9464000,9464000,0.00028761697,0.0016669853,0.00021612448,0.001829273,nan,nan,nan,nan,nan,nan,nan,nan,0
9564000,9564000,0.0005126875,0.0018929403,0.001239547,0.00035482494,nan,nan,nan,nan,nan,nan,nan,nan,0
9664000,9664000,0.0,0.0019999999,0.0,0.0019999999,nan,nan,nan,nan,nan,nan,nan,nan,0
9764000,9764000,0.0003693414,0.0024826059,0.00012817763,0.0010198747,nan,nan,nan,nan,nan,nan,nan,nan,0
9864000,9864000,0.0019999999,0.0,0.0019999999,0.0,nan,nan,nan,nan,nan,nan,nan,nan,0
9964000,9964000,0.0021301196,0.00017002277,0.0012294615,0.00047039607,nan,nan,nan,nan,nan,nan,nan,nan,0
10064000,10064000,0.0019999999,0.0,0.0019999994,0.0,nan,nan,nan,nan,nan,nan,nan,nan,0
10160000,10160000,0.0019999999,0.0,0.0019999999,0.0,nan,nan,nan,nan,nan,nan,nan,nan,0
10264000,10264000,0.0,0.0019999999,0.0008931593,0.0011068406,nan,nan,nan,nan,nan,nan,nan,nan,0
10360000,10360000,0.00077095616,5.1065465e-05,0.002510684,0.00066729396,nan,nan,nan,nan,nan,nan,nan,nan,0
10464000,10464000,0.0,0.002,0.0,0.0019999996,nan,nan,nan,nan,nan,nan,nan,nan,0
10564000,10564000,0.0,0.001999999,0.0,0.001999999,nan,nan,nan,nan,nan,nan,nan,nan,0
10664000,10664000,0.0,0.002,0.0,0.002,nan,nan,nan,nan,nan,nan,nan,nan,0
10764000,10764000,0.00049378764,0.0015062122,0.0019999999,0.0,nan,nan,nan,nan,nan,nan,nan,nan,0
10864000,10864000,0.0,0.0019999999,0.0,0.0020000003,nan,nan,nan,nan,nan,nan,nan,nan,0
10964000,10964000,0.0019999999,0.0,0.0019999999,0.0,nan,nan,nan,nan,nan,nan,nan,nan,0
11060000,11060000,0.0,0.0019999999,0.0,0.0019999999,nan,nan,nan,nan,nan,nan,nan,nan,0
11164000,11164000,0.002000001,0.0,0.0019999996,0.0,nan,nan,nan,nan,nan,nan,nan,nan,0
11264000,11264000,0.00015825778,0.00220679,0.0,0.0016349519,nan,nan,nan,nan,nan,nan,nan,nan,0
11364000,11364000,0.0,0.0019999999,0.0,0.0019999999,nan,nan,nan,nan,nan,nan,nan,nan,0
11464000,11464000,0.0019999999,0.0,0.0019999999,0.0,nan,nan,nan,nan,nan,nan,nan,nan,0
11564000,11564000,0.0019999999,0.0,0.0020000003,0.0,nan,nan,nan,nan,nan,nan,nan,nan,0
11664000,11664000,4.656613e-10,0.0020000003,0.0,0.0019999985,nan,nan,nan,nan,nan,nan,nan,nan,0
11764000,11764000,0.0019999999,0.0,0.001659239,0.00034076092,nan,nan,nan,nan,nan,nan,nan,nan,0
11864000,11864000,0.0023295858,0.000430659,0.0011953987,4.435613e-05,nan,nan,nan,nan,nan,nan,nan,nan,0
11964000,11964000,0.0019999999,0.0,0.0019999999,0.0,nan,nan,nan,nan,nan,nan,nan,nan,0
12064000,12064000,0.0,0.0019999996,0.0,0.002,nan,nan,nan,nan,nan,nan,nan,nan,0
12164000,12164000,0.0,0.0019999996,0.0,0.0019999996,nan,nan,nan,nan,nan,nan,nan,nan,0
12264000,12264000,0.0,0.0020000003,0.0,0.0019999994,nan,nan,nan,nan,nan,nan,nan,nan,0
12364000,12364000,0.0,0.0019999999,0.0,0.0019999999,nan,nan,nan,nan,nan,nan,nan,nan,0
12464000,12464000,0.0019999999,0.0,0.0019999999,0.0,nan,nan,nan,nan,nan,nan,nan,nan,0
12564000,12564000,0.00026215985,0.0019507735,0.0012975074,0.00048955897,nan,nan,nan,nan,nan,nan,nan,nan,0
12664000,12664000,0.0,0.0020000003,0.0,0.0020000003,nan,nan,nan,nan,nan,nan,nan,nan,0
12764000,12764000,0.0,0.0019999999,0.0,0.0019999999,nan,nan,nan,nan,nan,nan,nan,nan,0
12864000,12864000,0.0016823062,0.00031769357,0.0019999999,0.0,nan,nan,nan,nan,nan,nan,nan,nan,0
12964000,12964000,0.0019999999,0.0,0.0019999999,0.0,nan,nan,nan,nan,nan,nan,nan,nan,0
13064000,13064000,0.00077743246,0.0014480248,0.000253574,0.0015209685,nan,nan,nan,nan,nan,nan,nan,nan,0
13164000,13164000,0.0009868299,0.00101317,0.0019999999,0.0,nan,nan,nan,nan,nan,nan,nan,nan,0
13264000,13264000,0.0,0.0019999996,0.0,0.002,nan,nan,nan,nan,nan,nan,nan,nan,0
13364000,13364000,0.0,0.0019999999,0.0,0.0019999999,nan,nan,nan,nan,nan,nan,nan,nan,0
13464000,13464000,0.0,0.0015987218,0.00084216916,0.0015591087,nan,nan,nan,nan,nan,nan,nan,nan,0
13564000,13564000,0.00041878855,0.0025472168,8.699921e-06,0.0010252944,nan,nan,nan,nan,nan,nan,nan,nan,0
13664000,13664000,0.0019999999,4.656613e-10,0.001999999,0.0,nan,nan,nan,nan,nan,nan,nan,nan,0
13764000,13764000,0.0022349595,0.00030701395,0.0011045745,0.00035345167,nan,nan,nan,nan,nan,nan,nan,nan,0
13864000,13864000,0.0019999999,0.0,0.0019999999,0.0,nan,nan,nan,nan,nan,nan,nan,nan,0
13964000,13964000,2.3283064e-10,0.0019999999,0.0,0.0019999996,nan,nan,nan,nan,nan,nan,nan,nan,0
14064000,14064000,0.0004974542,0.001470473,0.00011115092,0.0019209216,nan,nan,nan,nan,nan,nan,nan,nan,0
14164000,14164000,0.0019999999,0.0,0.0019999999,0.0,nan,nan,nan,nan,nan,nan,nan,nan,0
14264000,14264000,0.00054730405,0.0024146654,0.00075795,0.00028008025,nan,nan,nan,nan,nan,nan,nan,nan,0
14364000,14364000,0.0019999999,0.0,0.0019999999,0.0,nan,nan,nan,nan,nan,nan,nan,nan,0
14464000,14464000,0.0019999999,0.0,0.0019999999,0.0,nan,nan,nan,nan,nan,nan,nan,nan,0
14564000,14564000,0.0018414762,0.00052577065,0.0012646061,0.00036814675,nan,nan,nan,nan,nan,nan,nan,nan,0
14664000,14664000,0.0008681743,0.0011318255,0.0019999999,0.0,nan,nan,nan,nan,nan,nan,nan,nan,0
14764000,14764000,0.0,0.002,0.0,0.002,nan,nan,nan,nan,nan,nan,nan,nan,0
14864000,14864000,0.0,0.0020000003,0.0,0.0019999999,nan,nan,nan,nan,nan,nan,nan,nan,0
14964000,14964000,0.0,0.0019999994,2.3283064e-10,0.0019999999,nan,nan,nan,nan,nan,nan,nan,nan,0
15064000,15064000,0.0,0.0019999999,0.0,0.0019999999,nan,nan,nan,nan,nan,nan,nan,nan,0
15164000,15164000,0.0016574124,0.00034258747,0.002,0.0,nan,nan,nan,nan,nan,nan,nan,nan,0
15264000,15264000,2.3283064e-10,0.0019999996,0.0,0.0019999996,nan,nan,nan,nan,nan,nan,nan,nan,0
15364000,15364000,0.0,0.0019999999,0.0,0.002,nan,nan,nan,nan,nan,nan,nan,nan,0
15460000,15460000,0.0018373105,0.00040301884,0.0005503208,0.0012093496,nan,nan,nan,nan,nan,nan,nan,nan,0
15564000,15564000,0.0,0.0019999999,0.0,0.0019999999,nan,nan,nan,nan,nan,nan,nan,nan,0
15664000,15664000,0.0,0.0019999999,1.1641532e-10,0.0019999999,nan,nan,nan,nan,nan,nan,nan,nan,0
15764000,15764000,0.0019999996,0.0,0.002,0.0,nan,nan,nan,nan,nan,nan,nan,nan,0
15860000,15860000,0.0005062069,0.0014853724,0.0020036504,4.770059e-06,nan,nan,nan,nan,nan,nan,nan,nan,0
15964000,15964000,0.0,0.0019999996,0.0,0.002,nan,nan,nan,nan,nan,nan,nan,nan,0
16064000,16064000,0.0012723382,0.0002516977,0.00020634284,0.002269621,nan,nan,nan,nan,nan,nan,nan,nan,0
16164000,16164000,0.0,0.002,0.0,0.0019999999,nan,nan,nan,nan,nan,nan,nan,nan,0
16264000,16264000,0.0,0.0019999999,0.001015468,0.0009845318,nan,nan,nan,nan,nan,nan,nan,nan,0
16364000,16364000,0.0,0.002,0.0,0.0019999992,nan,nan,nan,nan,nan,nan,nan,nan,0
16464000,16464000,0.0007672335,0.0010138198,0.0020949189,0.00012402743,nan,nan,nan,nan,nan,nan,nan,nan,0
16564000,16564000,0.0019999999,0.0,0.002,0.0,nan,nan,nan,nan,nan,nan,nan,nan,0
16664000,16664000,0.0017660297,0.0,0.0003509262,0.0018830438,nan,nan,nan,nan,nan,nan,nan,nan,0
16764000,16764000,0.0,0.0019999999,0.0,0.0019999999,nan,nan,nan,nan,nan,nan,nan,nan,0
16864000,16864000,0.0,0.0019999987,4.656613e-10,0.0020000008,nan,nan,nan,nan,nan,nan,nan,nan,0
16964000,16964000,0.0019999996,0.0,0.0019999996,0.0,nan,nan,nan,nan,nan,nan,nan,nan,0
17064000,17064000,0.0,0.0019999996,0.0019435656,5.6434277e-05,nan,nan,nan,nan,nan,nan,nan,nan,0
17164000,17164000,1.1641532e-10,0.002,0.0,0.0019999996,nan,nan,nan,nan,nan,nan,nan,nan,0
17264000,17264000,0.0,0.0019999996,0.0,0.0019999996,nan,nan,nan,nan,nan,nan,nan,nan,0
17364000,17364000,0.0011096892,0.00064862595,0.0015104619,0.00073122256,nan,nan,nan,nan,nan,nan,nan,nan,0
17464000,17464000,0.0,0.0019999999,0.00029544486,0.001704555,nan,nan,nan,nan,nan,nan,nan,nan,0
17564000,17564000,0.0,0.0019999994,0.0,0.0019999994,nan,nan,nan,nan,nan,nan,nan,nan,0
17664000,17664000,0.0,0.0019999994,0.0,0.0020000003,nan,nan,nan,nan,nan,nan,nan,nan,0
17764000,17764000,0.0,0.0019999996,0.0,0.0020000003,nan,nan,nan,nan,nan,nan,nan,nan,0
17864000,17864000,0.0,0.0019999999,0.0,0.0019999999,nan,nan,nan,nan,nan,nan,nan,nan,0
17960000,17960000,0.0,0.0019999999,0.0,0.0019999999,nan,nan,nan,nan,nan,nan,nan,nan,0
18064000,18064000,0.0019999999,0.0,0.002,0.0,nan,nan,nan,nan,nan,nan,nan,nan,0
18164000,18164000,0.00015346814,0.0022005315,0.0006608538,0.0009851463,nan,nan,nan,nan,nan,nan,nan,nan,0
18264000,18264000,0.0,0.0020000003,0.0,0.0019999999,nan,nan,nan,nan,nan,nan,nan,nan,0
18364000,18364000,0.0021165977,0.00015235467,0.0013949259,0.00033612124,nan,nan,nan,nan,nan,nan,nan,nan,0
18464000,18464000,0.0,0.0019999999,0.0,0.002,nan,nan,nan,nan,nan,nan,nan,nan,0
18564000,18564000,0.001568597,0.0004314027,0.0019999999,0.0,nan,nan,nan,nan,nan,nan,nan,nan,0
18664000,18664000,0.0,0.0019999999,0.0,0.0019999999,nan,nan,nan,nan,nan,nan,nan,nan,0
18764000,18764000,2.910383e-11,0.0019999996,8.731149e-11,0.002,nan,nan,nan,nan,nan,nan,nan,nan,0
18864000,18864000,2.5770158e-05,0.002033673,0.0019405568,0.0,nan,nan,nan,nan,nan,nan,nan,nan,0
18964000,18964000,0.0019999999,0.0,0.0020000003,1.1641532e-10,nan,nan,nan,nan,nan,nan,nan,nan,0
19064000,19064000,0.0,0.0019999999,0.0,0.0019999999,nan,nan,nan,nan,nan,nan,nan,nan,0
19164000,19164000,0.0,0.0019999994,0.0,0.0019999999,nan,nan,nan,nan,nan,nan,nan,nan,0
19264000,19264000,0.002,0.0,0.002,0.0,nan,nan,nan,nan,nan,nan,nan,nan,0
19364000,19364000,0.0,0.0019999994,1.1641532e-10,0.0019999996,nan,nan,nan,nan,nan,nan,nan,nan,0
19460000,19460000,0.0,0.0019999999,2.3283064e-10,0.0019999994,nan,nan,nan,nan,nan,nan,nan,nan,0
19564000,19564000,0.0,0.0015709271,0.0007144336,0.001714639,nan,nan,nan,nan,nan,nan,nan,nan,0
19660000,19660000,0.0019999992,0.0,0.002,4.656613e-10,nan,nan,nan,nan,nan,nan,nan,nan,0
19764000,19764000,4.261997e-05,0.00205569,0.00054758426,0.0013541055,nan,nan,nan,nan,nan,nan,nan,nan,0
19864000,19864000,0.0019999999,0.0,0.0019999999,0.0,nan,nan,nan,nan,nan,nan,nan,nan,0
19964000,19964000,0.0,0.0019999999,0.0,0.0019999999,nan,nan,nan,nan,nan,nan,nan,nan,0
20060000,20060000,0.0018730318,0.00012696808,0.0019999999,0.0,nan,nan,nan,nan,nan,nan,nan,nan,0
20164000,20164000,0.0,0.0020000003,0.0,0.0019999994,nan,nan,nan,nan,nan,nan,nan,nan,0
20264000,20264000,0.00015977817,0.002208776,0.0,0.0016314453,nan,nan,nan,nan,nan,nan,nan,nan,0
20364000,20364000,0.0,0.0019999999,0.0,0.0019999999,nan,nan,nan,nan,nan,nan,nan,nan,0
20464000,20464000,0.00031041828,0.0024056132,0.00096961285,0.00031435548,nan,nan,nan,nan,nan,nan,nan,nan,0
20564000,20564000,0.0,0.0019999996,0.0,0.0019999999,nan,nan,nan,nan,nan,nan,nan,nan,0
20664000,20664000,0.0,0.0019999999,0.0,0.0019999999,nan,nan,nan,nan,nan,nan,nan,nan,0
20764000,20764000,0.0,0.002,0.0,0.0019999994,nan,nan,nan,nan,nan,nan,nan,nan,0
20864000,20864000,0.0019293317,0.0,0.0020306364,4.0031737e-05,nan,nan,nan,nan,nan,nan,nan,nan,0
20964000,20964000,0.0,0.0019999999,0.0,0.0019999994,nan,nan,nan,nan,nan,nan,nan,nan,0
21064000,21064000,0.0,0.0020000008,0.0,0.0019999999,nan,nan,nan,nan,nan,nan,nan,nan,0
21164000,21164000,0.00070847664,0.00084562006,0.0021933105,0.00025259246,nan,nan,nan,nan,nan,nan,nan,nan,0
21264000,21264000,0.0019999999,0.0,0.0019999999,0.0,nan,nan,nan,nan,nan,nan,nan,nan,0
21364000,21364000,0.0,0.0019999994,0.0,0.0020000003,nan,nan,nan,nan,nan,nan,nan,nan,0
21464000,21464000,0.0,0.0020000003,0.0,0.0019999994,nan,nan,nan,nan,nan,nan,nan,nan,0
21564000,21564000,0.0,0.0019999996,0.001142642,0.00085735787,nan,nan,nan,nan,nan,nan,nan,nan,0
21664000,21664000,4.656613e-10,0.0020000003,0.0,0.0019999994,nan,nan,nan,nan,nan,nan,nan,nan,0
21764000,21764000,0.0,0.0019999994,0.0,0.0019999999,nan,nan,nan,nan,nan,nan,nan,nan,0
21864000,21864000,0.0,0.0019999994,0.0,0.0019999994,nan,nan,nan,nan,nan,nan,nan,nan,0
21964000,21964000,0.0,0.0019999999,0.0006221618,0.0013778381,nan,nan,nan,nan,nan,nan,nan,nan,0
22064000,22064000,0.0,0.0019999996,0.0,0.0019999996,nan,nan,nan,nan,nan,nan,nan,nan,0
22160000,22160000,0.0019999999,0.0,0.0019999999,0.0,nan,nan,nan,nan,nan,nan,nan,nan,0
22264000,22264000,7.4052965e-05,0.0020967624,0.00074659055,0.001082594,nan,nan,nan,nan,nan,nan,nan,nan,0
22364000,22364000,0.0006151414,0.0028037843,0.00026394328,0.0003171307,nan,nan,nan,nan,nan,nan,nan,nan,0
22464000,22464000,0.0,0.0019999996,0.0,0.002,nan,nan,nan,nan,nan,nan,nan,nan,0
22564000,22564000,6.9752445e-05,0.0020911428,0.00094264036,0.0008964641,nan,nan,nan,nan,nan,nan,nan,nan,0
22664000,22664000,0.00010652411,0.002139191,0.0017542843,0.0,nan,nan,nan,nan,nan,nan,nan,nan,0
22764000,22764000,0.0,0.0019999996,0.0,0.002,nan,nan,nan,nan,nan,nan,nan,nan,0
22864000,22864000,0.00038107653,0.0024979399,0.0006430246,0.00047795865,nan,nan,nan,nan,nan,nan,nan,nan,0
22964000,22964000,0.0019999999,0.0,0.0019999999,0.0,nan,nan,nan,nan,nan,nan,nan,nan,0
23064000,23064000,0.0009902804,0.0010097192,0.0019999999,0.0,nan,nan,nan,nan,nan,nan,nan,nan,0
23164000,23164000,0.0024134186,0.00054020056,0.0005873417,0.0004590387,nan,nan,nan,nan,nan,nan,nan,nan,0
23264000,23264000,0.0,0.0019999999,4.656613e-10,0.0019999999,nan,nan,nan,nan,nan,nan,nan,nan,0
23364000,23364000,0.0011370145,0.0008629854,0.0019999999,0.0,nan,nan,nan,nan,nan,nan,nan,nan,0
23464000,23464000,0.002,1.1641532e-10,0.0019999996,0.0,nan,nan,nan,nan,nan,nan,nan,nan,0
23564000,23564000,0.0011928065,0.0006285427,0.0020774496,0.00010120094,nan,nan,nan,nan,nan,nan,nan,nan,0
23664000,23664000,0.00023181962,0.002302911,0.000627908,0.0008373613,nan,nan,nan,nan,nan,nan,nan,nan,0
23764000,23764000,0.001537479,0.00046252093,0.0019999999,0.0,nan,nan,nan,nan,nan,nan,nan,nan,0
23864000,23864000,0.0,0.0019999999,0.0,0.0019999996,nan,nan,nan,nan,nan,nan,nan,nan,0
23964000,23964000,0.00025433704,0.0017456627,0.002,0.0,nan,nan,nan,nan,nan,nan,nan,nan,0
24064000,24064000,0.0019999999,0.0,0.0019999999,0.0,nan,nan,nan,nan,nan,nan,nan,nan,0
24164000,24164000,0.002,0.0,0.0019999999,0.0,nan,nan,nan,nan,nan,nan,nan,nan,0
24264000,24264000,0.0019999999,0.0,0.001116664,0.0008833357,nan,nan,nan,nan,nan,nan,nan,nan,0
24364000,24364000,0.0,0.0019999996,0.0,0.0019999996,nan,nan,nan,nan,nan,nan,nan,nan,0
24464000,24464000,0.0,0.0019999994,5.820766e-11,0.002,nan,nan,nan,nan,nan,nan,nan,nan,0
24564000,24564000,0.00010954784,0.0012189295,0.0016727234,0.000998799,nan,nan,nan,nan,nan,nan,nan,nan,0
24664000,24664000,0.0010309103,0.0009690894,0.0019999999,0.0,nan,nan,nan,nan,nan,nan,nan,nan,0
24764000,24764000,0.0003977596,0.0021593575,0.00042063557,0.001022247,nan,nan,nan,nan,nan,nan,nan,nan,0
24864000,24864000,0.0,0.002000001,0.0,0.0019999992,nan,nan,nan,nan,nan,nan,nan,nan,0
24964000,24964000,0.002,0.0,0.002,0.0,nan,nan,nan,nan,nan,nan,nan,nan,0
25064000,25064000,0.0019999999,0.0,0.0020000003,0.0,nan,nan,nan,nan,nan,nan,nan,nan,0
25164000,25164000,0.0011562563,0.00084374356,0.0,0.0019999999,nan,nan,nan,nan,nan,nan,nan,nan,0
25264000,25264000,0.0,0.0019999999,0.0,0.0019999999,nan,nan,nan,nan,nan,nan,nan,nan,0
25364000,25364000,0.0019999999,0.0,0.0019999999,0.0,nan,nan,nan,nan,nan,nan,nan,nan,0
25464000,25464000,0.0,0.0019999999,0.0,0.002,nan,nan,nan,nan,nan,nan,nan,nan,0
25564000,25564000,0.0015003923,0.00023607188,0.0014687139,0.00079482165,nan,nan,nan,nan,nan,nan,nan,nan,0
25664000,25664000,0.0,0.0019999999,0.0,0.0019999999,nan,nan,nan,nan,nan,nan,nan,nan,0
25764000,25764000,0.0,0.002,0.0,0.0019999999,nan,nan,nan,nan,nan,nan,nan,nan,0
25864000,25864000,0.0019999999,0.0,0.0019999999,0.0,nan,nan,nan,nan,nan,nan,nan,nan,0
25964000,25964000,0.0,0.0019999996,0.0,0.0019999999,nan,nan,nan,nan,nan,nan,nan,nan,0
26064000,26064000,0.001999999,0.0,0.0019999999,0.0,nan,nan,nan,nan,nan,nan,nan,nan,0
26164000,26164000,0.0019999994,0.0,0.0019999999,0.0,nan,nan,nan,nan,nan,nan,nan,nan,0
26264000,26264000,0.0020000003,0.0,0.0020000003,0.0,nan,nan,nan,nan,nan,nan,nan,nan,0
26364000,26364000,0.0019999999,0.0,0.0012601417,0.000739858,nan,nan,nan,nan,nan,nan,nan,nan,0
26464000,26464000,0.0019999996,0.0,0.0019999996,0.0,nan,nan,nan,nan,nan,nan,nan,nan,0
26560000,26560000,0.002,0.0,0.002,2.3283064e-10,nan,nan,nan,nan,nan,nan,nan,nan,0
26664000,26664000,0.0005068106,0.0010790393,0.0021795447,0.00023460518,nan,nan,nan,nan,nan,nan,nan,nan,0
26764000,26764000,0.0,0.0019999999,0.0,0.0019999999,nan,nan,nan,nan,nan,nan,nan,nan,0
26864000,26864000,0.0019999999,1.1641532e-10,0.0019999999,0.0,nan,nan,nan,nan,nan,nan,nan,nan,0
26964000,26964000,0.00012720312,0.0019073834,0.00017629826,0.0017891149,nan,nan,nan,nan,nan,nan,nan,nan,0
27064000,27064000,0.002,0.0,0.0019999996,0.0,nan,nan,nan,nan,nan,nan,nan,nan,0
27164000,27164000,0.0019999999,2.910383e-11,0.0019999999,0.0,nan,nan,nan,nan,nan,nan,nan,nan,0
27264000,27264000,0.0019999996,2.3283064e-10,0.002,0.0,nan,nan,nan,nan,nan,nan,nan,nan,0
27364000,27364000,1.1641532e-10,0.0019999999,0.0,0.0019999999,nan,nan,nan,nan,nan,nan,nan,nan,0
27464000,27464000,0.0,0.0019999999,0.0,0.0020000003,nan,nan,nan,nan,nan,nan,nan,nan,0
27564000,27564000,0.0019999996,0.0,0.0019999996,0.0,nan,nan,nan,nan,nan,nan,nan,nan,0
27664000,27664000,0.0019999996,0.0,0.0019999996,0.0,nan,nan,nan,nan,nan,nan,nan,nan,0
27764000,27764000,0.0011563753,0.0005871048,0.0021112084,0.00014531171,nan,nan,nan,nan,nan,nan,nan,nan,0
27860000,27860000,0.0,0.0019999999,0.0,0.0019999999,nan,nan,nan,nan,nan,nan,nan,nan,0
27964000,27964000,0.0019999999,0.0,0.0019999999,0.0,nan,nan,nan,nan,nan,nan,nan,nan,0
28064000,28064000,0.0014699467,0.0005300533,0.0,0.0019999999,nan,nan,nan,nan,nan,nan,nan,nan,0
28160000,28160000,0.001996846,3.153691e-06,0.0019999999,0.0,nan,nan,nan,nan,nan,nan,nan,nan,0
28264000,28264000,0.0019999994,2.3283064e-10,0.0019999999,0.0,nan,nan,nan,nan,nan,nan,nan,nan,0
28364000,28364000,0.0,0.0019999999,0.0,0.0019999999,nan,nan,nan,nan,nan,nan,nan,nan,0
28460000,28460000,0.001999999,0.0,0.0019999999,0.0,nan,nan,nan,nan,nan,nan,nan,nan,0
28564000,28564000,0.0005439541,0.00068749685,0.002333186,0.0004353629,nan,nan,nan,nan,nan,nan,nan,nan,0
28664000,28664000,0.0,0.0019999999,0.0,0.0019999999,nan,nan,nan,nan,nan,nan,nan,nan,0
28760000,28760000,0.0,0.002,5.1656272e-05,0.0019483436,nan,nan,nan,nan,nan,nan,nan,nan,0
28864000,28864000,0.0,0.0019999994,0.0,0.0020000003,nan,nan,nan,nan,nan,nan,nan,nan,0
28964000,28964000,0.001464999,0.0,0.0022319364,0.000303064,nan,nan,nan,nan,nan,nan,nan,nan,0
29064000,29064000,0.0019999999,0.0,0.0019999999,0.0,nan,nan,nan,nan,nan,nan,nan,nan,0
29164000,29164000,0.0014939802,0.0005060196,0.0019999999,0.0,nan,nan,nan,nan,nan,nan,nan,nan,0
29264000,29264000,0.0019999994,2.3283064e-10,0.0019999999,0.0,nan,nan,nan,nan,nan,nan,nan,nan,0
29364000,29364000,0.0019999996,0.0,0.002,0.0,nan,nan,nan,nan,nan,nan,nan,nan,0
29464000,29464000,0.0,0.0019999999,0.001155793,0.0008442069,nan,nan,nan,nan,nan,nan,nan,nan,0
29564000,29564000,0.0,0.0019999999,0.0,0.002,nan,nan,nan,nan,nan,nan,nan,nan,0
29664000,29664000,0.0018520986,0.00014790113,0.0019999999,0.0,nan,nan,nan,nan,nan,nan,nan,nan,0
29764000,29764000,0.0019999999,0.0,0.0019999999,0.0,nan,nan,nan,nan,nan,nan,nan,nan,0
29864000,29864000,0.0005316779,0.0013118999,0.00077107304,0.0013853488,nan,nan,nan,nan,nan,nan,nan,nan,0
29960000,29960000,0.0,0.0019999999,0.0,0.0019999999,nan,nan,nan,nan,nan,nan,nan,nan,0
30060000,30060000,5.820766e-11,0.0019999996,0.0,0.0019999999,nan,nan,nan,nan,nan,nan,nan,nan,0
30160000,30160000,0.0019999999,0.0,0.0019999999,0.0,nan,nan,nan,nan,nan,nan,nan,nan,0
30264000,30264000,0.00025542243,0.0023337519,0.0012128449,0.00019798073,nan,nan,nan,nan,nan,nan,nan,nan,0
30360000,30360000,0.0019999999,0.0,0.0019999999,0.0,nan,nan,nan,nan,nan,nan,nan,nan,0
30464000,30464000,0.0019999999,0.0,0.0019999996,1.1641532e-10,nan,nan,nan,nan,nan,nan,nan,nan,0
30564000,30564000,0.0,0.0019999999,0.0,0.0020000003,nan,nan,nan,nan,nan,nan,nan,nan,0
30664000,30664000,0.0,0.0020000008,0.0,0.0019999999,nan,nan,nan,nan,nan,nan,nan,nan,0
30764000,30764000,0.0019999999,0.0,0.0019999999,0.0,nan,nan,nan,nan,nan,nan,nan,nan,0
30864000,30864000,0.0019999996,0.0,0.0019999996,0.0,nan,nan,nan,nan,nan,nan,nan,nan,0
30964000,30964000,0.0019999996,0.0,0.002,0.0,nan,nan,nan,nan,nan,nan,nan,nan,0
31064000,31064000,0.0,0.002,0.0011143421,0.0008856576,nan,nan,nan,nan,nan,nan,nan,nan,0
31164000,31164000,0.0019999994,0.0,0.0019999994,0.0,nan,nan,nan,nan,nan,nan,nan,nan,0
31264000,31264000,0.0011494241,0.00085057574,0.0019999996,0.0,nan,nan,nan,nan,nan,nan,nan,nan,0
31364000,31364000,0.0019999996,0.0,0.002,0.0,nan,nan,nan,nan,nan,nan,nan,nan,0
31464000,31464000,0.0019999999,0.0,0.0019999996,0.0,nan,nan,nan,nan,nan,nan,nan,nan,0
31564000,31564000,0.0019999999,0.0,0.0019999999,0.0,nan,nan,nan,nan,nan,nan,nan,nan,0
31664000,31664000,0.0,0.0019999999,0.0,0.0019999999,nan,nan,nan,nan,nan,nan,nan,nan,0
31764000,31764000,0.0,0.0020000006,0.0,0.002,nan,nan,nan,nan,nan,nan,nan,nan,0
31864000,31864000,0.0019999999,0.0,0.0020000003,0.0,nan,nan,nan,nan,nan,nan,nan,nan,0
31964000,31964000,0.0019999999,0.0,0.0019999999,4.656613e-10,nan,nan,nan,nan,nan,nan,nan,nan,0
32064000,32064000,0.0019999999,0.0,0.0019999999,0.0,nan,nan,nan,nan,nan,nan,nan,nan,0
32164000,32164000,0.0,0.0019999999,0.0,0.0019999999,nan,nan,nan,nan,nan,nan,nan,nan,0
32264000,32264000,0.002,0.0,0.002,0.0,nan,nan,nan,nan,nan,nan,nan,nan,0
32360000,32360000,0.0008185265,0.0011814733,0.002,0.0,nan,nan,nan,nan,nan,nan,nan,nan,0
32460000,32460000,1.3257668e-05,0.0020173234,0.0,0.0019694187,nan,nan,nan,nan,nan,nan,nan,nan,0
32564000,32564000,0.0019999994,0.0,0.0020000003,0.0,nan,nan,nan,nan,nan,nan,nan,nan,0
32664000,32664000,0.00068861526,0.0018475698,0.00064924086,0.0008145738,nan,nan,nan,nan,nan,nan,nan,nan,0
32764000,32764000,0.002,0.0,0.0019999999,0.0,nan,nan,nan,nan,nan,nan,nan,nan,0
32864000,32864000,0.0019999994,0.0,0.0019999999,4.656613e-10,nan,nan,nan,nan,nan,nan,nan,nan,0
32960000,32960000,0.0,0.0019999999,0.0,0.0019999999,nan,nan,nan,nan,nan,nan,nan,nan,0
33064000,33064000,0.001559365,0.0004406345,0.0019999999,0.0,nan,nan,nan,nan,nan,nan,nan,nan,0
33160000,33160000,0.001239234,0.001533967,1.4551915e-11,0.0012267987,nan,nan,nan,nan,nan,nan,nan,nan,0
33264000,33264000,0.0019999999,4.656613e-10,0.001999999,0.0,nan,nan,nan,nan,nan,nan,nan,nan,0
33360000,33360000,0.0,0.0019999999,0.0,0.0019999999,nan,nan,nan,nan,nan,nan,nan,nan,0
33464000,33464000,0.0019999999,0.0,0.0019999999,0.0,nan,nan,nan,nan,nan,nan,nan,nan,0
33560000,33560000,0.0019999996,0.0,0.0019999999,0.0,nan,nan,nan,nan,nan,nan,nan,nan,0
33664000,33664000,0.0,0.0019999999,0.0005687077,0.0014312923,nan,nan,nan,nan,nan,nan,nan,nan,0
33764000,33764000,0.00024474005,0.00175526,0.0,0.0019999994,nan,nan,nan,nan,nan,nan,nan,nan,0
33864000,33864000,0.002,0.0,0.002,0.0,nan,nan,nan,nan,nan,nan,nan,nan,0
33964000,33964000,0.0016954762,0.00030452362,0.0019999999,0.0,nan,nan,nan,nan,nan,nan,nan,nan,0
34064000,34064000,0.0019999999,0.0,0.0019999999,0.0,nan,nan,nan,nan,nan,nan,nan,nan,0
34164000,34164000,0.0006895291,0.0013104705,0.0019999999,0.0,nan,nan,nan,nan,nan,nan,nan,nan,0
34264000,34264000,0.0019999999,0.0,0.0019999999,0.0,nan,nan,nan,nan,nan,nan,nan,nan,0
34364000,34364000,0.0,0.0019999999,0.0,0.0019999999,nan,nan,nan,nan,nan,nan,nan,nan,0
34464000,34464000,0.0019999996,0.0,0.002,0.0,nan,nan,nan,nan,nan,nan,nan,nan,0
34564000,34564000,0.0019999999,0.0,0.0019999999,0.0,nan,nan,nan,nan,nan,nan,nan,nan,0
34664000,34664000,0.0022938144,0.0010412899,0.00046345027,0.00020144519,nan,nan,nan,nan,nan,nan,nan,nan,0
34764000,34764000,0.0019999999,5.820766e-11,0.0020000003,0.0,nan,nan,nan,nan,nan,nan,nan,nan,0
34864000,34864000,0.0,0.002,0.0,0.0019999999,nan,nan,nan,nan,nan,nan,nan,nan,0
34964000,34964000,0.001277965,0.00090996345,0.001525248,0.00028682317,nan,nan,nan,nan,nan,nan,nan,nan,0
35064000,35064000,0.0,0.002,0.0,0.0019999999,nan,nan,nan,nan,nan,nan,nan,nan,0
35164000,35164000,0.0015403597,0.0,0.00026171983,0.0021979203,nan,nan,nan,nan,nan,nan,nan,nan,0
35264000,35264000,0.0019999999,0.0,0.0019999999,0.0,nan,nan,nan,nan,nan,nan,nan,nan,0
35364000,35364000,0.0017326507,0.0,0.0012005827,0.0010667663,nan,nan,nan,nan,nan,nan,nan,nan,0
35464000,35464000,0.0,0.0019999999,0.0,0.0019999999,nan,nan,nan,nan,nan,nan,nan,nan,0
35564000,35564000,0.002,1.4551915e-11,0.0019999999,0.0,nan,nan,nan,nan,nan,nan,nan,nan,0
35664000,35664000,0.0,0.002,0.0,0.0019999996,nan,nan,nan,nan,nan,nan,nan,nan,0
35764000,35764000,0.002,0.0,0.0019999999,0.0,nan,nan,nan,nan,nan,nan,nan,nan,0
35864000,35864000,0.0,0.002,0.0,0.0019999996,nan,nan,nan,nan,nan,nan,nan,nan,0
35964000,35964000,0.0,0.0020000006,0.0,0.0019999996,nan,nan,nan,nan,nan,nan,nan,nan,0
36064000,36064000,0.00020388715,0.0011680817,0.0022722676,0.00035576327,nan,nan,nan,nan,nan,nan,nan,nan,0
36164000,36164000,0.0,0.0019999999,0.0,0.0019999999,nan,nan,nan,nan,nan,nan,nan,nan,0
36264000,36264000,0.0,0.0019999994,0.0,0.0019999994,nan,nan,nan,nan,nan,nan,nan,nan,0
36364000,36364000,0.002,0.0,0.002,0.0,nan,nan,nan,nan,nan,nan,nan,nan,0
36464000,36464000,0.0,0.0019999999,0.0,0.0019999999,nan,nan,nan,nan,nan,nan,nan,nan,0
36564000,36564000,0.0,0.0019999999,0.00041875406,0.0015812457,nan,nan,nan,nan,nan,nan,nan,nan,0
36664000,36664000,0.0,0.0019999999,0.0,0.0019999999,nan,nan,nan,nan,nan,nan,nan,nan,0
36764000,36764000,0.0019999999,0.0,0.0019999999,0.0,nan,nan,nan,nan,nan,nan,nan,nan,0
36860000,36860000,0.0,0.0019999996,0.001262763,0.0007372369,nan,nan,nan,nan,nan,nan,nan,nan,0
36964000,36964000,0.0,0.0019999999,0.0,0.0019999999,nan,nan,nan,nan,nan,nan,nan,nan,0
37064000,37064000,0.0,0.0019999994,0.0,0.0019999994,nan,nan,nan,nan,nan,nan,nan,nan,0
37164000,37164000,0.0,0.0019999999,0.0,0.0019999999,nan,nan,nan,nan,nan,nan,nan,nan,0
37264000,37264000,0.0017393978,0.0009990507,0.0006692227,0.0005923286,nan,nan,nan,nan,nan,nan,nan,nan,0
37364000,37364000,0.0017510522,5.2472024e-06,0.0021056505,0.00013805005,nan,nan,nan,nan,nan,nan,nan,nan,0
37464000,37464000,0.0,0.002,0.0,0.002,nan,nan,nan,nan,nan,nan,nan,nan,0
37564000,37564000,0.0019999999,0.0,0.0019999999,0.0,nan,nan,nan,nan,nan,nan,nan,nan,0
37664000,37664000,4.656613e-10,0.0020000003,0.0,0.0019999987,nan,nan,nan,nan,nan,nan,nan,nan,0
37764000,37764000,0.0008933393,0.00021412474,0.0006893766,0.002203159,nan,nan,nan,nan,nan,nan,nan,nan,0
37864000,37864000,0.0,0.0019999999,0.0,0.0019999999,nan,nan,nan,nan,nan,nan,nan,nan,0
37964000,37964000,0.00043945084,0.0017947988,0.0017657501,0.0,nan,nan,nan,nan,nan,nan,nan,nan,0
38064000,38064000,0.00014713682,0.0021922586,0.00090113556,0.00075946876,nan,nan,nan,nan,nan,nan,nan,nan,0
38164000,38164000,0.0019983987,0.00030407507,0.0013475888,0.00034993724,nan,nan,nan,nan,nan,nan,nan,nan,0
38264000,38264000,0.0,0.0019999996,0.0,0.0019999996,nan,nan,nan,nan,nan,nan,nan,nan,0
38364000,38364000,0.0,0.0019999992,0.0,0.002,nan,nan,nan,nan,nan,nan,nan,nan,0
38464000,38464000,0.0,0.0019999999,0.00059328414,0.0014067157,nan,nan,nan,nan,nan,nan,nan,nan,0
38564000,38564000,0.0,0.0020000003,0.0,0.0019999999,nan,nan,nan,nan,nan,nan,nan,nan,0
38664000,38664000,0.0,0.0019999999,0.0,0.0020000003,nan,nan,nan,nan,nan,nan,nan,nan,0
38764000,38764000,0.00079978793,0.001200212,0.0,0.0019999999,nan,nan,nan,nan,nan,nan,nan,nan,0
38864000,38864000,0.0019999999,0.0,0.0015281839,0.0004718158,nan,nan,nan,nan,nan,nan,nan,nan,0
38964000,38964000,0.0,0.0019999999,0.00092200306,0.0010779968,nan,nan,nan,nan,nan,nan,nan,nan,0
39064000,39064000,0.0,0.0019999996,0.0,0.0019999996,nan,nan,nan,nan,nan,nan,nan,nan,0
39164000,39164000,0.0,0.0019999994,0.0,0.0020000003,nan,nan,nan,nan,nan,nan,nan,nan,0
39264000,39264000,0.0,0.0019999999,0.0,0.0019999999,nan,nan,nan,nan,nan,nan,nan,nan,0
39364000,39364000,0.0,0.0019999999,0.0,0.0019999999,nan,nan,nan,nan,nan,nan,nan,nan,0
39464000,39464000,0.0,0.0020000003,0.0,0.0019999999,nan,nan,nan,nan,nan,nan,nan,nan,0
39564000,39564000,0.0,0.0019999999,0.0015117088,0.00048829126,nan,nan,nan,nan,nan,nan,nan,nan,0
39664000,39664000,0.0,0.0019999999,0.0,0.0019999999,nan,nan,nan,nan,nan,nan,nan,nan,0
39764000,39764000,0.0,0.0019999996,0.0,0.002,nan,nan,nan,nan,nan,nan,nan,nan,0
39864000,39864000,0.0019999999,0.0,0.002,0.0,nan,nan,nan,nan,nan,nan,nan,nan,0
39964000,39964000,0.0023750938,0.0004901225,0.0011347836,0.0,nan,nan,nan,nan,nan,nan,nan,nan,0
40060000,40060000,0.0,0.0019999994,0.0,0.0019999994,nan,nan,nan,nan,nan,nan,nan,nan,0
40164000,40164000,0.0,0.0019999994,0.0,0.0019999994,nan,nan,nan,nan,nan,nan,nan,nan,0
40264000,40264000,0.0,0.0019999996,0.0,0.0019999996,nan,nan,nan,nan,nan,nan,nan,nan,0
40364000,40364000,0.0022836889,0.00037068687,0.0010165267,0.00032909738,nan,nan,nan,nan,nan,nan,nan,nan,0
40464000,40464000,0.000771079,0.0012289209,0.0,0.0019999999,nan,nan,nan,nan,nan,nan,nan,nan,0
40564000,40564000,0.0019999999,5.820766e-11,0.0019999999,0.0,nan,nan,nan,nan,nan,nan,nan,nan,0
40664000,40664000,2.3283064e-10,0.0019999996,0.0,0.002,nan,nan,nan,nan,nan,nan,nan,nan,0
40760000,40760000,0.0,0.0019999994,0.0,0.0019999999,nan,nan,nan,nan,nan,nan,nan,nan,0
40864000,40864000,0.0,0.0019999999,0.0,0.0019999999,nan,nan,nan,nan,nan,nan,nan,nan,0
40964000,40964000,0.0,0.0019999999,1.1641532e-10,0.0019999999,nan,nan,nan,nan,nan,nan,nan,nan,0
41064000,41064000,0.0012817394,0.0,0.0010227147,0.0016955457,nan,nan,nan,nan,nan,nan,nan,nan,0
41160000,41160000,0.0,0.002,0.0,0.002,nan,nan,nan,nan,nan,nan,nan,nan,0
41264000,41264000,0.0,0.001898102,0.00059374457,0.001508153,nan,nan,nan,nan,nan,nan,nan,nan,0
41364000,41364000,0.0,0.0019999999,0.00057695364,0.0014230462,nan,nan,nan,nan,nan,nan,nan,nan,0
41464000,41464000,0.0015842936,0.00070802827,0.0005186978,0.0011889801,nan,nan,nan,nan,nan,nan,nan,nan,0
41560000,41560000,0.0,0.0019999996,0.0,0.002,nan,nan,nan,nan,nan,nan,nan,nan,0
41664000,41664000,0.0,0.0020000003,0.0,0.0020000003,nan,nan,nan,nan,nan,nan,nan,nan,0
41764000,41764000,0.0017135126,0.0005073785,0.0017791087,0.0,nan,nan,nan,nan,nan,nan,nan,nan,0
41864000,41864000,0.0,0.0019999999,0.0,0.0019999999,nan,nan,nan,nan,nan,nan,nan,nan,0
41964000,41964000,0.0004148586,0.0025420818,4.7547364e-05,0.0009955121,nan,nan,nan,nan,nan,nan,nan,nan,0
42060000,42060000,0.002,0.0,0.0005189624,0.0014810374,nan,nan,nan,nan,nan,nan,nan,nan,0
42160000,42160000,0.0,0.0019999999,0.0011450273,0.00085497246,nan,nan,nan,nan,nan,nan,nan,nan,0
42264000,42264000,0.00056967523,0.00053167564,0.00038958775,0.0025090612,nan,nan,nan,nan,nan,nan,nan,nan,0
42364000,42364000,0.0,0.002,0.0,0.002,nan,nan,nan,nan,nan,nan,nan,nan,0
42464000,42464000,0.0,0.0019999996,4.656613e-10,0.0019999999,nan,nan,nan,nan,nan,nan,nan,nan,0
42564000,42564000,0.001312197,0.001093235,0.0,0.0015945677,nan,nan,nan,nan,nan,nan,nan,nan,0
42664000,42664000,0.0,0.0019999994,0.0,0.0020000003,nan,nan,nan,nan,nan,nan,nan,nan,0
42764000,42764000,0.0013936708,0.0010995473,0.00075413054,0.00075265113,nan,nan,nan,nan,nan,nan,nan,nan,0
42864000,42864000,0.00045738686,0.0015426131,0.0019999996,0.0,nan,nan,nan,nan,nan,nan,nan,nan,0
42960000,42960000,0.0,0.0019999999,0.0,0.0019999999,nan,nan,nan,nan,nan,nan,nan,nan,0
43064000,43064000,0.0021065332,0.0001392036,0.0014760356,0.00027822726,nan,nan,nan,nan,nan,nan,nan,nan,0
43164000,43164000,0.0,0.0015351948,0.00020150514,0.0022633,nan,nan,nan,nan,nan,nan,nan,nan,0
43264000,43264000,0.0019999999,0.0,0.0020000003,1.1641532e-10,nan,nan,nan,nan,nan,nan,nan,nan,0
43364000,43364000,0.0016885229,0.0005890052,0.0007182214,0.0010042503,nan,nan,nan,nan,nan,nan,nan,nan,0
43464000,43464000,0.00040862995,0.0013504607,0.0009920596,0.0012488496,nan,nan,nan,nan,nan,nan,nan,nan,0
43564000,43564000,0.0,0.0019999999,0.0,0.0019999999,nan,nan,nan,nan,nan,nan,nan,nan,0
43664000,43664000,0.0020000003,0.0,0.0019999999,0.0,nan,nan,nan,nan,nan,nan,nan,nan,0
43764000,43764000,0.00042347677,0.0015765232,0.0,0.0019999999,nan,nan,nan,nan,nan,nan,nan,nan,0
43864000,43864000,0.0009858452,0.0017944381,0.0,0.0012197164,nan,nan,nan,nan,nan,nan,nan,nan,0
43964000,43964000,0.0020001268,1.6577542e-07,0.0019997072,0.0,nan,nan,nan,nan,nan,nan,nan,nan,0
44064000,44064000,0.0,0.0019999999,0.0,0.0019999999,nan,nan,nan,nan,nan,nan,nan,nan,0
44164000,44164000,0.0018164961,0.0,0.0008783279,0.0013051757,nan,nan,nan,nan,nan,nan,nan,nan,0
44264000,44264000,0.0019999999,0.0,0.001398222,0.0006017777,nan,nan,nan,nan,nan,nan,nan,nan,0
44364000,44364000,2.116873e-05,0.0020276601,0.0,0.0019511706,nan,nan,nan,nan,nan,nan,nan,nan,0
44464000,44464000,0.0019999999,0.0,0.0019999999,1.1641532e-10,nan,nan,nan,nan,nan,nan,nan,nan,0
44560000,44560000,0.0,0.002,0.0,0.0019999996,nan,nan,nan,nan,nan,nan,nan,nan,0
44664000,44664000,0.0,0.0019999999,0.0,0.0019999999,nan,nan,nan,nan,nan,nan,nan,nan,0
44764000,44764000,0.0019999999,0.0,0.0001826169,0.001817383,nan,nan,nan,nan,nan,nan,nan,nan,0
44864000,44864000,0.002,0.0,0.002,0.0,nan,nan,nan,nan,nan,nan,nan,nan,0
44964000,44964000,1.1641532e-10,0.002,0.0,0.0019999996,nan,nan,nan,nan,nan,nan,nan,nan,0
45064000,45064000,0.0022775629,0.00036268224,0.00063076196,0.0007289926,nan,nan,nan,nan,nan,nan,nan,nan,0
45164000,45164000,0.0019999999,0.0,0.0019999999,0.0,nan,nan,nan,nan,nan,nan,nan,nan,0
45264000,45264000,0.002314466,0.0004109029,0.00026272368,0.0010119068,nan,nan,nan,nan,nan,nan,nan,nan,0
45364000,45364000,0.0017681182,0.0002126108,0.0020083543,1.0916395e-05,nan,nan,nan,nan,nan,nan,nan,nan,0
45464000,45464000,0.0019999999,0.0,0.0019999999,0.0,nan,nan,nan,nan,nan,nan,nan,nan,0
45564000,45564000,0.0019999999,0.0,0.0002055913,0.0017944084,nan,nan,nan,nan,nan,nan,nan,nan,0
45664000,45664000,0.0019999999,0.0,0.0014776578,0.00052234204,nan,nan,nan,nan,nan,nan,nan,nan,0
45764000,45764000,0.002,0.0,0.002,0.0,nan,nan,nan,nan,nan,nan,nan,nan,0
45864000,45864000,9.990641e-05,0.0012275148,0.0022915802,0.00038099824,nan,nan,nan,nan,nan,nan,nan,nan,0
45964000,45964000,0.0,0.0020000003,0.0,0.0019999999,nan,nan,nan,nan,nan,nan,nan,nan,0
46064000,46064000,0.0,0.0019999996,0.0,0.002,nan,nan,nan,nan,nan,nan,nan,nan,0
46164000,46164000,0.00044988995,0.0025544025,0.0006637686,0.0003319388,nan,nan,nan,nan,nan,nan,nan,nan,0
46264000,46264000,0.0012134581,0.0007865417,0.0,0.0019999999,nan,nan,nan,nan,nan,nan,nan,nan,0
46364000,46364000,0.00075883954,0.0012411603,0.0,0.0019999999,nan,nan,nan,nan,nan,nan,nan,nan,0
46464000,46464000,0.0008424696,0.0008846044,0.00011832044,0.0021546052,nan,nan,nan,nan,nan,nan,nan,nan,0
46564000,46564000,0.0006619802,0.0007480135,0.00061392976,0.001976076,nan,nan,nan,nan,nan,nan,nan,nan,0
46664000,46664000,0.0019999999,0.0,0.0019999999,0.0,nan,nan,nan,nan,nan,nan,nan,nan,0
46764000,46764000,0.0019999999,0.0,0.0014443343,0.00055566547,nan,nan,nan,nan,nan,nan,nan,nan,0
46864000,46864000,0.0002943405,0.0017056593,0.0,0.0019999996,nan,nan,nan,nan,nan,nan,nan,nan,0
46964000,46964000,0.0,0.002,0.0,0.0019999994,nan,nan,nan,nan,nan,nan,nan,nan,0
47064000,47064000,0.0019999999,0.0,0.0019999999,0.0,nan,nan,nan,nan,nan,nan,nan,nan,0
47164000,47164000,0.0019999999,0.0,0.0019999999,0.0,nan,nan,nan,nan,nan,nan,nan,nan,0
47264000,47264000,1.8105056e-06,0.0018934235,4.5418725e-05,0.0020593468,nan,nan,nan,nan,nan,nan,nan,nan,0
47364000,47364000,0.000119488344,0.0017550517,5.4390162e-05,0.0020710696,nan,nan,nan,nan,nan,nan,nan,nan,0
47464000,47464000,0.0,0.0019999992,2.3283064e-10,0.0019999996,nan,nan,nan,nan,nan,nan,nan,nan,0
47564000,47564000,0.0019999999,0.0,0.001419093,0.00058090675,nan,nan,nan,nan,nan,nan,nan,nan,0
47664000,47664000,0.0,0.0019999999,0.0,0.0019999999,nan,nan,nan,nan,nan,nan,nan,nan,0
47764000,47764000,0.0019999996,0.0,0.002,0.0,nan,nan,nan,nan,nan,nan,nan,nan,0
47864000,47864000,0.0019999999,0.0,0.0019999999,2.3283064e-10,nan,nan,nan,nan,nan,nan,nan,nan,0
47964000,47964000,0.0019258435,0.0,3.2148786e-05,0.0020420074,nan,nan,nan,nan,nan,nan,nan,nan,0
48064000,48064000,0.0022655444,0.00034697822,0.0005384797,0.0008489974,nan,nan,nan,nan,nan,nan,nan,nan,0
48164000,48164000,0.0,0.0019999996,1.1641532e-10,0.0019999999,nan,nan,nan,nan,nan,nan,nan,nan,0
48264000,48264000,0.0,0.002,0.0,0.0019999999,nan,nan,nan,nan,nan,nan,nan,nan,0
48364000,48364000,0.0,0.0019999999,0.0,0.0019999999,nan,nan,nan,nan,nan,nan,nan,nan,0
48464000,48464000,0.00071356643,0.0017089173,0.00074627163,0.00083124446,nan,nan,nan,nan,nan,nan,nan,nan,0
48564000,48564000,0.00029729586,0.0018956659,0.0,0.0018070381,nan,nan,nan,nan,nan,nan,nan,nan,0
48664000,48664000,0.0018605916,0.00010402979,0.0020153373,2.0041005e-05,nan,nan,nan,nan,nan,nan,nan,nan,0
48764000,48764000,0.0020000003,0.0,0.0020000003,0.0,nan,nan,nan,nan,nan,nan,nan,nan,0
48864000,48864000,0.0019999999,0.0,5.6629877e-05,0.0019433701,nan,nan,nan,nan,nan,nan,nan,nan,0
48964000,48964000,0.0,0.0019999992,4.656613e-10,0.0019999996,nan,nan,nan,nan,nan,nan,nan,nan,0
49064000,49064000,0.002,0.0,0.0019999996,0.0,nan,nan,nan,nan,nan,nan,nan,nan,0
49160000,49160000,0.0019301951,0.0004963433,0.0,0.0015734612,nan,nan,nan,nan,nan,nan,nan,nan,0
49264000,49264000,0.0022472406,0.00032306137,0.0011844565,0.00024524104,nan,nan,nan,nan,nan,nan,nan,nan,0
49364000,49364000,0.0,0.002,0.0,0.0020000006,nan,nan,nan,nan,nan,nan,nan,nan,0
49464000,49464000,0.0008491704,0.0011508295,0.0,0.0019999996,nan,nan,nan,nan,nan,nan,nan,nan,0
49564000,49564000,0.0,0.0019999994,0.0,0.0019999999,nan,nan,nan,nan,nan,nan,nan,nan,0
49664000,49664000,0.0,0.0019999994,1.1641532e-10,0.002,nan,nan,nan,nan,nan,nan,nan,nan,0
49764000,49764000,0.0,0.0019999996,0.0,0.0019999996,nan,nan,nan,nan,nan,nan,nan,nan,0
49864000,49864000,0.0019999999,0.0,0.0019999999,0.0,nan,nan,nan,nan,nan,nan,nan,nan,0
49964000,49964000,0.0,0.002,1.1641532e-10,0.0019999992,nan,nan,nan,nan,nan,nan,nan,nan,0
50064000,50064000,0.00039317546,0.0015271888,3.4524197e-05,0.0020451115,nan,nan,nan,nan,nan,nan,nan,nan,0
50164000,50164000,0.0011336566,0.0007941593,0.0020312935,4.0890376e-05,nan,nan,nan,nan,nan,nan,nan,nan,0
50264000,50264000,0.0019999999,0.0,0.0019999999,0.0,nan,nan,nan,nan,nan,nan,nan,nan,0
50364000,50364000,0.0011884822,0.00067740737,0.0011054097,0.0010287006,nan,nan,nan,nan,nan,nan,nan,nan,0
50464000,50464000,0.0021013103,0.00013237906,0.0,0.0017663102,nan,nan,nan,nan,nan,nan,nan,nan,0
50564000,50564000,0.00035252166,0.0020032825,0.0010131203,0.0006310754,nan,nan,nan,nan,nan,nan,nan,nan,0
50664000,50664000,0.0019999999,0.0,0.0019999999,0.0,nan,nan,nan,nan,nan,nan,nan,nan,0
50764000,50764000,0.001712739,0.0010618535,0.0012254072,0.0,nan,nan,nan,nan,nan,nan,nan,nan,0
50864000,50864000,0.0,0.0019999996,0.0,0.002000001,nan,nan,nan,nan,nan,nan,nan,nan,0
50964000,50964000,0.0,0.0019999999,0.0,0.0019999999,nan,nan,nan,nan,nan,nan,nan,nan,0
51064000,51064000,0.0012490491,0.00051875075,0.0009024599,0.0013297399,nan,nan,nan,nan,nan,nan,nan,nan,0
51164000,51164000,0.0019999994,0.0,0.0019999999,0.0,nan,nan,nan,nan,nan,nan,nan,nan,0
51264000,51264000,0.0019999999,0.0,8.839013e-05,0.0019116098,nan,nan,nan,nan,nan,nan,nan,nan,0
51364000,51364000,0.0020000006,2.3283064e-10,0.0019999996,0.0,nan,nan,nan,nan,nan,nan,nan,nan,0
51464000,51464000,0.0,0.0019999999,0.0,0.0019999999,nan,nan,nan,nan,nan,nan,nan,nan,0
51564000,51564000,0.002379009,0.0004952383,0.0,0.0011257526,nan,nan,nan,nan,nan,nan,nan,nan,0
51664000,51664000,0.0019999999,2.3283064e-10,0.0019999999,0.0,nan,nan,nan,nan,nan,nan,nan,nan,0
51764000,51764000,0.0019999999,0.0,0.0019999999,0.0,nan,nan,nan,nan,nan,nan,nan,nan,0
51864000,51864000,0.0019999996,0.0,0.0020000003,0.0,nan,nan,nan,nan,nan,nan,nan,nan,0
51964000,51964000,0.0005817005,0.0008426104,0.0011492602,0.0014264287,nan,nan,nan,nan,nan,nan,nan,nan,0
52064000,52064000,0.0,0.0019999999,0.0,0.0019999999,nan,nan,nan,nan,nan,nan,nan,nan,0
52164000,52164000,5.0931703e-11,0.0019999999,7.275958e-12,0.0019999999,nan,nan,nan,nan,nan,nan,nan,nan,0
52264000,52264000,0.0019999999,0.0,0.0019999999,0.0,nan,nan,nan,nan,nan,nan,nan,nan,0
52364000,52364000,0.002,0.0,0.00056883,0.0014311697,nan,nan,nan,nan,nan,nan,nan,nan,0
52464000,52464000,0.0,0.0019999999,0.0,0.0019999999,nan,nan,nan,nan,nan,nan,nan,nan,0
52564000,52564000,0.0019999999,0.0,0.0019999999,0.0,nan,nan,nan,nan,nan,nan,nan,nan,0
52664000,52664000,0.0015967658,0.00043212477,0.00081197394,0.001159135,nan,nan,nan,nan,nan,nan,nan,nan,0
52764000,52764000,0.0019999999,3.4924597e-10,0.0019999994,0.0,nan,nan,nan,nan,nan,nan,nan,nan,0
52864000,52864000,0.0,0.0019999994,0.0,0.0020000003,nan,nan,nan,nan,nan,nan,nan,nan,0
52964000,52964000,0.0019999999,0.0,0.0019999999,0.0,nan,nan,nan,nan,nan,nan,nan,nan,0
53064000,53064000,0.002,0.0,0.002,0.0,nan,nan,nan,nan,nan,nan,nan,nan,0
53160000,53160000,0.0007829835,5.1866984e-05,0.001893426,0.0012717233,nan,nan,nan,nan,nan,nan,nan,nan,0
53264000,53264000,0.002,0.0,0.00096825184,0.001031748,nan,nan,nan,nan,nan,nan,nan,nan,0
53364000,53364000,0.0019999999,0.0,0.0019999994,0.0,nan,nan,nan,nan,nan,nan,nan,nan,0
53464000,53464000,0.0019999999,2.910383e-11,0.0019999999,0.0,nan,nan,nan,nan,nan,nan,nan,nan,0
53564000,53564000,0.0,0.0019999994,0.0,0.0019999994,nan,nan,nan,nan,nan,nan,nan,nan,0
53664000,53664000,0.002,0.0,0.002,0.0,nan,nan,nan,nan,nan,nan,nan,nan,0
53764000,53764000,0.0011416648,0.000500438,0.002153814,0.0002040828,nan,nan,nan,nan,nan,nan,nan,nan,0
53864000,53864000,0.0,0.0019999994,0.0,0.0019999999,nan,nan,nan,nan,nan,nan,nan,nan,0
53964000,53964000,0.0019999999,0.0,0.0019999999,0.0,nan,nan,nan,nan,nan,nan,nan,nan,0
54064000,54064000,0.0020000003,0.0,0.0019999996,0.0,nan,nan,nan,nan,nan,nan,nan,nan,0
54164000,54164000,0.0019999999,0.0,0.0019999999,0.0,nan,nan,nan,nan,nan,nan,nan,nan,0
54264000,54264000,0.0019999994,1.1641532e-10,0.0019999994,0.0,nan,nan,nan,nan,nan,nan,nan,nan,0
54364000,54364000,0.0019999999,0.0,0.0019999999,0.0,nan,nan,nan,nan,nan,nan,nan,nan,0
54464000,54464000,0.0019999999,0.0,0.0019999999,0.0,nan,nan,nan,nan,nan,nan,nan,nan,0
54564000,54564000,0.0,0.0019999999,0.0,0.0019999999,nan,nan,nan,nan,nan,nan,nan,nan,0
54664000,54664000,0.0,0.0020000006,0.0,0.0019999996,nan,nan,nan,nan,nan,nan,nan,nan,0
54764000,54764000,0.001888156,0.00011184375,0.0,0.0019999999,nan,nan,nan,nan,nan,nan,nan,nan,0
54864000,54864000,0.002250117,0.00032681963,0.0008378246,0.00058523857,nan,nan,nan,nan,nan,nan,nan,nan,0
54964000,54964000,0.0,0.0019999996,0.0,0.002,nan,nan,nan,nan,nan,nan,nan,nan,0
55064000,55064000,0.0012757613,0.0,0.0008937852,0.001830453,nan,nan,nan,nan,nan,nan,nan,nan,0
55164000,55164000,0.0019999994,0.0,0.0019999999,0.0,nan,nan,nan,nan,nan,nan,nan,nan,0
55264000,55264000,0.0002995566,0.0009458837,0.002327121,0.0004274383,nan,nan,nan,nan,nan,nan,nan,nan,0
55364000,55364000,0.0,0.0019999999,0.0,0.002,nan,nan,nan,nan,nan,nan,nan,nan,0
55464000,55464000,0.0,0.002,0.0,0.002,nan,nan,nan,nan,nan,nan,nan,nan,0
55564000,55564000,0.001999999,0.0,0.0020000003,4.656613e-10,nan,nan,nan,nan,nan,nan,nan,nan,0
55664000,55664000,0.0016549109,0.0014318568,0.00047001144,0.00044322078,nan,nan,nan,nan,nan,nan,nan,nan,0
55764000,55764000,0.0019999999,0.0,0.0019999999,0.0,nan,nan,nan,nan,nan,nan,nan,nan,0
55864000,55864000,0.0020000003,0.0,0.0020000003,0.0,nan,nan,nan,nan,nan,nan,nan,nan,0
55964000,55964000,0.0,0.0019999999,1.4551915e-11,0.0019999999,nan,nan,nan,nan,nan,nan,nan,nan,0
56064000,56064000,0.0,0.0019999999,0.0,0.0019999999,nan,nan,nan,nan,nan,nan,nan,nan,0
56164000,56164000,0.0019999999,0.0,0.0019999994,4.656613e-10,nan,nan,nan,nan,nan,nan,nan,nan,0
56264000,56264000,0.0017448112,0.0,0.0021106307,0.0001445578,nan,nan,nan,nan,nan,nan,nan,nan,0
56364000,56364000,0.0019999999,0.0,0.0019999999,0.0,nan,nan,nan,nan,nan,nan,nan,nan,0
56464000,56464000,0.001589092,0.0,0.002178139,0.0002327686,nan,nan,nan,nan,nan,nan,nan,nan,0
56564000,56564000,0.0019999999,0.0,0.0019999999,0.0,nan,nan,nan,nan,nan,nan,nan,nan,0
56664000,56664000,0.0011450952,0.0,0.0016957625,0.001159142,nan,nan,nan,nan,nan,nan,nan,nan,0
56764000,56764000,0.0019999999,0.0,0.0019999999,0.0,nan,nan,nan,nan,nan,nan,nan,nan,0
56864000,56864000,0.0019999996,4.656613e-10,0.0019999994,0.0,nan,nan,nan,nan,nan,nan,nan,nan,0
56964000,56964000,0.0,0.0020000003,0.0,0.0020000003,nan,nan,nan,nan,nan,nan,nan,nan,0
57064000,57064000,0.0019999996,0.0,0.0020000006,2.3283064e-10,nan,nan,nan,nan,nan,nan,nan,nan,0
57164000,57164000,0.0019999999,5.820766e-11,0.0019999999,0.0,nan,nan,nan,nan,nan,nan,nan,nan,0
57264000,57264000,2.332854e-10,0.0019999999,0.0,0.001999999,nan,nan,nan,nan,nan,nan,nan,nan,0
57364000,57364000,0.002,0.0,0.0019999996,0.0,nan,nan,nan,nan,nan,nan,nan,nan,0
57464000,57464000,0.0019999999,0.0,0.0019999999,2.3283064e-10,nan,nan,nan,nan,nan,nan,nan,nan,0
57564000,57564000,0.0020000008,0.0,0.0019999999,0.0,nan,nan,nan,nan,nan,nan,nan,nan,0
57664000,57664000,0.0,0.0019999996,0.0,0.002,nan,nan,nan,nan,nan,nan,nan,nan,0
57764000,57764000,0.0019999996,0.0,0.0019999996,0.0,nan,nan,nan,nan,nan,nan,nan,nan,0
57864000,57864000,0.0019999999,0.0,0.001999999,0.0,nan,nan,nan,nan,nan,nan,nan,nan,0
57964000,57964000,0.0013004164,0.00025853064,0.0021912078,0.0002498449,nan,nan,nan,nan,nan,nan,nan,nan,0
58064000,58064000,0.0019999996,0.0,0.000616745,0.0013832548,nan,nan,nan,nan,nan,nan,nan,nan,0
58164000,58164000,0.002,0.0,0.0019999996,0.0,nan,nan,nan,nan,nan,nan,nan,nan,0
58264000,58264000,0.0019999999,0.0,0.0019999999,0.0,nan,nan,nan,nan,nan,nan,nan,nan,0
58364000,58364000,0.0019999996,6.9849193e-10,0.001999999,0.0,nan,nan,nan,nan,nan,nan,nan,nan,0
58464000,58464000,0.002,0.0,0.0019999999,0.0,nan,nan,nan,nan,nan,nan,nan,nan,0
58564000,58564000,0.0020000003,0.0,0.0020000003,0.0,nan,nan,nan,nan,nan,nan,nan,nan,0
58664000,58664000,0.0017338861,0.0002478558,0.0020079152,1.03426855e-05,nan,nan,nan,nan,nan,nan,nan,nan,0
58764000,58764000,0.0,0.0019999996,0.0,0.002,nan,nan,nan,nan,nan,nan,nan,nan,0
58864000,58864000,0.0019999999,0.0,0.0019999999,0.0,nan,nan,nan,nan,nan,nan,nan,nan,0
58964000,58964000,0.001999999,0.0,0.0019999999,4.656613e-10,nan,nan,nan,nan,nan,nan,nan,nan,0
59064000,59064000,0.0019999996,0.0,0.002,0.0,nan,nan,nan,nan,nan,nan,nan,nan,0
59164000,59164000,0.0020000003,0.0,0.0020000003,0.0,nan,nan,nan,nan,nan,nan,nan,nan,0
59264000,59264000,0.0019999996,0.0,0.0009492445,0.0010507554,nan,nan,nan,nan,nan,nan,nan,nan,0
59360000,59360000,0.0019999999,0.0,0.0019999994,0.0,nan,nan,nan,nan,nan,nan,nan,nan,0
59464000,59464000,0.0,0.002,0.0,0.0019999996,nan,nan,nan,nan,nan,nan,nan,nan,0
59564000,59564000,0.0019999999,0.0,0.0019999999,0.0,nan,nan,nan,nan,nan,nan,nan,nan,0
59664000,59664000,0.0019999994,0.0,0.0020000003,0.0,nan,nan,nan,nan,nan,nan,nan,nan,0
59764000,59764000,0.0019999999,0.0,0.0019999999,0.0,nan,nan,nan,nan,nan,nan,nan,nan,0
59860000,59860000,0.0,0.0019999999,0.0,0.0020000003,nan,nan,nan,nan,nan,nan,nan,nan,0
59964000,59964000,0.0019999999,0.0,0.0019999999,0.0,nan,nan,nan,nan,nan,nan,nan,nan,0
60064000,60064000,0.0019999996,0.0,0.0019999999,2.3283064e-10,nan,nan,nan,nan,nan,nan,nan,nan,0
60164000,60164000,0.0020000003,4.656613e-10,0.0019999999,0.0,nan,nan,nan,nan,nan,nan,nan,nan,0
60264000,60264000,0.0019999999,0.0,0.0019999999,0.0,nan,nan,nan,nan,nan,nan,nan,nan,0
60364000,60364000,0.0,0.002,0.0,0.0019999996,nan,nan,nan,nan,nan,nan,nan,nan,0
60464000,60464000,0.0,0.0019999999,0.0,0.0019999999,nan,nan,nan,nan,nan,nan,nan,nan,0
60564000,60564000,0.0,0.0019999999,0.0,0.0019999999,nan,nan,nan,nan,nan,nan,nan,nan,0
60664000,60664000,0.002,0.0,0.0019999996,0.0,nan,nan,nan,nan,nan,nan,nan,nan,0
60764000,60764000,0.00227485,0.0003591377,0.0012249278,0.00014108428,nan,nan,nan,nan,nan,nan,nan,nan,0
60864000,60864000,0.0019999999,0.0,0.0019999999,5.820766e-11,nan,nan,nan,nan,nan,nan,nan,nan,0
60964000,60964000,0.0017363032,0.00018393005,0.0014115758,0.00066819065,nan,nan,nan,nan,nan,nan,nan,nan,0
61064000,61064000,0.0019999999,0.0,0.0020000003,0.0,nan,nan,nan,nan,nan,nan,nan,nan,0
61164000,61164000,0.0,0.0019999996,0.0,0.002,nan,nan,nan,nan,nan,nan,nan,nan,0
61264000,61264000,2.3283064e-10,0.0019999999,0.0,0.0019999994,nan,nan,nan,nan,nan,nan,nan,nan,0
61364000,61364000,0.00017653982,0.0022306782,0.0,0.0015927814,nan,nan,nan,nan,nan,nan,nan,nan,0
61464000,61464000,0.0019999999,0.0,0.0019999999,0.0,nan,nan,nan,nan,nan,nan,nan,nan,0
61564000,61564000,0.002,0.0,0.002,0.0,nan,nan,nan,nan,nan,nan,nan,nan,0
61664000,61664000,0.0019999999,0.0,0.0019999999,0.0,nan,nan,nan,nan,nan,nan,nan,nan,0
61764000,61764000,0.0019999996,0.0,0.0018914927,0.00010850723,nan,nan,nan,nan,nan,nan,nan,nan,0
61864000,61864000,0.0019999999,0.0,0.0011957634,0.0008042366,nan,nan,nan,nan,nan,nan,nan,nan,0
61964000,61964000,0.0,0.0019999999,0.0,0.002,nan,nan,nan,nan,nan,nan,nan,nan,0
62064000,62064000,0.0020000003,0.0,0.0019999999,0.0,nan,nan,nan,nan,nan,nan,nan,nan,0
62164000,62164000,0.0019999994,0.0,0.0020000006,4.656613e-10,nan,nan,nan,nan,nan,nan,nan,nan,0
62264000,62264000,0.0001857433,0.0018117976,0.0020010658,1.3928874e-06,nan,nan,nan,nan,nan,nan,nan,nan,0
62364000,62364000,0.0019999996,0.0,0.002,0.0,nan,nan,nan,nan,nan,nan,nan,nan,0
62464000,62464000,0.002,0.0,0.0019999999,0.0,nan,nan,nan,nan,nan,nan,nan,nan,0
62564000,62564000,0.0,0.002,0.00038108765,0.0016189122,nan,nan,nan,nan,nan,nan,nan,nan,0
62664000,62664000,0.0,0.0019999999,0.0009544242,0.0010455758,nan,nan,nan,nan,nan,nan,nan,nan,0
62764000,62764000,0.0009849507,0.0010150492,0.0019999996,0.0,nan,nan,nan,nan,nan,nan,nan,nan,0
62864000,62864000,0.0,0.0019999999,0.0,0.0019999999,nan,nan,nan,nan,nan,nan,nan,nan,0
62964000,62964000,0.0,0.0019999999,0.0,0.0019999999,nan,nan,nan,nan,nan,nan,nan,nan,0
63064000,63064000,0.00079501024,0.0012049894,0.0019999999,0.0,nan,nan,nan,nan,nan,nan,nan,nan,0
63164000,63164000,0.0019999996,0.0,0.0019999996,0.0,nan,nan,nan,nan,nan,nan,nan,nan,0
63264000,63264000,0.0019999999,0.0,0.0019999994,2.3283064e-10,nan,nan,nan,nan,nan,nan,nan,nan,0
63364000,63364000,0.0,0.0019999999,0.0,0.0019999996,nan,nan,nan,nan,nan,nan,nan,nan,0
63464000,63464000,0.0019999999,0.0,0.0019999999,0.0,nan,nan,nan,nan,nan,nan,nan,nan,0
63560000,63560000,0.00094355934,0.0008946059,0.0020701592,9.1674985e-05,nan,nan,nan,nan,nan,nan,nan,nan,0
63664000,63664000,0.0,0.002,5.820766e-11,0.0019999996,nan,nan,nan,nan,nan,nan,nan,nan,0
63764000,63764000,0.0,0.0019999999,0.0,0.0019999994,nan,nan,nan,nan,nan,nan,nan,nan,0
63864000,63864000,0.0,0.0019999999,0.0,0.0019999999,nan,nan,nan,nan,nan,nan,nan,nan,0
63964000,63964000,0.0,0.002000001,0.0,0.002,nan,nan,nan,nan,nan,nan,nan,nan,0
64064000,64064000,0.0,0.0019999996,0.0,0.0019999999,nan,nan,nan,nan,nan,nan,nan,nan,0
64164000,64164000,0.0,0.0019999999,0.0,0.0019999999,nan,nan,nan,nan,nan,nan,nan,nan,0
64264000,64264000,0.0,0.0019999996,0.0,0.002,nan,nan,nan,nan,nan,nan,nan,nan,0
64364000,64364000,5.1601088e-05,0.0020674253,3.637979e-12,0.0018809733,nan,nan,nan,nan,nan,nan,nan,nan,0
64464000,64464000,0.0005555551,0.0014444445,0.0019999999,0.0,nan,nan,nan,nan,nan,nan,nan,nan,0
64564000,64564000,0.0,0.0019999999,0.0,0.0019999999,nan,nan,nan,nan,nan,nan,nan,nan,0
64664000,64664000,0.0019999996,0.0,0.002,0.0,nan,nan,nan,nan,nan,nan,nan,nan,0
64764000,64764000,0.0,0.0019999996,0.0,0.0019999996,nan,nan,nan,nan,nan,nan,nan,nan,0
64864000,64864000,0.0019999999,0.0,0.0019999999,0.0,nan,nan,nan,nan,nan,nan,nan,nan,0
64964000,64964000,0.0,0.0019999994,2.3283064e-10,0.0019999994,nan,nan,nan,nan,nan,nan,nan,nan,0
65064000,65064000,0.00054691907,0.0012245358,0.00209908,0.00012946477,nan,nan,nan,nan,nan,nan,nan,nan,0
65164000,65164000,0.0014938188,0.0004980871,0.000261707,0.001746387,nan,nan,nan,nan,nan,nan,nan,nan,0
65264000,65264000,0.0,0.0018466336,0.00026627598,0.0018870902,nan,nan,nan,nan,nan,nan,nan,nan,0
65364000,65364000,1.1488053e-05,0.002015011,0.0019735007,0.0,nan,nan,nan,nan,nan,nan,nan,nan,0
65464000,65464000,0.0,0.0019999996,0.0,0.002,nan,nan,nan,nan,nan,nan,nan,nan,0
65564000,65564000,0.00016814106,0.0022197042,0.0005361083,0.0010760463,nan,nan,nan,nan,nan,nan,nan,nan,0
65664000,65664000,0.0,0.0019999994,0.0,0.0020000003,nan,nan,nan,nan,nan,nan,nan,nan,0
65764000,65764000,0.0,0.0019999999,0.0,0.0019999999,nan,nan,nan,nan,nan,nan,nan,nan,0
65864000,65864000,0.00032871167,0.0024295163,0.0010638088,0.00017796291,nan,nan,nan,nan,nan,nan,nan,nan,0
65960000,65960000,0.00085649115,0.0014982064,0.001534751,0.00011055128,nan,nan,nan,nan,nan,nan,nan,nan,0
66064000,66064000,0.0012129667,0.00091033924,0.00029371967,0.0015829739,nan,nan,nan,nan,nan,nan,nan,nan,0
66164000,66164000,0.00033749774,0.00213155,1.7216138e-05,0.0015137356,nan,nan,nan,nan,nan,nan,nan,nan,0
66264000,66264000,0.0,0.0019999999,0.0,0.0019999999,nan,nan,nan,nan,nan,nan,nan,nan,0
66364000,66364000,0.0,0.0020000003,0.0,0.0020000003,nan,nan,nan,nan,nan,nan,nan,nan,0
66464000,66464000,0.0,0.0020000003,0.0,0.0019999999,nan,nan,nan,nan,nan,nan,nan,nan,0
66564000,66564000,0.0019999999,0.0,0.0019999999,0.0,nan,nan,nan,nan,nan,nan,nan,nan,0
66664000,66664000,0.0010373995,0.00096260046,0.0,0.0019999999,nan,nan,nan,nan,nan,nan,nan,nan,0
66764000,66764000,0.0019999999,0.0,0.0019999999,0.0,nan,nan,nan,nan,nan,nan,nan,nan,0
66864000,66864000,0.0,0.0019999996,0.0,0.0019999996,nan,nan,nan,nan,nan,nan,nan,nan,0
66964000,66964000,0.00014785865,0.0017861025,0.0005146208,0.0015514178,nan,nan,nan,nan,nan,nan,nan,nan,0
67064000,67064000,0.0019999996,0.0,0.0020000006,0.0,nan,nan,nan,nan,nan,nan,nan,nan,0
67164000,67164000,0.0007731054,0.0030101906,0.0002167035,0.0,nan,nan,nan,nan,nan,nan,nan,nan,0
67260000,67260000,0.0,0.0019999996,0.0,0.002,nan,nan,nan,nan,nan,nan,nan,nan,0
67360000,67360000,0.002,0.0,0.0019999996,0.0,nan,nan,nan,nan,nan,nan,nan,nan,0
