timestamp,timestamp_sample,time_last_fuse,observation[0],observation[1],device_id,observation_variance[0],observation_variance[1],innovation[0],innovation[1],innovation_filtered[0],innovation_filtered[1],innovation_variance[0],innovation_variance[1],test_ratio[0],test_ratio[1],test_ratio_filtered[0],test_ratio_filtered[1],estimator_instance,innovation_rejected,fused
2024000,1870974,0,47.3977508,8.5456074,0,1.0,1.0,-5240972.0,-951292.7,-5240972.0,-951292.7,1.0001,1.0001,1098601660000.0,36194693000.0,1098601660000.0,36194693000.0,0,1,0
2432000,2272151,0,47.3977508,8.5456073,0,1.0,1.0,-5240972.0,-951292.6,-10.000306,-10.000306,1.0000613,1.0000613,1098644200000.0,36196090000.0,4.0,4.0,0,1,0
2832000,2672893,2680000,47.3977508,8.5456074,0,1.0,1.0,0.0,0.0,0.0,0.0,1.0,1.0,0.0,0.0,0.0,0.0,0,0,1
3232000,3073330,3080000,47.3977508,8.5456074,0,1.0,1.0,-0.00011403066,0.002872296,-5.071104e-05,0.0012773504,101.00002,101.00002,5.149699e-12,3.2673593e-09,-2.2901436e-12,1.4530407e-09,0,0,1
3632000,3473591,3480000,47.3977508,8.5456074,0,1.0,1.0,-0.0013285306,0.00043084653,-0.0006188366,0.0009009901,1.9950492,1.9950471,3.538747e-08,3.7217915e-09,-1.5734734e-08,2.4617397e-09,0,0,1
4032000,3873755,3880000,47.3977508,8.5456074,0,1.0,1.0,0.006553477,0.010063372,0.0025695842,0.004974087,1.5086625,1.5086616,1.1387058e-06,2.6850673e-06,4.974668e-07,1.1950024e-06,0,0,1
4432000,4273851,4280000,47.3977508,8.5456074,0,1.0,1.0,0.016959636,0.010334716,0.008966016,0.0073569063,1.3517848,1.35179,8.511095e-06,3.1604422e-06,4.059554e-06,2.0686475e-06,0,0,1
4832000,4673910,4680000,47.3977508,8.5456074,0,1.0,1.0,0.022323027,0.0071578673,0.014902951,0.007268437,1.2771906,1.2772007,1.5606678e-05,1.6046049e-06,9.19203e-06,1.8623895e-06,0,0,1
5232000,5073946,5080000,47.3977508,8.5456073,0,1.0,1.0,0.018032322,0.0069273757,0.016293852,0.0071168467,1.2344086,1.234418,1.0536693e-05,1.5550173e-06,9.789688e-06,1.7257728e-06,0,0,1
5632000,5473967,5480000,47.3977508,8.5456074,0,1.0,1.0,0.015183009,0.003684191,0.01580013,0.0055911774,1.2070429,1.2070535,7.63929e-06,4.4979822e-07,8.8339275e-06,1.1586565e-06,0,0,1
6032000,5873980,5880000,47.3977508,8.5456074,0,1.0,1.0,0.022636613,0.006688904,0.018838622,0.0060790647,1.1883603,1.1883689,1.724784e-05,1.505978e-06,1.2573511e-05,1.3130244e-06,0,0,1
6432000,6273988,6280000,47.3977508,8.5456074,0,1.0,1.0,0.022824015,0.0056494195,0.020609928,0.005888109,1.1750615,1.1750665,1.7733053e-05,1.0864387e-06,1.4866667e-05,1.2123186e-06,0,0,1
6832000,6673993,6680000,47.3977508,8.5456074,0,1.0,1.0,0.019595291,0.0075080646,0.020158976,0.0066080946,1.1653163,1.1653247,1.3180128e-05,1.9349468e-06,1.41170885e-05,1.5334889e-06,0,0,1
7232000,7073996,7080000,47.3977508,8.5456074,0,1.0,1.0,0.01641954,0.0064482708,0.018496998,0.0065370617,1.1580251,1.158034,9.31245e-06,1.436234e-06,1.1981685e-05,1.4902644e-06,0,0,1
7632000,7473998,7480000,47.3977508,8.5456074,0,1.0,1.0,0.013973891,0.0030297828,0.016486723,0.0049782665,1.1524849,1.15249,6.7773426e-06,3.1860003e-07,9.668638e-06,9.695232e-07,0,0,1
8032000,7877999,7880000,47.3977508,8.5456074,0,1.0,1.0,0.00663527,-0.0017203157,0.012084076,0.0019846482,1.1482148,1.148218,1.5337482e-06,1.030984e-07,6.0331295e-06,4.901651e-07,0,0,1
8432000,8274000,8280000,47.3977508,8.5456074,0,1.0,1.0,0.004128838,0.0047645317,0.00856814,0.0032132592,1.1448951,1.1448988,5.955935e-07,7.9310985e-07,3.6299293e-06,6.2405604e-07,0,0,1
8824000,8670000,8672000,47.3977508,8.5456074,0,1.0,1.0,0.00709336,0.0039772647,0.00791634,0.0035509223,1.1416574,1.1416646,1.7629022e-06,5.542305e-07,2.80477e-06,5.9319564e-07,0,0,1
9232000,9074000,9080000,47.397750699999996,8.5456074,0,1.0,1.0,0.01462727,-0.0019730425,0.010915472,0.0010822478,1.1403534,1.1403651,7.5049375e-06,1.3654912e-07,4.9052874e-06,2.6707076e-07,0,0,1
9624000,9470000,9472000,47.3977508,8.5456074,0,1.0,1.0,0.0039032204,0.0002868657,0.007816307,0.0007307173,1.138077,1.138093,5.354692e-07,2.8922744e-09,2.9739838e-06,1.5031331e-07,0,0,1
10032000,9874000,9880000,47.3977508,8.5456074,0,1.0,1.0,-0.006035665,-0.00010903426,0.0016258243,0.00035543015,1.1374863,1.1375086,1.2810441e-06,4.1805295e-10,1.0724007e-06,8.295107e-08,0,0,1
10432000,10274000,10280000,47.3977508,8.5456074,0,1.0,1.0,-0.006013784,-0.0019375713,-0.0017695576,-0.00066368165,1.1364082,1.1364357,1.2729791e-06,1.3213884e-07,3.000946e-08,-1.2644449e-08,0,0,1
10832000,10674000,10680000,47.3977508,8.5456074,0,1.0,1.0,-0.006361736,-0.00900401,-0.0038105259,-0.0043704943,1.1355319,1.1355678,1.4256467e-06,2.8557413e-06,-6.169489e-07,-1.2762431e-06,0,0,1
11232000,11074000,11080000,47.3977508,8.5456075,0,1.0,1.0,-0.010825657,-0.019624501,-0.006928362,-0.011150054,1.1348326,1.1348749,4.1308244e-06,1.3574044e-05,-2.1786714e-06,-6.741933e-06,0,0,1
11632000,11474000,11480000,47.3977508,8.5456074,0,1.0,1.0,-0.01629695,-0.005129746,-0.0110921785,-0.008474361,1.1342565,1.134309,9.366155e-06,9.279409e-07,-5.3731087e-06,-4.157936e-06,0,0,1
12032000,11874000,11880000,47.3977508,8.5456074,0,1.0,1.0,-0.012353804,-0.004432756,-0.011652901,-0.0066780923,1.1337827,1.1338465,5.3843287e-06,6.9319174e-07,-5.3780955e-06,-2.6180496e-06,0,0,1
12432000,12274000,12280000,47.3977508,8.5456074,0,1.0,1.0,-0.0076411753,-0.012020398,-0.009869912,-0.009052451,1.1334051,1.1334764,2.060607e-06,5.099002e-06,-3.903656e-06,-3.720695e-06,0,0,1
12832000,12674000,12680000,47.397750699999996,8.5456074,0,1.0,1.0,0.008783895,-0.012853893,-0.0015793303,-0.010741981,1.1330793,1.133162,2.7237918e-06,5.8322667e-06,-9.581233e-07,-4.6591713e-06,0,0,1
13232000,13074000,13080000,47.3977508,8.5456074,0,1.0,1.0,0.005308289,-0.0067536402,0.0014818341,-0.008969385,1.13282,1.13291,9.94966e-07,1.6104248e-06,-9.008352e-08,-3.3041729e-06,0,0,1
13632000,13474000,13480000,47.3977508,8.5456074,0,1.0,1.0,0.009469711,-0.007651094,0.005032002,-0.008383478,1.132584,1.1326857,3.167109e-06,2.0672721e-06,1.3575577e-06,-2.7544393e-06,0,0,1
14032000,13874000,13880000,47.3977508,8.5456074,0,1.0,1.0,0.004271004,-0.0027298396,0.0046937806,-0.0058707497,1.1323915,1.132499,6.443522e-07,2.632064e-07,1.0405774e-06,-1.6472246e-06,0,0,1
14432000,14274000,14280000,47.3977508,8.5456074,0,1.0,1.0,0.0083842445,-0.0013256667,0.0063339868,-0.0038507124,1.1322052,1.1323231,2.4834917e-06,6.208094e-08,1.6818727e-06,-9.4271627e-07,0,0,1
14832000,14674000,14680000,47.3977508,8.5456075,0,1.0,1.0,-0.0047064894,-0.008230847,0.001427108,-0.0057974393,1.1320533,1.132175,7.826855e-07,2.3935115e-06,5.8651347e-07,-1.5875141e-06,0,0,1
15232000,15074000,15080000,47.3977508,8.5456073,0,1.0,1.0,0.0054653976,0.008253277,0.0032219035,0.000447324,1.1318939,1.1320275,1.0555962e-06,2.406888e-06,7.9499466e-07,1.8777575e-07,0,0,1
15632000,15474000,15480000,47.3977508,8.5456074,0,1.0,1.0,0.004862273,0.0011683209,0.0039509567,0.0007677671,1.1317444,1.1318874,8.3558444e-07,4.8237084e-08,8.1303455e-07,1.2575856e-07,0,0,1
16032000,15874000,15880000,47.3977508,8.5456074,0,1.0,1.0,0.008578272,-0.004451011,0.006007541,-0.0015516899,1.1316193,1.1317655,2.601113e-06,7.00198e-07,1.6077361e-06,-2.4133325e-07,0,0,1
16432000,16274000,16280000,47.3977508,8.5456074,0,1.0,1.0,0.01769741,-0.0026991463,0.011203039,-0.0020616706,1.1314772,1.1316344,1.1072193e-05,2.5751746e-07,5.8141613e-06,-2.4852622e-07,0,0,1
16832000,16674000,16680000,47.3977508,8.5456073,0,1.0,1.0,0.016716057,0.004645533,0.01365327,0.000919309,1.1313539,1.1315113,9.87937e-06,7.6290803e-07,7.6209208e-06,2.0100015e-07,0,0,1
17232000,17074000,17080000,47.3977508,8.5456073,0,1.0,1.0,0.013543556,0.0051674806,0.013604509,0.0028073853,1.1312151,1.1313766,6.4860496e-06,9.440837e-07,7.1165337e-06,5.312595e-07,0,0,1
17632000,17474000,17480000,47.3977508,8.5456074,0,1.0,1.0,0.013684179,-0.003644397,0.013639918,-6.00738e-05,1.1310908,1.1312511,6.622165e-06,4.6962623e-07,6.8968143e-06,8.642138e-08,0,0,1
18032000,17874000,17880000,47.3977508,8.5456074,0,1.0,1.0,0.010634423,-0.008428408,0.012304142,-0.0037793336,1.130949,1.1311125,3.9998604e-06,2.5121483e-06,5.609279e-06,-1.0684985e-06,0,0,1
18432000,18274000,18280000,47.3977508,8.5456074,0,1.0,1.0,0.008008755,-0.007332324,0.010395081,-0.005358441,1.1308234,1.130983,2.2687948e-06,1.9014601e-06,4.1246194e-06,-1.4387036e-06,0,0,1
18832000,18674000,18680000,47.3977508,8.5456074,0,1.0,1.0,-0.000261586,0.0001550199,0.005658784,-0.0029080135,1.130682,1.1308428,2.4207423e-09,8.500268e-10,2.2903791e-06,-7.9890197e-07,0,0,1
19232000,19074000,19080000,47.3977508,8.5456074,0,1.0,1.0,-0.0034879183,-0.0042052004,0.0015935823,-0.003484541,1.1305364,1.1307002,4.3043545e-07,6.2558433e-07,1.0811282e-06,-7.218719e-07,0,0,1
19632000,19474000,19480000,47.3977508,8.5456073,0,1.0,1.0,-0.0025076852,-0.0016416109,-0.00022920338,-0.002665461,1.1304059,1.1305668,2.2252132e-07,9.534637e-08,5.017284e-07,-4.434161e-07,0,0,1
20032000,19874000,19880000,47.3977508,8.5456074,0,1.0,1.0,0.00625028,-0.01142561,0.002650567,-0.0065588607,1.1302592,1.1304243,1.3825501e-06,4.619312e-06,8.9320474e-07,-2.2993702e-06,0,0,1
20432000,20274000,20280000,47.3977508,8.5456074,0,1.0,1.0,0.0083047245,-0.011140318,0.005163526,-0.008595064,1.1301268,1.1302859,2.441087e-06,4.3920454e-06,1.5811524e-06,-3.229448e-06,0,0,1
20832000,20674000,20680000,47.3977508,8.5456074,0,1.0,1.0,0.006868944,-0.012954028,0.0059214896,-0.010532382,1.1299804,1.1301405,1.670202e-06,5.939327e-06,1.62073e-06,-4.4338385e-06,0,0,1
21232000,21074000,21080000,47.3977508,8.5456074,0,1.0,1.0,0.016292393,-0.014093625,0.010530781,-0.012115157,1.1298481,1.1300064,9.397442e-06,7.0311207e-06,5.077047e-06,-5.5881865e-06,0,0,1
21632000,21474000,21480000,47.3977508,8.5456074,0,1.0,1.0,0.017568702,-0.016279938,0.013658746,-0.013966171,1.1297021,1.1298664,1.0928874e-05,9.382928e-06,7.677859e-06,-7.274738e-06,0,0,1
22032000,21874000,21880000,47.3977508,8.5456074,0,1.0,1.0,0.016857004,-0.016619442,0.015080194,-0.015145402,1.1295685,1.1297319,1.0062553e-05,9.779519e-06,8.737723e-06,-8.387974e-06,0,0,1
22432000,22274000,22280000,47.3977508,8.5456074,0,1.0,1.0,0.012766941,-0.017696587,0.014052082,-0.016279262,1.1294229,1.1295921,5.772675e-06,1.1089639e-05,7.419924e-06,-9.588714e-06,0,0,1
22832000,22674000,22680000,47.3977508,8.5456075,0,1.0,1.0,0.014850192,-0.025735868,0.0144067975,-0.020482197,1.129279,1.129459,7.811292e-06,2.3456714e-05,7.593865e-06,-1.575227e-05,0,0,1
23232000,23074000,23080000,47.3977508,8.5456074,0,1.0,1.0,0.015817389,-0.01746985,0.0150337275,-0.019143376,1.1291498,1.1293314,8.862945e-06,1.0809781e-05,8.157901e-06,-1.3555608e-05,0,0,1
23632000,23474000,23480000,47.3977508,8.5456074,0,1.0,1.0,0.017064383,-0.012512983,0.01593624,-0.016196534,1.1290084,1.1291983,1.0316776e-05,5.5464034e-06,9.117401e-06,-9.995962e-06,0,0,1
24032000,23874000,23880000,47.3977508,8.5456074,0,1.0,1.0,0.015124703,0.00040313625,0.015575557,-0.008818902,1.1288813,1.1290758,8.105604e-06,5.757588e-09,8.667714e-06,-5.5507526e-06,0,0,1
24432000,24274000,24280000,47.3977508,8.5456073,0,1.0,1.0,0.015540918,0.0068551437,0.015560162,-0.001852659,1.1287465,1.1289474,8.55888e-06,1.6650198e-06,8.619343e-06,-2.3437424e-06,0,0,1
24832000,24674000,24680000,47.3977508,8.5456073,0,1.0,1.0,0.013205707,0.005948619,0.0145137375,0.001614576,1.1286292,1.1288294,6.18062e-06,1.2539032e-06,7.535466e-06,-7.4478874e-07,0,0,1
25232000,25074000,25080000,47.3977508,8.5456074,0,1.0,1.0,0.019411841,0.00482647,0.016690673,0.0030420844,1.1285039,1.1287112,1.3356429e-05,8.2553663e-07,1.0122561e-05,-4.686632e-08,0,0,1
25632000,25474000,25480000,47.3977508,8.5456074,0,1.0,1.0,0.02224779,-0.0034980592,0.019160504,0.00013535353,1.1283937,1.128604,1.7545797e-05,4.3368328e-07,1.3421777e-05,-2.1878498e-07,0,0,1
26032000,25874000,25880000,47.3977508,8.5456074,0,1.0,1.0,0.023663856,-0.003457192,0.021161994,-0.0014613335,1.1282763,1.1284931,1.9852514e-05,4.236509e-07,1.6279882e-05,-3.098365e-07,0,0,1
26432000,26274000,26280000,47.3977508,8.5456074,0,1.0,1.0,0.025249964,-0.00057242694,0.02297887,-0.0010662639,1.1281624,1.1283846,2.260528e-05,1.16156365e-08,1.909117e-05,-1.7729388e-07,0,0,1
26832000,26674000,26680000,47.3977508,8.5456074,0,1.0,1.0,0.026763674,0.0063637765,0.024661005,0.0022359765,1.1280657,1.1282843,2.5399024e-05,1.4357252e-06,2.189466e-05,5.3960355e-07,0,0,1
27232000,27074000,27080000,47.3977508,8.5456074,0,1.0,1.0,0.026340794,0.002058481,0.025407577,0.0021570898,1.127961,1.1281776,2.4605013e-05,1.5023679e-07,2.3099263e-05,3.6655166e-07,0,0,1
27632000,27474000,27480000,47.3977508,8.5456074,0,1.0,1.0,0.028555205,0.0038252498,0.026806522,0.0028984942,1.1278731,1.1280866,2.8918139e-05,5.1884444e-07,2.568543e-05,4.3423734e-07,0,0,1
28032000,27874000,27880000,47.3977508,8.5456074,0,1.0,1.0,0.029248737,0.004251711,0.02789195,0.003499924,1.1277766,1.1279912,3.0342482e-05,6.4103506e-07,2.775523e-05,5.2614746e-07,0,0,1
28432000,28274000,28280000,47.3977508,8.5456074,0,1.0,1.0,0.03185412,0.00526399,0.029652914,0.0042839535,1.1276973,1.127909,3.599139e-05,9.826888e-07,3.1415744e-05,7.290547e-07,0,0,1
28832000,28674000,28680000,47.3977509,8.5456073,0,1.0,1.0,0.022602726,0.009505908,0.026519496,0.0066048224,1.1276075,1.1278213,1.8122733e-05,3.204844e-06,2.550774e-05,1.8294055e-06,0,0,1
29232000,29074000,29080000,47.3977508,8.5456074,0,1.0,1.0,0.03522642,0.00938607,0.03038924,0.007840932,1.1275368,1.1277434,4.4021646e-05,3.1247646e-06,3.373614e-05,2.4051208e-06,0,0,1
29632000,29474000,29480000,47.3977508,8.5456074,0,1.0,1.0,0.03253909,0.009510429,0.031344727,0.008582931,1.1274573,1.1276662,3.7563896e-05,3.2083342e-06,3.5437366e-05,2.7621045e-06,0,0,1
30032000,29874000,29880000,47.3977508,8.5456074,0,1.0,1.0,0.033730656,0.00802353,0.032405138,0.008334309,1.1273777,1.1275903,4.0368264e-05,2.2837032e-06,3.7628877e-05,2.5494817e-06,0,0,1
30424000,30270000,30272000,47.3977508,8.5456074,0,1.0,1.0,0.035969336,0.009608774,0.033980384,0.008897577,1.1268296,1.127034,4.592684e-05,3.2768685e-06,4.129628e-05,2.8709605e-06,0,0,1
30832000,30674000,30680000,47.3977508,8.5456074,0,1.0,1.0,0.035972036,0.011621602,0.03487046,0.010114951,1.1273274,1.127533,4.5913454e-05,4.7914036e-06,4.335971e-05,3.7292116e-06,0,0,1
31232000,31074000,31080000,47.3977508,8.5456073,0,1.0,1.0,0.034690805,0.01948453,0.034790613,0.014279208,1.1272625,1.1274619,4.270352e-05,1.3469081e-05,4.306807e-05,8.058043e-06,0,0,1
31632000,31474000,31480000,47.3977508,8.5456074,0,1.0,1.0,0.03944263,0.012305061,0.036858175,0.013401809,1.12719,1.1273937,5.5207052e-05,5.3721974e-06,4.8463175e-05,6.864334e-06,0,0,1
32032000,31874000,31880000,47.3977508,8.5456074,0,1.0,1.0,0.04076166,0.014071616,0.038593058,0.013699501,1.1271334,1.1273332,5.8964204e-05,7.0257984e-06,5.3130298e-05,6.936096e-06,0,0,1
32432000,32274000,32280000,47.3977508,8.5456074,0,1.0,1.0,0.039412055,0.011100286,0.038957056,0.012544294,1.1270657,1.1272713,5.512758e-05,4.372199e-06,5.401798e-05,5.796586e-06,0,0,1
32832000,32674000,32680000,47.3977508,8.5456074,0,1.0,1.0,0.03815082,0.013784297,0.038598727,0.013095407,1.1270021,1.1272144,5.1658648e-05,6.742527e-06,5.2969386e-05,6.2170043e-06,0,0,1
33232000,33074000,33080000,47.3977508,8.5456074,0,1.0,1.0,0.036772024,0.017544486,0.03778686,0.015072775,1.1269526,1.1271663,4.7994272e-05,1.0923285e-05,5.0758223e-05,8.308685e-06,0,0,1
33632000,33474000,33480000,47.397750699999996,8.5456074,0,1.0,1.0,0.04857061,0.020211129,0.04257964,0.017356489,1.126896,1.1271175,8.373812e-05,1.4496793e-05,6.541596e-05,1.1058955e-05,0,0,1
34032000,33874000,33880000,47.3977508,8.5456074,0,1.0,1.0,0.037699822,0.02154877,0.04041083,0.019219724,1.1268533,1.1270752,5.0451166e-05,1.6479806e-05,5.876494e-05,1.3468222e-05,0,0,1
34432000,34274000,34280000,47.3977508,8.5456075,0,1.0,1.0,0.039594203,0.013800001,0.040047884,0.016810957,1.1268016,1.1270337,5.5651355e-05,6.7589826e-06,5.7381127e-05,1.04863375e-05,0,0,1
34832000,34674000,34680000,47.3977508,8.5456074,0,1.0,1.0,0.03469745,0.019523015,0.037669912,0.018016316,1.1267656,1.1270001,4.2738724e-05,1.3527882e-05,5.087339e-05,1.1838136e-05,0,0,1
35232000,35074000,35080000,47.3977508,8.5456074,0,1.0,1.0,0.032415792,0.014269453,0.035334747,0.016351044,1.1267198,1.126964,3.7304166e-05,7.227109e-06,4.484262e-05,9.7887905e-06,0,0,1
35632000,35474000,35480000,47.3977508,8.5456074,0,1.0,1.0,0.031702608,0.019079236,0.033720464,0.017563574,1.1266775,1.1269312,3.5682096e-05,1.2920656e-05,4.0771276e-05,1.1180731e-05,0,0,1
36032000,35878000,35880000,47.3977508,8.5456074,0,1.0,1.0,0.03610528,0.015885293,0.034786243,0.016813546,1.1266489,1.1269054,4.6282075e-05,8.9570085e-06,4.3234068e-05,1.0186944e-05,0,0,1
36432000,36274000,36280000,47.3977508,8.5456074,0,1.0,1.0,0.03789028,0.0130786635,0.03615812,0.015162862,1.1266109,1.1268756,5.097318e-05,6.071706e-06,4.6654477e-05,8.368155e-06,0,0,1
36832000,36674000,36680000,47.3977508,8.5456074,0,1.0,1.0,0.03641939,0.013202808,0.03627424,0.014291727,1.1265866,1.1268512,4.709348e-05,6.187654e-06,4.684959e-05,7.3990436e-06,0,0,1
37232000,37074000,37080000,47.3977508,8.5456074,0,1.0,1.0,0.041983582,0.017209888,0.038811725,0.015588688,1.1265533,1.126823,6.2584564e-05,1.0513816e-05,5.3842912e-05,8.783387e-06,0,0,1
37632000,37474000,37480000,47.3977508,8.5456074,0,1.0,1.0,0.045601945,0.018427093,0.0418296,0.016850201,1.1265378,1.1268026,7.383818e-05,1.205385e-05,6.27297e-05,1.0236926e-05,0,0,1
38032000,37874000,37880000,47.3977508,8.5456074,0,1.0,1.0,0.042521022,0.014562943,0.0421369,0.015833642,1.1265165,1.1267785,6.419923e-05,7.5286957e-06,6.3382824e-05,9.033268e-06,0,0,1
38432000,38274000,38280000,47.3977508,8.5456075,0,1.0,1.0,0.039851993,0.0050132787,0.041121386,0.0110245915,1.1264985,1.1267561,5.6393554e-05,8.922238e-07,6.027648e-05,5.4150255e-06,0,0,1
38832000,38674000,38680000,47.3977508,8.5456074,0,1.0,1.0,0.04243067,0.0064486233,0.04170329,0.008990828,1.1264955,1.1267366,6.392788e-05,1.4762898e-06,6.189933e-05,3.664476e-06,0,0,1
39232000,39074000,39080000,47.3977508,8.5456074,0,1.0,1.0,0.039084245,0.009711432,0.040539272,0.009311097,1.1264851,1.1267157,5.4242286e-05,3.3482063e-06,5.84962e-05,3.5239118e-06,0,0,1
39632000,39474000,39480000,47.3977508,8.5456074,0,1.0,1.0,0.037267596,0.009616622,0.039085194,0.009446885,1.1264865,1.1267006,4.9317012e-05,3.2831938e-06,5.441656e-05,3.4169261e-06,0,0,1
40032000,39874000,39880000,47.3977508,8.5456075,0,1.0,1.0,0.03894833,-0.0015767162,0.039024368,0.0045475066,1.1264812,1.1266819,5.386588e-05,8.8260364e-08,5.417181e-05,1.8590654e-06,0,0,1
40432000,40274000,40280000,47.3977508,8.5456074,0,1.0,1.0,0.041679036,0.002755274,0.04020422,0.0037509587,1.1264862,1.1266669,6.168356e-05,2.695219e-07,5.7510366e-05,1.1526015e-06,0,0,1
40832000,40674000,40680000,47.3977508,8.5456074,0,1.0,1.0,0.034889705,-0.0015759288,0.037842214,0.0013834529,1.1264826,1.1266495,4.3224514e-05,8.817477e-08,5.11611e-05,6.011453e-07,0,0,1
41224000,41070000,41072000,47.3977508,8.5456074,0,1.0,1.0,0.034944825,-0.0046323333,0.03656167,-0.0012753096,1.1260048,1.1261584,4.3379594e-05,7.621845e-07,4.772195e-05,-1.3977797e-09,0,0,1
41632000,41474000,41480000,47.3977508,8.5456074,0,1.0,1.0,0.029362386,-0.0067706443,0.03334429,-0.0037311893,1.1265408,1.1266938,3.0612286e-05,1.627474e-06,4.0075596e-05,-7.2809553e-07,0,0,1
42032000,41874000,41880000,47.3977508,8.5456075,0,1.0,1.0,0.026441101,-0.012529596,0.030276205,-0.0076415925,1.1265132,1.1266687,2.4824629e-05,5.573627e-06,3.3297387e-05,-2.881665e-06,0,0,1
42424000,42270000,42272000,47.3977508,8.5456074,0,1.0,1.0,0.02762476,-0.0071086995,0.029104361,-0.0074060727,1.1260192,1.126169,2.7108857e-05,1.7948855e-06,3.0562278e-05,-2.4013473e-06,0,0,1
42832000,42674000,42680000,47.3977508,8.5456074,0,1.0,1.0,0.027224924,-0.011339289,0.028264437,-0.009163838,1.1265483,1.1266986,2.6317433e-05,4.564822e-06,2.8665247e-05,-3.36821e-06,0,0,1
43232000,43074000,43080000,47.3977508,8.5456074,0,1.0,1.0,0.024042336,-0.013783416,0.026387949,-0.011216983,1.126522,1.1266723,2.052455e-05,6.7449087e-06,2.5047158e-05,-4.868965e-06,0,0,1
43624000,43470000,43472000,47.3977508,8.5456074,0,1.0,1.0,0.022685874,-0.019836994,0.024751764,-0.01502672,1.12601,1.1261666,1.8282215e-05,1.3976842e-05,2.2057295e-05,-8.894321e-06,0,0,1
44032000,43874000,43880000,47.3977508,8.5456074,0,1.0,1.0,0.014687753,-0.020345813,0.020254131,-0.017403837,1.1265315,1.1266986,7.659975e-06,1.4696107e-05,1.5623094e-05,-1.1487155e-05,0,0,1
44432000,44274000,44280000,47.3977508,8.5456074,0,1.0,1.0,0.01217538,-0.021006448,0.016663576,-0.019004997,1.1264807,1.126665,5.263823e-06,1.5666445e-05,1.1018973e-05,-1.3344617e-05,0,0,1
44832000,44674000,44680000,47.3977508,8.5456075,0,1.0,1.0,0.0034997074,-0.031188266,0.010812967,-0.024419785,1.126438,1.1266414,4.3492682e-07,3.4534783e-05,6.3149523e-06,-2.276247e-05,0,0,1
45232000,45074000,45080000,47.3977508,8.5456074,0,1.0,1.0,0.0007799226,-0.026579905,0.0063538356,-0.025379838,1.126392,1.1266183,2.160098e-08,2.5083611e-05,3.517907e-06,-2.3794088e-05,0,0,1
45632000,45474000,45480000,47.3977508,8.5456074,0,1.0,1.0,-0.0032791833,-0.025578868,0.0020724935,-0.025468295,1.1263463,1.1265972,3.818734e-07,2.3230255e-05,1.7846712e-06,-2.3543496e-05,0,0,1
46032000,45874000,45880000,47.3977508,8.5456074,0,1.0,1.0,-0.005642966,-0.024762185,-0.0013565999,-0.02515447,1.1263167,1.126586,1.1308744e-06,2.177076e-05,4.8887307e-07,-2.2755614e-05,0,0,1
46432000,46274000,46280000,47.3977508,8.5456074,0,1.0,1.0,-0.009837325,-0.018320903,-0.0051258113,-0.022117328,1.1262732,1.1265701,3.4369266e-06,1.1917784e-05,-1.2559269e-06,-1.79388e-05,0,0,1
46832000,46674000,46680000,47.3977508,8.5456074,0,1.0,1.0,-0.018391686,-0.017507067,-0.011021756,-0.020068323,1.1262519,1.1265626,1.2013444e-05,1.088257e-05,-6.0370458e-06,-1.48026975e-05,0,0,1
47232000,47074000,47080000,47.3977508,8.5456074,0,1.0,1.0,-0.025339888,-0.015173814,-0.017385371,-0.017892987,1.1262205,1.1265477,2.2805834e-05,8.175229e-06,-1.3489842e-05,-1.1857155e-05,0,0,1
47632000,47474000,47480000,47.3977508,8.5456074,0,1.0,1.0,-0.029442327,-0.01689348,-0.022744019,-0.01744876,1.1262031,1.1265364,3.078843e-05,1.0133349e-05,-2.1178104e-05,-1.1091019e-05,0,0,1
48032000,47874000,47880000,47.3977508,8.5456074,0,1.0,1.0,-0.029746743,-0.0078119626,-0.02585634,-0.013165738,1.1261806,1.1265181,3.1429016e-05,2.1669164e-06,-2.5734065e-05,-7.124751e-06,0,0,1
48432000,48274000,48280000,47.3977508,8.5456074,0,1.0,1.0,-0.0328869,-0.0024003705,-0.028981034,-0.00838113,1.1261744,1.1265103,3.8414943e-05,2.0458859e-07,-3.137001e-05,-4.049123e-06,0,0,1
48832000,48674000,48680000,47.3977508,8.5456074,0,1.0,1.0,-0.03305294,-0.0019656809,-0.03079077,-0.005529819,1.126159,1.1264995,3.8804355e-05,1.3720027e-07,-3.4674165e-05,-2.3104908e-06,0,0,1
49232000,49074000,49080000,47.3977508,8.5456074,0,1.0,1.0,-0.03539332,-0.0012950504,-0.032836348,-0.0036476995,1.1261446,1.1264834,4.4494715e-05,5.9553667e-08,-3.9038852e-05,-1.3100743e-06,0,0,1
49632000,49474000,49480000,47.3977508,8.5456074,0,1.0,1.0,-0.027369022,-0.00054961,-0.030406425,-0.0022707707,1.1261446,1.1264721,2.6606294e-05,1.0726272e-08,-3.351327e-05,-7.325862e-07,0,0,1
50032000,49874000,49880000,47.3977508,8.5456074,0,1.0,1.0,-0.02621973,-0.01135569,-0.02854567,-0.006308513,1.1261319,1.1264544,2.441896e-05,4.57903e-06,-2.9471355e-05,-2.4421167e-06,0,0,1
50424000,50270000,50272000,47.3977508,8.5456074,0,1.0,1.0,-0.023705082,-0.008452003,-0.026406303,-0.007255859,1.12566,1.1259649,1.9968053e-05,2.5377826e-06,-2.5271234e-05,-2.4843976e-06,0,0,1
50832000,50674000,50680000,47.3977508,8.5456075,0,1.0,1.0,-0.027381312,-0.014992443,-0.026842037,-0.010713359,1.1261955,1.1264985,2.6628992e-05,7.98131e-06,-2.587802e-05,-4.940982e-06,0,0,1
51232000,51074000,51080000,47.3977508,8.5456074,0,1.0,1.0,-0.030955823,-0.0029157775,-0.028670387,-0.007247767,1.126191,1.1264819,3.403554e-05,3.018871e-07,-2.9503584e-05,-2.879162e-06,0,0,1
51632000,51478000,51480000,47.3977508,8.5456074,0,1.0,1.0,-0.03773134,0.0016106021,-0.03271975,-0.0032889387,1.1261737,1.126463,5.056605e-05,9.211271e-08,-3.8916456e-05,-1.5512915e-06,0,0,1
52032000,51874000,51880000,47.3977508,8.5456074,0,1.0,1.0,-0.039935067,0.00011047137,-0.03590866,-0.0017865209,1.1261673,1.1264489,5.6645564e-05,4.3335915e-10,-4.6752088e-05,-8.6548454e-07,0,0,1
52432000,52274000,52280000,47.3977508,8.5456074,0,1.0,1.0,-0.041483086,0.0035290772,-0.038386185,0.00057596737,1.1261519,1.1264315,6.1123064e-05,4.4225987e-07,-5.313919e-05,-2.8426473e-07,0,0,1
52832000,52674000,52680000,47.3977508,8.5456074,0,1.0,1.0,-0.04372964,0.004334259,-0.040761054,0.0022463193,1.1261379,1.1264158,6.792353e-05,6.671e-07,-5.9710008e-05,1.3856408e-07,0,0,1
53232000,53074000,53080000,47.3977508,8.5456075,0,1.0,1.0,-0.04477949,-0.00312874,-0.042547025,-0.0001425962,1.1261362,1.1264062,7.122417e-05,3.4761933e-07,-6.4827414e-05,-7.7517456e-08,0,0,1
53632000,53474000,53480000,47.3977508,8.5456074,0,1.0,1.0,-0.044602633,0.007132318,-0.04346063,0.0030906992,1.1261269,1.1263937,7.066326e-05,1.8064718e-06,-6.7421126e-05,7.598112e-07,0,0,1
54032000,53874000,53880000,47.3977508,8.5456074,0,1.0,1.0,-0.04419179,0.0050051063,-0.04378559,0.003941547,1.1261283,1.1263863,6.936738e-05,8.8960917e-07,-6.828613e-05,8.174992e-07,0,0,1
54432000,54274000,54280000,47.3977508,8.5456074,0,1.0,1.0,-0.047565773,0.0072906185,-0.04546567,0.005430023,1.1261201,1.126377,8.036453e-05,1.8875784e-06,-7.365431e-05,1.29309e-06,0,0,1
54832000,54674000,54680000,47.3977508,8.5456074,0,1.0,1.0,-0.045153845,0.005599118,-0.045327082,0.0055051763,1.1261235,1.126377,7.2420815e-05,1.1133084e-06,-7.3106086e-05,1.213187e-06,0,0,1
55232000,55074000,55080000,47.3977508,8.5456074,0,1.0,1.0,-0.041022852,0.009462738,-0.04341409,0.007264093,1.126118,1.1263733,5.9776132e-05,3.1798843e-06,-6.718166e-05,2.0872749e-06,0,0,1
55632000,55474000,55480000,47.3977508,8.5456074,0,1.0,1.0,-0.04032372,0.021512274,-0.04204059,0.013596619,1.1261213,1.1263747,5.7755853e-05,1.6434244e-05,-6.299241e-05,8.463706e-06,0,0,1
56032000,55874000,55880000,47.3977508,8.5456074,0,1.0,1.0,-0.040918987,0.02765164,-0.0415421,0.019843295,1.1261173,1.1263754,5.9473856e-05,2.7153048e-05,-6.142861e-05,1.677008e-05,0,0,1
56432000,56274000,56280000,47.3977508,8.5456074,0,1.0,1.0,-0.040049765,0.027772607,-0.04087884,0.023367435,1.12611,1.1263748,5.697432e-05,2.7391156e-05,-5.9448925e-05,2.149056e-05,0,0,1
56832000,56678000,56680000,47.3977508,8.5456074,0,1.0,1.0,-0.039636753,0.022346133,-0.04032375,0.022911012,1.126117,1.1263835,5.580494e-05,1.7732847e-05,-5.782042e-05,1.9811228e-05,0,0,1
57232000,57074000,57080000,47.3977508,8.5456074,0,1.0,1.0,-0.04533998,0.024889762,-0.042540744,0.023785548,1.1261113,1.1263845,7.301991e-05,2.19996e-05,-6.453805e-05,2.077841e-05,0,0,1
57632000,57474000,57480000,47.3977508,8.5456073,0,1.0,1.0,-0.042924147,0.028417625,-0.042711146,0.02584425,1.1261195,1.1263903,6.544536e-05,2.8677852e-05,-6.49413e-05,2.4289275e-05,0,0,1
58024000,57870000,57872000,47.3977508,8.5456073,0,1.0,1.0,-0.04203049,0.03161449,-0.04241032,0.02839449,1.1256447,1.1259109,6.277512e-05,3.5508172e-05,-6.398393e-05,2.9247627e-05,0,0,1
58432000,58274000,58280000,47.3977508,8.5456074,0,1.0,1.0,-0.03196925,0.02696266,-0.03774418,0.027754601,1.1261992,1.1264665,3.630025e-05,2.5814707e-05,-5.161202e-05,2.7713446e-05,0,0,1
58832000,58674000,58680000,47.3977508,8.5456074,0,1.0,1.0,-0.02745475,0.028294338,-0.0331711,0.027994484,1.1261891,1.1264551,2.6772175e-05,2.8427927e-05,-4.057209e-05,2.8030992e-05,0,0,1
59232000,59074000,59080000,47.3977508,8.5456074,0,1.0,1.0,-0.026725503,0.035978675,-0.03030639,0.031543013,1.1261789,1.1264428,2.536906e-05,4.5966473e-05,-3.3815188e-05,3.600232e-05,0,0,1
59632000,59474000,59480000,47.3977508,8.5456074,0,1.0,1.0,-0.026422936,0.043836057,-0.02858041,0.037006587,1.126182,1.1264349,2.4797824e-05,6.823652e-05,-2.980747e-05,5.0328632e-05,0,0,1
60032000,59874000,59880000,47.3977508,8.5456074,0,1.0,1.0,-0.030955922,0.05107931,-0.029636193,0.043261133,1.1261635,1.1264185,3.403659e-05,9.265104e-05,-3.168708e-05,6.9138594e-05,0,0,1
60432000,60274000,60280000,47.3977508,8.5456074,0,1.0,1.0,-0.031323247,0.05917072,-0.030385995,0.050332062,1.1261598,1.1264069,3.4849254e-05,0.0001243307,-3.309249e-05,9.366842e-05,0,0,1
60832000,60674000,60680000,47.3977508,8.5456074,0,1.0,1.0,-0.029001553,0.060388144,-0.029770687,0.05480143,1.1261483,1.126391,2.9874927e-05,0.0001295013,-3.166246e-05,0.00010959415,0,0,1
61224000,61070000,61072000,47.3977508,8.5456074,0,1.0,1.0,-0.02262447,0.06036127,-0.026612315,0.05725868,1.1256765,1.1259085,1.8188766e-05,0.00012944153,-2.570757e-05,0.00011836598,0,0,1
61632000,61474000,61480000,47.3977508,8.5456074,0,1.0,1.0,-0.022779638,0.055484682,-0.02489948,0.056465875,1.1262133,1.1264478,1.8430324e-05,0.00010931886,-2.245535e-05,0.0001143228,0,0,1
62032000,61874000,61880000,47.3977508,8.5456075,0,1.0,1.0,-0.018126268,0.050922085,-0.021889163,0.05400197,1.1261973,1.1264267,1.1669769e-05,9.208087e-05,-1.7661758e-05,0.000104437495,0,0,1
62432000,62274000,62280000,47.3977508,8.5456074,0,1.0,1.0,-0.017357498,0.06661626,-0.01987509,0.05960832,1.126185,1.1264166,1.0701003e-05,0.00015758739,-1.4568089e-05,0.00012805968,0,0,1
62832000,62674000,62680000,47.3977508,8.5456074,0,1.0,1.0,-0.009958573,0.065707296,-0.015467749,0.062318977,1.1261607,1.1264046,3.5225228e-06,0.00015331787,-9.658948e-06,0.00013928555,0,0,1
63232000,63074000,63080000,47.3977508,8.5456074,0,1.0,1.0,-0.011927471,0.065754175,-0.013894292,0.06384573,1.1261514,1.1264029,5.0531235e-06,0.00015353695,-7.611915e-06,0.0001456195,0,0,1
63632000,63474000,63480000,47.3977508,8.5456074,0,1.0,1.0,-0.006922074,0.062306482,-0.010795528,0.06316162,1.1261309,1.1263983,1.7019374e-06,0.00013785879,-4.985258e-06,0.00014217029,0,0,1
64032000,63874000,63880000,47.3977508,8.5456074,0,1.0,1.0,-0.0052917018,0.058414254,-0.008349383,0.061051678,1.1261088,1.1263952,9.946501e-07,0.000121173274,-3.2116543e-06,0.00013283828,0,0,1
64432000,64278000,64280000,47.3977508,8.5456074,0,1.0,1.0,-0.00050708407,0.05973755,-0.004844639,0.06046439,1.1260965,1.126398,9.1336485e-09,0.00012672518,-1.7804393e-06,0.00013010632,0,0,1
64832000,64674000,64680000,47.3977508,8.5456074,0,1.0,1.0,-0.0003167781,0.06032459,-0.0028434864,0.060402602,1.1260746,1.1263928,3.5645376e-09,0.00012922868,-9.951241e-07,0.00012971844,0,0,1
65232000,65074000,65080000,47.3977508,8.5456074,0,1.0,1.0,0.0008955731,0.049295522,-0.0011816821,0.055466123,1.1260657,1.1263949,2.8490387e-08,8.629473e-05,-5.4018426e-07,0.00011041901,0,0,1
65632000,65474000,65480000,47.397750699999996,8.5456075,0,1.0,1.0,0.008076067,0.035023734,0.002932873,0.046380617,1.1260484,1.1263983,2.316876e-06,4.3560503e-05,7.296204e-07,8.0704114e-05,0,0,1
66032000,65874000,65880000,47.3977508,8.5456074,0,1.0,1.0,-0.006596669,0.032304883,-0.0013024793,0.040124733,1.1260314,1.1263944,1.5458198e-06,3.706004e-05,-2.8168643e-07,6.1306746e-05,0,0,1
66432000,66274000,66280000,47.3977508,8.5456074,0,1.0,1.0,-0.0012412485,0.037880607,-0.0012752656,0.039127342,1.1260318,1.126396,5.473017e-08,5.0956874e-05,-1.8081697e-07,5.6706802e-05,0,0,1
66832000,66674000,66680000,47.3977508,8.5456074,0,1.0,1.0,-0.0027757727,0.031004539,-0.0019421577,0.03551721,1.1260239,1.1263924,2.7370342e-07,3.4136647e-05,-2.2209984e-07,4.667562e-05,0,0,1
67232000,67074000,67080000,47.3977508,8.5456074,0,1.0,1.0,-0.001556572,0.02898204,-0.0017707862,0.03261269,1.1260295,1.1263897,8.6069385e-08,2.9828347e-05,-1.6164185e-07,3.9187944e-05,0,0,1
67632000,67474000,67480000,47.3977508,8.5456074,0,1.0,1.0,-0.0039163576,0.027521407,-0.0027243737,0.030349897,1.1260254,1.1263846,5.448494e-07,2.6897664e-05,-3.3195633e-07,3.37256e-05,0,0,1
68032000,67874000,67880000,47.3977508,8.5456074,0,1.0,1.0,-0.004405114,0.028922092,-0.0034713694,0.029715316,1.1260364,1.1263803,6.8932155e-07,2.9705327e-05,-4.9078534e-07,3.1938813e-05,0,0,1
68432000,68274000,68280000,47.3977508,8.5456075,0,1.0,1.0,-0.005981821,0.017356267,-0.004587126,0.024222406,1.1260325,1.1263641,1.2710889e-06,1.0697784e-05,-8.375869e-07,2.2498356e-05,0,0,1
68832000,68674000,68680000,47.3977508,8.5456074,0,1.0,1.0,-0.0067281537,0.026385866,-0.005538694,0.025183944,1.1260428,1.126358,1.6080401e-06,2.4724426e-05,-1.1800106e-06,2.348772e-05,0,0,1
69232000,69074000,69080000,47.3977508,8.5456074,0,1.0,1.0,-0.007482931,0.022304935,-0.0064027994,0.023904385,1.1260371,1.1263461,1.989073e-06,1.7668108e-05,-1.539594e-06,2.0901225e-05,0,0,1
69632000,69474000,69480000,47.3977508,8.5456074,0,1.0,1.0,-0.0074471845,0.018692648,-0.0068669706,0.021588057,1.126031,1.1263372,1.9701254e-06,1.2408898e-05,-1.7309413e-06,1.7126857e-05,0,0,1
70032000,69874000,69880000,47.3977508,8.5456073,0,1.0,1.0,-0.0052816477,0.02050328,-0.0061623827,0.021105934,1.1260403,1.1263361,9.909344e-07,1.4929275e-05,-1.4020493e-06,1.6150154e-05,0,0,1
70432000,70274000,70280000,47.3977508,8.5456074,0,1.0,1.0,-0.0030089626,0.006756361,-0.0047608623,0.014728346,1.1260351,1.126331,3.2161896e-07,1.6211369e-06,-9.21858e-07,9.6928125e-06,0,0,1
70824000,70670000,70672000,47.3977508,8.5456074,0,1.0,1.0,-0.0010453354,-0.0006577833,-0.0031187322,0.007928226,1.1255696,1.125857,3.8832823e-08,1.5372427e-08,-5.315924e-07,5.4021416e-06,0,0,1
71232000,71074000,71080000,47.3977508,8.5456074,0,1.0,1.0,0.0012222358,-0.011116145,-0.0011787422,-0.0005827537,1.1261117,1.1264002,5.3062603e-08,4.3880914e-06,-2.7030853e-07,1.0268609e-06,0,0,1
71632000,71474000,71480000,47.3977508,8.5456074,0,1.0,1.0,0.0022785924,-0.015846564,0.00035785115,-0.00736667,1.1261114,1.1263919,1.8442167e-07,8.91745e-06,-6.820622e-08,-3.3928336e-06,0,0,1
72032000,71874000,71880000,47.3977508,8.5456074,0,1.0,1.0,0.0043503307,-0.01913689,0.0021322866,-0.012597879,1.1260966,1.1263804,6.7224704e-07,1.30052185e-05,2.6088415e-07,-7.665005e-06,0,0,1
72232000,72074000,72080000,47.397750699999996,8.5456074,0,1.0,1.0,0.012640997,-0.016213464,0.0051347753,-0.013630903,1.1150172,1.1152498,5.7324605e-06,9.4284305e-06,1.8241917e-06,-8.16884e-06,0,0,1
72632000,72474000,72480000,47.397750699999996,8.5456074,0,1.0,1.0,0.01296607,-0.023705197,0.008615351,-0.018108368,1.1165191,1.1167543,6.022968e-06,2.0127485e-05,3.6903148e-06,-1.3483794e-05,0,0,1
73032000,72874000,72880000,47.3977508,8.5456074,0,1.0,1.0,-0.00082099653,-0.029045654,0.0044214185,-0.022969384,1.1178839,1.1181269,2.4118256e-08,3.0180834e-05,2.0394555e-06,-2.0904701e-05,0,0,1
73432000,73274000,73280000,47.3977508,8.5456074,0,1.0,1.0,-0.0019189316,-0.030944133,0.0016034851,-0.026513718,1.1191261,1.1193694,1.3161336e-07,3.42171e-05,1.0745359e-06,-2.6821323e-05,0,0,1
73832000,73674000,73680000,47.3977508,8.5456074,0,1.0,1.0,-0.0008434682,-0.03391753,0.00051595026,-0.029804302,1.120217,1.120471,2.54036e-08,4.1068404e-05,5.856739e-07,-3.315336e-05,0,0,1
74232000,74074000,74080000,47.397750699999996,8.5456074,0,1.0,1.0,0.009088573,-0.038540345,0.0043260055,-0.033686988,1.1211839,1.1214445,2.946962e-06,5.298018e-05,1.6351354e-06,-4.196528e-05,0,0,1
74632000,74474000,74480000,47.3977508,8.5456074,0,1.0,1.0,-0.0032206413,-0.041993145,0.0009719401,-0.037378613,1.1220088,1.1222837,3.697843e-07,6.285128e-05,7.440599e-07,-5.1247946e-05,0,0,1
75032000,74874000,74880000,47.3977508,8.5456074,0,1.0,1.0,-0.0046585766,-0.04253311,-0.0015305118,-0.039669503,1.1227145,1.1230029,7.7320936e-07,6.443672e-05,6.971794e-08,-5.7109624e-05,0,0,1
75432000,75274000,75280000,47.3977508,8.5456074,0,1.0,1.0,-0.0011729739,-0.03992268,-0.001371606,-0.039782025,1.1233293,1.1236202,4.89925e-08,5.673876e-05,1.6957738e-08,-5.6944795e-05,0,0,1
75832000,75674000,75680000,47.3977508,8.5456074,0,1.0,1.0,-0.00033170267,-0.04169734,-0.0009094267,-0.040633276,1.1238339,1.1241338,3.916118e-09,6.1866944e-05,7.680469e-09,-5.9132417e-05,0,0,1
76232000,76074000,76080000,47.3977508,8.5456074,0,1.0,1.0,-0.0010977151,-0.038196366,-0.0009931105,-0.039550204,1.1242692,1.1245666,4.2871527e-08,5.1894214e-05,-1.4787086e-08,-5.5915436e-05,0,0,1
76632000,76474000,76480000,47.3977508,8.5456074,0,1.0,1.0,6.5223656e-05,-0.036284085,-0.0005227397,-0.038098596,1.1246173,1.1249179,1.5130927e-10,4.6813548e-05,-8.147799e-09,-5.1870153e-05,0,0,1
77032000,76874000,76880000,47.397750699999996,8.5456075,0,1.0,1.0,0.019961152,-0.04164594,0.008581214,-0.039675195,1.1249176,1.1252118,1.4168063e-05,6.165539e-05,6.292391e-06,-5.6219145e-05,0,0,1
77432000,77274000,77280000,47.3977508,8.5456074,0,1.0,1.0,0.009201164,-0.03250852,0.008856747,-0.036490005,1.1251493,1.125446,3.009785e-06,3.7560356e-05,4.833455e-06,-4.7926347e-05,0,0,1
77832000,77674000,77680000,47.3977508,8.5456074,0,1.0,1.0,0.010020368,-0.032307606,0.009373912,-0.03463116,1.1253345,1.1256329,3.568993e-06,3.7091362e-05,4.271472e-06,-4.31108e-05,0,0,1
78232000,78074000,78080000,47.3977508,8.5456074,0,1.0,1.0,0.00063576526,-0.032311037,0.005490291,-0.033599995,1.1254925,1.1257868,1.4365177e-08,3.709417e-05,2.3794241e-06,-4.0436742e-05,0,0,1
78632000,78474000,78480000,47.3977508,8.5456074,0,1.0,1.0,0.0021527186,-0.032414366,0.0040069255,-0.03307305,1.1256065,1.1259042,1.6468267e-07,3.7327904e-05,1.3950945e-06,-3.9055038e-05,0,0,1
79032000,78874000,78880000,47.3977508,8.5456074,0,1.0,1.0,0.005772426,-0.03812062,0.0047915922,-0.035316415,1.1257098,1.1260003,1.1839961e-06,5.162278e-05,1.301273e-06,-4.4640703e-05,0,0,1
79432000,79274000,79280000,47.3977508,8.5456074,0,1.0,1.0,0.007945629,-0.04229288,0.0061933864,-0.038417067,1.1257747,1.1260712,2.2431848e-06,6.353729e-05,1.7199004e-06,-5.3039188e-05,0,0,1
79832000,79674000,79680000,47.3977508,8.5456074,0,1.0,1.0,0.008695841,-0.036780473,0.0073055886,-0.037689693,1.1258289,1.1261249,2.686648e-06,4.8051625e-05,2.1495662e-06,-5.082249e-05,0,0,1
80232000,80074000,80080000,47.3977508,8.5456074,0,1.0,1.0,0.007885337,-0.03590974,0.0075632543,-0.0368986,1.12588,1.1261691,2.2090644e-06,4.5801626e-05,2.1760097e-06,-4.8590995e-05,0,0,1
80632000,80474000,80480000,47.397750699999996,8.5456074,0,1.0,1.0,0.022861952,-0.033253465,0.014362676,-0.03527854,1.1259128,1.1261984,1.8568715e-05,3.9275244e-05,9.461657e-06,-4.4450662e-05,0,0,1
81032000,80874000,80880000,47.3977508,8.5456075,0,1.0,1.0,0.010296646,-0.0352394,0.012555551,-0.035261143,1.1259503,1.1262252,3.7664508e-06,4.4105393e-05,6.930454e-06,-4.429721e-05,0,0,1
81432000,81274000,81280000,47.3977508,8.5456074,0,1.0,1.0,0.017059216,-0.024075568,0.01455718,-0.030289777,1.1259716,1.1262399,1.0338338e-05,2.0586482e-05,8.445069e-06,-3.375911e-05,0,0,1
81832000,81674000,81680000,47.3977508,8.5456074,0,1.0,1.0,0.016939076,-0.020030439,0.0156158,-0.02573007,1.1259918,1.1262496,1.019305e-05,1.4249718e-05,9.22195e-06,-2.5088268e-05,0,0,1
82232000,82074000,82080000,47.3977508,8.5456074,0,1.0,1.0,0.020596517,-0.01283258,0.017829452,-0.019997852,1.1260216,1.1262616,1.506957e-05,5.8485566e-06,1.1820892e-05,-1.6537284e-05,0,0,1
82632000,82474000,82480000,47.3977508,8.5456074,0,1.0,1.0,0.022630116,-0.010127568,0.01996308,-0.015611058,1.1260365,1.1262672,1.8192028e-05,3.6427457e-06,1.4652508e-05,-1.0806378e-05,0,0,1
83032000,82874000,82880000,47.3977508,8.5456074,0,1.0,1.0,0.027267287,-0.012357188,0.023209395,-0.014164894,1.1260538,1.1262692,2.6410991e-05,5.423218e-06,1.9878502e-05,-8.413862e-06,0,0,1
83432000,83274000,83280000,47.3977508,8.5456074,0,1.0,1.0,0.026062937,-0.0038739569,0.024477636,-0.009591144,1.126085,1.1262742,2.4128789e-05,5.329978e-07,2.1767519e-05,-4.911255e-06,0,0,1
83832000,83674000,83680000,47.3977508,8.5456074,0,1.0,1.0,0.021676695,2.3182389e-05,0.023232773,-0.0053181094,1.1260974,1.1262728,1.6690532e-05,1.9086784e-11,1.951108e-05,-2.7284664e-06,0,0,1
84232000,84074000,84080000,47.3977508,8.5456074,0,1.0,1.0,0.029017763,0.0049564987,0.025803879,-0.0007516169,1.1261256,1.1262778,2.990894e-05,8.724981e-07,2.4132352e-05,-1.1280376e-06,0,0,1
84632000,84474000,84480000,47.3977508,8.5456074,0,1.0,1.0,0.034832228,0.011208654,0.029816478,0.00456406,1.1261473,1.1262771,4.309504e-05,4.461919e-06,3.2560212e-05,1.3563879e-06,0,0,1
85032000,84874000,84880000,47.3977508,8.5456074,0,1.0,1.0,0.039077584,0.015946735,0.033932526,0.0096230265,1.1261592,1.1262728,5.423949e-05,9.031502e-06,4.2195446e-05,4.76755e-06,0,0,1
85432000,85274000,85280000,47.3977508,8.5456074,0,1.0,1.0,0.040509347,0.020155124,0.036855556,0.01430396,1.1261785,1.1262755,5.8285863e-05,1.4427341e-05,4.9346745e-05,9.06079e-06,0,0,1
85832000,85674000,85680000,47.3977508,8.5456074,0,1.0,1.0,0.03726277,0.026510192,0.03703654,0.019728953,1.1261779,1.1262726,4.931775e-05,2.4959865e-05,4.933386e-05,1.6127047e-05,0,0,1
86232000,86074000,86080000,47.3977508,8.5456074,0,1.0,1.0,0.036302686,0.028331086,0.036710385,0.023552123,1.1261795,1.1262728,4.680906e-05,2.8506429e-05,4.8211725e-05,2.1628995e-05,0,0,1
86632000,86474000,86480000,47.3977508,8.5456074,0,1.0,1.0,0.038185466,0.030762821,0.037365977,0.026756879,1.1261717,1.126268,5.1790674e-05,3.3610162e-05,4.980237e-05,2.695396e-05,0,0,1
87032000,86874000,86880000,47.3977508,8.5456075,0,1.0,1.0,0.0342732,0.021057155,0.035991408,0.024223669,1.1261528,1.1262643,4.1722662e-05,1.574777e-05,4.621139e-05,2.197343e-05,0,0,1
87432000,87274000,87280000,47.3977509,8.5456074,0,1.0,1.0,0.02660067,0.029324401,0.031817745,0.02649066,1.1261401,1.126268,2.5133486e-05,3.054053e-05,3.684343e-05,2.578103e-05,0,0,1
87832000,87674000,87680000,47.3977509,8.5456074,0,1.0,1.0,0.025650635,0.033661533,0.029076807,0.029677715,1.1261177,1.1262664,2.337074e-05,4.024266e-05,3.085557e-05,3.220842e-05,0,0,1
88232000,88074000,88080000,47.3977508,8.5456073,0,1.0,1.0,0.029130874,0.04398046,0.029100837,0.03603449,1.126106,1.1262696,3.0143088e-05,6.869691e-05,3.053891e-05,4.842553e-05,0,0,1
88632000,88474000,88480000,47.3977508,8.5456074,0,1.0,1.0,0.02719711,0.040848773,0.028254736,0.03817417,1.1260767,1.1262658,2.6274685e-05,5.926211e-05,2.8643699e-05,5.3241787e-05,0,0,1
89032000,88874000,88880000,47.3977508,8.5456073,0,1.0,1.0,0.024918675,0.045512166,0.026772043,0.041435502,1.1260593,1.1262691,2.2057113e-05,7.356527e-05,2.5716326e-05,6.227445e-05,0,0,1
89432000,89274000,89280000,47.3977508,8.5456074,0,1.0,1.0,0.024015846,0.030921886,0.025547067,0.036762785,1.1260312,1.1262666,2.0488273e-05,3.3958673e-05,2.3392748e-05,4.9689657e-05,0,0,1
89832000,89674000,89680000,47.3977508,8.5456074,0,1.0,1.0,0.025159165,0.029174645,0.025374666,0.033390276,1.1260073,1.1262649,2.2485949e-05,3.0229472e-05,2.2989725e-05,4.1040686e-05,0,0,1
90232000,90074000,90080000,47.3977508,8.5456074,0,1.0,1.0,0.023567274,0.026833735,0.024571382,0.030476257,1.1259981,1.1262684,1.9730633e-05,2.5572923e-05,2.154124e-05,3.4166125e-05,0,0,1
90632000,90474000,90480000,47.3977508,8.5456074,0,1.0,1.0,0.024854975,0.026359525,0.024697423,0.028646598,1.125984,1.1262683,2.1945953e-05,2.4677054e-05,2.1721113e-05,2.994876e-05,0,0,1
91032000,90874000,90880000,47.3977508,8.5456075,0,1.0,1.0,0.02961624,0.02138983,0.026883565,0.025421368,1.1259705,1.1262671,3.115967e-05,1.6249249e-05,2.5916028e-05,2.3860088e-05,0,0,1
91432000,91274000,91280000,47.3977508,8.5456074,0,1.0,1.0,0.03223331,0.02854581,0.02926123,0.026810009,1.1259698,1.1262699,3.6909918e-05,2.8940247e-05,3.0802203e-05,2.6117936e-05,0,0,1
91832000,91674000,91680000,47.397750699999996,8.5456074,0,1.0,1.0,0.04317452,0.026551435,0.035444915,0.026695088,1.1259564,1.1262681,6.622065e-05,2.5037685e-05,4.6543737e-05,2.5637824e-05,0,0,1
92232000,92074000,92080000,47.397750699999996,8.5456074,0,1.0,1.0,0.0473539,0.024277624,0.0407378,0.02562066,1.1259589,1.1262757,7.9661586e-05,2.0932817e-05,6.1262785e-05,2.354671e-05,0,0,1
92632000,92474000,92480000,47.3977508,8.5456074,0,1.0,1.0,0.038235143,0.024128309,0.039625507,0.024957392,1.125952,1.1262753,5.1935647e-05,2.0676127e-05,5.711739e-05,2.2270895e-05,0,0,1
93032000,92874000,92880000,47.3977508,8.5456074,0,1.0,1.0,0.037819173,0.027016457,0.038822692,0.025872532,1.1259581,1.1262792,5.0811475e-05,2.5922132e-05,5.431476e-05,2.3893666e-05,0,0,1
93432000,93274000,93280000,47.3977508,8.5456073,0,1.0,1.0,0.03637441,0.027501665,0.037734564,0.02659659,1.1259495,1.1262783,4.70038e-05,2.6861622e-05,5.1065446e-05,2.5212757e-05,0,0,1
93832000,93674000,93680000,47.3977508,8.5456073,0,1.0,1.0,0.037022706,0.023057878,0.037418183,0.02502383,1.1259419,1.1262784,4.869455e-05,1.8882214e-05,5.0011713e-05,2.2399183e-05,0,0,1
94232000,94074000,94080000,47.3977508,8.5456075,0,1.0,1.0,0.035691552,0.0053006858,0.03665079,0.016257986,1.1259489,1.1262856,4.5255583e-05,9.978737e-07,4.7897876e-05,1.2887489e-05,0,0,1
94624000,94470000,94472000,47.3977508,8.5456075,0,1.0,1.0,0.03319227,0.0032559924,0.03512225,0.01051157,1.1254689,1.1258101,3.915619e-05,3.766705e-07,4.4034365e-05,7.3581546e-06,0,0,1
95032000,94874000,94880000,47.3977508,8.5456074,0,1.0,1.0,0.03502959,0.010159204,0.03508084,0.010354096,1.1260206,1.1263626,4.358969e-05,3.6652293e-06,4.383564e-05,5.7077764e-06,0,0,1
95432000,95274000,95280000,47.3977508,8.5456074,0,1.0,1.0,0.03629025,0.004883291,0.035618354,0.007922627,1.1260049,1.126352,4.6784247e-05,8.4685905e-07,4.514613e-05,3.5473686e-06,0,0,1
95832000,95674000,95680000,47.3977508,8.5456074,0,1.0,1.0,0.038885403,-0.004218319,0.037070375,0.0025266502,1.1260028,1.126348,5.371477e-05,6.3192596e-07,4.8954415e-05,1.6899041e-06,0,0,1
96232000,96074000,96080000,47.3977508,8.5456074,0,1.0,1.0,0.037549414,-0.0064503606,0.037283283,-0.0014631329,1.1259887,1.1263396,5.0087838e-05,1.477606e-06,4.9458158e-05,2.8212173e-07,0,0,1
96632000,96474000,96480000,47.3977508,8.5456073,0,1.0,1.0,0.037876755,-0.001115813,0.03754705,-0.0013087685,1.1259758,1.1263341,5.0965515e-05,4.4215614e-08,5.0128096e-05,1.3708289e-07,0,0,1
97032000,96874000,96880000,47.397750699999996,8.5456074,0,1.0,1.0,0.049762864,-0.010256925,0.0429763,-0.0052857273,1.1259786,1.1263359,8.797121e-05,3.7361683e-06,6.694726e-05,-1.584362e-06,0,0,1
97432000,97274000,97280000,47.3977508,8.5456074,0,1.0,1.0,0.040313657,-0.011390214,0.041792903,-0.0079988325,1.1259665,1.1263298,5.7734964e-05,4.607424e-06,6.28529e-05,-2.9279454e-06,0,0,1
97832000,97674000,97680000,47.3977508,8.5456074,0,1.0,1.0,0.04227494,-0.009886244,0.04200714,-0.008837682,1.1259694,1.1263266,6.348914e-05,3.4710297e-06,6.3135674e-05,-3.1693162e-06,0,0,1
98232000,98074000,98080000,47.3977508,8.5456074,0,1.0,1.0,0.04339501,-0.009916937,0.04262397,-0.009317351,1.1259589,1.1263158,6.6898596e-05,3.4926488e-06,6.480808e-05,-3.3130195e-06,0,0,1
98632000,98474000,98480000,47.3977508,8.5456074,0,1.0,1.0,0.049411513,-0.013704379,0.045640655,-0.011267141,1.1259484,1.126303,8.673568e-05,6.669964e-06,7.455368e-05,-4.804995e-06,0,0,1
99032000,98874000,98880000,47.3977508,8.5456074,0,1.0,1.0,0.05396541,-0.009854459,0.049340546,-0.010639283,1.1259542,1.126295,0.00010345946,3.4488432e-06,8.7400695e-05,-4.202261e-06,0,0,1
99432000,99274000,99280000,47.3977508,8.5456074,0,1.0,1.0,0.050357424,-0.008528798,0.04979249,-0.009701289,1.1259446,1.1262807,9.008863e-05,2.5833845e-06,8.8595334e-05,-3.4827603e-06,0,0,1
99832000,99674000,99680000,47.3977508,8.5456074,0,1.0,1.0,0.045247495,-0.009997889,0.047772493,-0.009833111,1.1259357,1.1262687,7.273367e-05,3.550051e-06,8.15457e-05,-3.5126673e-06,0,0,1
100232000,100074000,100080000,47.3977508,8.5456074,0,1.0,1.0,0.042257126,-0.011620965,0.04532122,-0.010627713,1.1259419,1.1262684,6.343719e-05,4.796257e-06,7.3497475e-05,-4.083152e-06,0,0,1
100624000,100470000,100472000,47.3977508,8.5456074,0,1.0,1.0,0.03978145,-0.019159056,0.04287284,-0.014398262,1.1254628,1.1257898,5.6245797e-05,1.3042202e-05,6.587285e-05,-8.042733e-06,0,0,1
101032000,100874000,100880000,47.3977508,8.5456074,0,1.0,1.0,0.0384271,-0.029271219,0.040886026,-0.021045025,1.1260134,1.1263392,5.2455573e-05,3.0427931e-05,5.9876635e-05,-1.8046736e-05,0,0,1
101432000,101274000,101280000,47.397750699999996,8.5456075,0,1.0,1.0,0.058758643,-0.031159371,0.048829414,-0.02554029,1.1259983,1.1263272,0.00012264951,3.448044e-05,8.777569e-05,-2.5350604e-05,0,0,1
101832000,101674000,101680000,47.3977508,8.5456074,0,1.0,1.0,0.04365081,-0.015340963,0.04652781,-0.021007255,1.125997,1.1263229,6.768733e-05,8.358e-06,7.884753e-05,-1.7798335e-05,0,0,1
102232000,102074000,102080000,47.397750699999996,8.5456075,0,1.0,1.0,0.051072314,-0.023436805,0.04854759,-0.022087054,1.1259824,1.1263143,9.2661525e-05,1.9507303e-05,8.4987085e-05,-1.8557876e-05,0,0,1
102632000,102474000,102480000,47.3977508,8.5456074,0,1.0,1.0,0.036943067,-0.015524226,0.043390024,-0.019170241,1.1259704,1.1263072,4.848405e-05,8.559001e-06,6.876351e-05,-1.4113931e-05,0,0,1
103032000,102874000,102880000,47.3977508,8.5456074,0,1.0,1.0,0.03444518,-0.015961122,0.03941454,-0.017743966,1.1259719,1.1263068,4.2149204e-05,9.047532e-06,5.693493e-05,-1.1862197e-05,0,0,1
103432000,103274000,103280000,47.3977508,8.5456075,0,1.0,1.0,0.029426824,-0.020932706,0.034975555,-0.019161183,1.1259601,1.1262999,3.0762654e-05,1.5561687e-05,4.5302804e-05,-1.3506416e-05,0,0,1
103832000,103678000,103680000,47.397750699999996,8.5456074,0,1.0,1.0,0.039830666,-0.009511271,0.037145317,-0.014848612,1.1259643,1.1263003,5.635994e-05,3.2127937e-06,5.0244267e-05,-8.906169e-06,0,0,1
104232000,104074000,104080000,47.397750699999996,8.5456074,0,1.0,1.0,0.03845426,-0.0102636255,0.037723824,-0.012822212,1.1259551,1.1262944,5.2532472e-05,3.741189e-06,5.125557e-05,-6.6234325e-06,0,0,1
104632000,104474000,104480000,47.3977508,8.5456074,0,1.0,1.0,0.027544852,-0.008950076,0.033199836,-0.011101263,1.1259452,1.1262906,2.6954025e-05,2.8448737e-06,4.0454885e-05,-4.9440728e-06,0,0,1
105032000,104874000,104880000,47.3977508,8.5456074,0,1.0,1.0,0.027292922,-0.008415177,0.030574542,-0.009907447,1.1259528,1.1262918,2.6463047e-05,2.5149866e-06,3.423629e-05,-3.864479e-06,0,0,1
105432000,105274000,105280000,47.3977508,8.5456074,0,1.0,1.0,0.021491453,-0.008864757,0.026537612,-0.009444029,1.125946,1.1262882,1.6408692e-05,2.7908989e-06,2.6312913e-05,-3.387332e-06,0,0,1
105832000,105678000,105680000,47.3977508,8.5456074,0,1.0,1.0,0.018553494,-0.008964118,0.022969488,-0.009229556,1.1259401,1.1262852,1.2229146e-05,2.853821e-06,2.001884e-05,-3.1489044e-06,0,0,1
106232000,106074000,106080000,47.3977508,8.5456074,0,1.0,1.0,0.017040199,-0.009630264,0.020348955,-0.009406654,1.1259478,1.1262882,1.0315518e-05,3.2937214e-06,1.5730318e-05,-3.2129083e-06,0,0,1
106632000,106474000,106480000,47.3977508,8.5456074,0,1.0,1.0,0.0108842505,-0.0100617,0.01614242,-0.009697786,1.1259404,1.1262844,4.2086385e-06,3.5954617e-06,1.0609571e-05,-3.382932e-06,0,0,1
107032000,106874000,106880000,47.3977508,8.5456074,0,1.0,1.0,0.009576036,-0.005445756,0.013224027,-0.0078079943,1.1259308,1.1262802,3.2577655e-06,1.0532463e-06,7.3421015e-06,-2.3475159e-06,0,0,1
107432000,107274000,107280000,47.3977508,8.5456074,0,1.0,1.0,0.008182003,-0.0066665406,0.010983127,-0.0073006814,1.1259377,1.1262834,2.3782904e-06,1.5783866e-06,5.135963e-06,-2.0056805e-06,0,0,1
107832000,107674000,107680000,47.3977508,8.5456074,0,1.0,1.0,0.0016311444,-0.007968423,0.00682669,-0.0075974553,1.1259342,1.1262838,9.452176e-08,2.2550537e-06,2.8953223e-06,-2.116513e-06,0,0,1
108232000,108074000,108080000,47.3977508,8.5456074,0,1.0,1.0,-0.0055783563,-0.007836145,0.0013133357,-0.00770354,1.1259403,1.1262913,1.1054958e-06,2.180792e-06,1.1171808e-06,-2.1450815e-06,0,0,1
108632000,108474000,108480000,47.3977508,8.5456074,0,1.0,1.0,-0.002523235,-0.008797419,-0.00039180694,-0.008189709,1.125935,1.1262921,2.2618411e-07,2.7486506e-06,5.201297e-07,-2.4133344e-06,0,0,1
109032000,108874000,108880000,47.397750699999996,8.5456074,0,1.0,1.0,0.0037896498,-0.012837344,0.0014666184,-0.010255325,1.1259309,1.1262946,5.10207e-07,5.852728e-06,5.157196e-07,-3.9419538e-06,0,0,1
109432000,109274000,109280000,47.3977508,8.5456075,0,1.0,1.0,-0.01166544,-0.02009468,-0.004369852,-0.014628371,1.1259418,1.126302,4.834442e-06,1.4340599e-05,-1.8621299e-06,-8.563575e-06,0,0,1
109832000,109674000,109680000,47.3977508,8.5456074,0,1.0,1.0,-0.017044725,-0.010092722,-0.010003129,-0.012612527,1.1259406,1.1263055,1.0321065e-05,3.617599e-06,-5.621657e-06,-6.3653633e-06,0,0,1
110232000,110074000,110080000,47.3977508,8.5456073,0,1.0,1.0,-0.025478546,-0.0018250607,-0.016881093,-0.007818097,1.125953,1.1263156,2.3061577e-05,1.18291766e-07,-1.33727335e-05,-3.5888868e-06,0,0,1
110632000,110474000,110480000,47.3977508,8.5456074,0,1.0,1.0,-0.030179834,-0.00983699,-0.022791645,-0.008715383,1.1259506,1.126321,3.2357457e-05,3.4365473e-06,-2.1810389e-05,-3.5211804e-06,0,0,1
111032000,110874000,110880000,47.3977508,8.5456074,0,1.0,1.0,-0.03136239,-0.009129334,-0.026600864,-0.008899361,1.125963,1.1263318,3.4942514e-05,2.9598646e-06,-2.7646889e-05,-3.2717066e-06,0,0,1
111432000,111274000,111280000,47.3977508,8.5456074,0,1.0,1.0,-0.03582881,-0.007826445,-0.030702174,-0.008422509,1.125963,1.1263357,4.560376e-05,2.17531e-06,-3.5627723e-05,-2.7844194e-06,0,0,1
111832000,111674000,111680000,47.3977508,8.5456074,0,1.0,1.0,-0.039589696,-0.0042653936,-0.034652185,-0.0065749018,1.1259604,1.1263386,5.568025e-05,6.461142e-07,-4.453996e-05,-1.8340614e-06,0,0,1
112232000,112074000,112080000,47.3977508,8.5456074,0,1.0,1.0,-0.0452129,-0.0044768234,-0.039345834,-0.0056424225,1.1259711,1.1263496,7.2620205e-05,7.117487e-07,-5.7020072e-05,-1.3352558e-06,0,0,1
112632000,112474000,112480000,47.3977508,8.5456074,0,1.0,1.0,-0.052019455,0.002719308,-0.044978555,-0.0019260973,1.1259679,1.1263492,9.613147e-05,2.6260545e-07,-7.440292e-05,-6.250952e-07,0,0,1
113032000,112874000,112880000,47.3977508,8.5456074,0,1.0,1.0,-0.058924098,0.0091974335,-0.051176574,0.0030176945,1.1259769,1.1263518,0.00012334353,3.0041335e-06,-9.6154305e-05,9.878954e-07,0,0,1
113432000,113274000,113280000,47.3977508,8.5456075,0,1.0,1.0,-0.054418102,-0.0035619363,-0.052617252,9.341375e-05,1.1259722,1.1263475,0.00010520082,4.505675e-07,-0.00010017498,3.485785e-07,0,0,1
113832000,113674000,113680000,47.3977508,8.5456074,0,1.0,1.0,-0.059180405,0.003089155,-0.05553421,0.0014248544,1.1259773,1.1263515,0.00012441886,3.3889523e-07,-0.00011095004,3.4427484e-07,0,0,1
114232000,114074000,114080000,47.3977508,8.5456074,0,1.0,1.0,-0.06392986,-0.0021598209,-0.059265614,-0.00016833469,1.1259644,1.1263456,0.00014519207,1.6566233e-07,-0.00012616871,1.1763606e-07,0,0,1
114632000,114474000,114480000,47.3977508,8.5456074,0,1.0,1.0,-0.06349009,-0.0034629407,-0.06114316,-0.0016326042,1.1259552,1.1263366,0.00014320256,4.2587476e-07,-0.00013373932,-1.2392434e-07,0,0,1
115032000,114874000,114880000,47.3977508,8.5456074,0,1.0,1.0,-0.06764275,-0.0029101851,-0.06403187,-0.002200418,1.125965,1.1263335,0.0001625465,3.007698e-07,-0.0001465425,-2.0252233e-07,0,0,1
115432000,115274000,115280000,47.3977508,8.5456074,0,1.0,1.0,-0.070164025,-0.0039619356,-0.06675727,-0.0029833147,1.1259568,1.1263211,0.00017489091,5.574586e-07,-0.0001591418,-3.6027177e-07,0,0,1
115832000,115674000,115680000,47.3977508,8.5456074,0,1.0,1.0,-0.070456855,-0.00315617,-0.06840153,-0.0030601393,1.1259644,1.1263092,0.0001763526,3.5377175e-07,-0.00016679104,-3.5738287e-07,0,0,1
116232000,116074000,116080000,47.3977508,8.5456074,0,1.0,1.0,-0.06399179,-0.002884282,-0.06644165,-0.0029819806,1.1259586,1.126293,0.00014547425,2.9545004e-07,-0.00015731691,-3.2985716e-07,0,0,1
116632000,116474000,116480000,47.3977508,8.5456074,0,1.0,1.0,-0.063913725,-0.005605064,-0.06531813,-0.0041477955,1.1259534,1.1262776,0.00014512018,1.1157726e-06,-0.00015189615,-6.79153e-07,0,0,1
117032000,116874000,116880000,47.3977508,8.5456074,0,1.0,1.0,-0.06346312,-0.008057442,-0.06449368,-0.005885416,1.1259624,1.1262722,0.00014308002,2.3057432e-06,-0.00014797787,-1.402082e-06,0,0,1
117424000,117270000,117272000,47.3977508,8.5456074,0,1.0,1.0,-0.06250538,-0.0072653755,-0.06361492,-0.006495309,1.1254827,1.1257875,0.00013885321,1.8755113e-06,-0.0001439451,-1.6113208e-06,0,0,1
117832000,117674000,117680000,47.3977508,8.5456074,0,1.0,1.0,-0.057007402,-0.001685349,-0.060662,-0.0043457253,1.1260294,1.126334,0.000115444374,1.0087244e-07,-0.00013120806,-9.3629745e-07,0,0,1
118232000,118074000,118080000,47.3977508,8.5456074,0,1.0,1.0,-0.054809127,-0.0058880467,-0.058060724,-0.0050312015,1.1260104,1.126322,0.00010671448,1.2312321e-06,-0.000120322016,-1.0673796e-06,0,0,1
118632000,118474000,118480000,47.3977508,8.5456074,0,1.0,1.0,-0.05421554,-0.007473954,-0.056351755,-0.0061168694,1.1259915,1.1263168,0.0001044173,1.983811e-06,-0.00011325325,-1.4746824e-06,0,0,1
119032000,118874000,118880000,47.3977508,8.5456074,0,1.0,1.0,-0.04664731,0.001997136,-0.05203867,-0.0025106445,1.1259878,1.1263214,7.730001e-05,1.4164881e-07,-9.727403e-05,-7.5631294e-07,0,0,1
119432000,119274000,119280000,47.3977508,8.5456074,0,1.0,1.0,-0.045123406,0.0034108094,-0.04896522,0.000121113146,1.1259712,1.126322,7.2332994e-05,4.1315437e-07,-8.6189124e-05,-2.3654968e-07,0,0,1
119832000,119674000,119680000,47.3977508,8.5456074,0,1.0,1.0,-0.034788463,0.00016756808,-0.04266444,0.00014175978,1.1259685,1.1263344,4.299364e-05,9.971838e-10,-6.699113e-05,-1.3097329e-07,0,0,1
120232000,120074000,120080000,47.3977508,8.5456075,0,1.0,1.0,-0.03130311,-0.011485734,-0.03761496,-0.0050260155,1.1259501,1.1263397,3.481095e-05,4.6849846e-06,-5.2688825e-05,-2.1549786e-06,0,0,1
120632000,120474000,120480000,47.3977508,8.5456074,0,1.0,1.0,-0.02775618,-0.0008553005,-0.03323328,-0.003172364,1.1259384,1.1263505,2.7369368e-05,2.5979087e-08,-4.143573e-05,-1.2087564e-06,0,0,1
121032000,120874000,120880000,47.3977509,8.5456074,0,1.0,1.0,-0.036757763,0.0012535135,-0.034799717,-0.0012053072,1.1259403,1.1263621,4.8000173e-05,5.5800747e-08,-4.4353263e-05,-6.4673094e-07,0,0,1
121432000,121274000,121280000,47.3977508,8.5456074,0,1.0,1.0,-0.020485038,-0.00051342463,-0.028437637,-0.0008978038,1.1259294,1.1263727,1.4908103e-05,9.3611945e-09,-3.126652e-05,-3.6345548e-07,0,0,1
121832000,121674000,121680000,47.3977508,8.5456074,0,1.0,1.0,-0.016175987,0.0013276082,-0.022988014,9.126833e-05,1.1259335,1.12639,9.2958435e-06,6.2590885e-08,-2.1501775e-05,-1.7410153e-07,0,0,1
122232000,122074000,122080000,47.3977508,8.5456073,0,1.0,1.0,-0.013050231,0.007572953,-0.01857122,0.0034164619,1.1259252,1.1263986,6.0504385e-06,2.0365658e-06,-1.4634514e-05,8.0841744e-07,0,0,1
122632000,122474000,122480000,47.3977508,8.5456074,0,1.0,1.0,-0.008048019,-0.0039761276,-0.013894241,0.00013086642,1.1259152,1.126401,2.3010834e-06,5.6141965e-07,-9.152989e-06,1.9960095e-07,0,0,1
123032000,122874000,122880000,47.3977508,8.5456074,0,1.0,1.0,-0.0072019957,-0.012371311,-0.01091991,-0.005425657,1.1259196,1.1264141,1.8427157e-06,5.434923e-06,-5.9039785e-06,-2.304632e-06,0,0,1
123432000,123274000,123280000,47.3977508,8.5456074,0,1.0,1.0,-0.010257262,-0.01381833,-0.0106254,-0.009155734,1.1259102,1.1264184,3.7378263e-06,6.780651e-06,-4.9412442e-06,-4.2939737e-06,0,0,1
123832000,123674000,123680000,47.3977508,8.5456073,0,1.0,1.0,-0.01013892,-0.006403833,-0.010409187,-0.007932667,1.1259185,1.1264254,3.6520473e-06,1.4562555e-06,-4.3682676e-06,-3.0327656e-06,0,0,1
124232000,124074000,124080000,47.397750699999996,8.5456074,0,1.0,1.0,0.0030961959,-0.015422062,-0.004406794,-0.011261287,1.1259125,1.1264187,3.4057453e-07,8.4458825e-06,-2.2754489e-06,-5.4385955e-06,0,0,1
124632000,124474000,124480000,47.3977508,8.5456074,0,1.0,1.0,-0.011558537,-0.025465216,-0.0075853467,-0.017574145,1.1259067,1.1264056,4.746389e-06,2.3028197e-05,-3.3736446e-06,-1.3256197e-05,0,0,1
125032000,124874000,124880000,47.3977508,8.5456074,0,1.0,1.0,-0.0031798927,-0.023103768,-0.005627367,-0.020031756,1.1259176,1.1264057,3.5923472e-07,1.8955305e-05,-2.0339066e-06,-1.5789134e-05,0,0,1
125432000,125274000,125280000,47.3977508,8.5456074,0,1.0,1.0,-0.0058413157,-0.020068143,-0.005722455,-0.020047927,1.1259172,1.1263916,1.2122018e-06,1.4301609e-05,-1.6687045e-06,-1.5128011e-05,0,0,1
125832000,125674000,125680000,47.3977508,8.5456074,0,1.0,1.0,0.00033308048,-0.010714785,-0.0030311057,-0.015899863,1.1259187,1.1263789,3.941407e-09,4.077016e-06,-9.2530627e-07,-1.0216458e-05,0,0,1
126232000,126074000,126080000,47.3977508,8.5456074,0,1.0,1.0,0.0042362236,-0.008725777,0.00019881874,-0.012711381,1.1259329,1.1263796,6.375368e-07,2.7038552e-06,-2.307093e-07,-6.877523e-06,0,0,1
126632000,126474000,126480000,47.3977508,8.5456074,0,1.0,1.0,0.0033748182,-0.0074673486,0.0016103742,-0.010380699,1.1259375,1.1263711,4.0461921e-07,1.9802103e-06,5.1658958e-08,-4.70094e-06,0,0,1
127032000,126874000,126880000,47.3977508,8.5456074,0,1.0,1.0,0.0034027628,0.0015253375,0.0024069916,-0.005089127,1.1259527,1.1263695,4.113421e-07,8.262491e-08,2.1151816e-07,-2.574911e-06,0,0,1
