timestamp,timestamp_sample,gyro_device_id,gyro_bias[0],gyro_bias[1],gyro_bias[2],gyro_bias_limit,gyro_bias_variance[0],gyro_bias_variance[1],gyro_bias_variance[2],accel_device_id,accel_bias[0],accel_bias[1],accel_bias[2],accel_bias_limit,accel_bias_variance[0],accel_bias_variance[1],accel_bias_variance[2],mag_device_id,mag_bias[0],mag_bias[1],mag_bias[2],mag_bias_limit,mag_bias_variance[0],mag_bias_variance[1],mag_bias_variance[2],gyro_bias_valid,gyro_bias_stable,accel_bias_valid,accel_bias_stable,mag_bias_valid,mag_bias_stable
1760000,1608000,1310988,0.0,0.0,0.0,0.15,0.010000001,0.010000001,0.009993605,1310988,0.0,0.0,0.0,0.4,0.040000003,0.040000003,0.040000003,197388,0.0,0.0,0.0,0.5,0.0025000002,0.0025000002,0.0025000002,1,0,1,0,1,0
1952000,1800000,1310988,0.0038026206,0.002458737,0.003411944,0.15,0.00022004891,0.00022004891,0.00022004578,1310988,6.1217675e-09,-4.872566e-09,2.0123527e-09,0.4,0.04,0.04,0.03999999,197388,0.0,0.0,0.0,0.5,0.0025000002,0.0025000002,0.0025000002,1,0,1,0,1,0
1976000,1824000,1310988,0.0037960948,0.0024395986,0.0034119308,0.15,0.00021998682,0.00021998688,0.00021781074,1310988,0.0030436807,-0.0010427656,0.007636426,0.4,0.03840784,0.038407903,0.0042522373,197388,0.0,0.0,0.0,0.5,0.0025000002,0.0025000002,0.0025000002,1,0,1,0,1,0
2152000,2000000,1310988,0.0044279057,0.0025285159,0.0024986705,0.15,0.00011122087,0.000111220885,0.000110673835,1310988,0.0033725656,-0.0009138885,0.007636851,0.4,0.038075976,0.03807603,0.0042522475,197388,0.0,0.0,0.0,0.5,0.0025000002,0.0025000002,0.0025000002,1,0,1,0,1,0
2352000,2200000,1310988,0.0033467798,0.0010501799,0.0026091705,0.15,7.435718e-05,7.435719e-05,7.418468e-05,1310988,0.0035041342,-0.0010716827,0.0075817723,0.4,0.037706826,0.037706878,0.004232701,197388,0.0,0.0,0.0,0.5,0.0025000002,0.0025000002,0.0025000002,1,0,1,0,1,0
2552000,2400000,1310988,0.003406528,0.00032167853,0.001699701,0.15,5.5297853e-05,5.5297816e-05,5.5791017e-05,1310988,0.0032892923,-0.0010903758,0.007448874,0.4,0.037344053,0.037344143,0.0041573658,197388,0.0,0.0,0.0,0.5,0.0025000002,0.0025000002,0.0025000002,1,0,1,0,1,0
2752000,2600000,1310988,0.0018859633,0.00025674372,0.0022752734,0.15,4.3033535e-05,4.303342e-05,4.470679e-05,1310988,0.0029816718,-0.00133508,0.007133801,0.4,0.03698528,0.036985427,0.0040000775,197388,0.0,0.0,0.0,0.5,0.0025000002,0.0025000002,0.0025000002,1,0,1,0,1,0
3016000,2864000,1310988,0.0013822865,0.00011753916,0.002161937,0.15,3.431437e-05,3.4314213e-05,3.7297814e-05,1310988,0.002756222,-0.001222814,0.0060084774,0.4,0.036521573,0.036521904,0.003432663,197388,0.0,0.0,0.0,0.5,0.0025000002,0.0025000002,0.0025000002,1,0,1,0,1,0
3128000,2976000,1310988,0.0013815875,0.00011755936,0.0021616297,0.15,3.430146e-05,3.4301305e-05,3.72987e-05,1310988,0.0026454816,-0.0019908468,0.006008612,0.4,0.035915744,0.036113635,0.0034326685,197388,-0.0013337663,0.00021086508,-4.3173575e-05,0.5,0.0019610552,0.0016758401,0.0016688969,1,0,1,0,1,0
3272000,3120000,1310988,0.0010261058,0.0002271624,0.0020060483,0.15,2.975593e-05,2.9755816e-05,3.1995696e-05,1310988,0.001871844,-0.001487744,0.0054303533,0.4,0.035641048,0.035906248,0.0030055253,197388,-0.00043836742,0.00135503,-0.00018734405,0.5,0.0018458777,0.0014431014,0.0014321978,1,0,1,0,1,0
3632000,3480000,1310988,0.00079895236,0.00016437334,0.0017786762,0.15,2.3469578e-05,2.3468994e-05,2.4910452e-05,1310988,0.0016356569,0.0038409256,0.005428444,0.4,0.0323757,0.032611284,0.0028981892,197388,-0.00032739033,0.0012409565,3.4015364e-05,0.5,0.0017607745,0.0013394789,0.0013274595,1,0,1,0,1,0
4032000,3880000,1310988,0.000868227,0.00045860762,0.0012116343,0.15,1.9296853e-05,1.9295578e-05,2.039109e-05,1310988,0.0069128857,0.0023214493,0.0052646454,0.4,0.025184905,0.025324898,0.002741198,197388,-0.0002129999,0.0013107304,-9.992291e-05,0.5,0.0017198037,0.0013094149,0.0012994829,1,0,1,0,1,0
4424000,4272000,1310988,0.0004871926,0.0005854176,0.0010871728,0.15,1.6474167e-05,1.6473234e-05,1.725309e-05,1310988,0.0077428706,0.0017639827,0.0052291933,0.4,0.025168082,0.025305621,0.0027368644,197388,-0.00029936983,0.0010314602,-0.00025285443,0.5,0.0016911058,0.0012954834,0.0012853221,1,0,1,0,1,0
4432000,4280000,1310988,0.00049283274,0.000563558,0.001087307,0.15,1.6342483e-05,1.6340602e-05,1.7253149e-05,1310988,0.009282188,-0.0033207915,0.004959238,0.4,0.017900465,0.017966311,0.0025371846,197388,-0.00022902152,0.0010542177,-0.00024295735,0.5,0.0016894969,0.0012918068,0.0012843662,1,0,1,0,1,0
4752000,4600000,1310988,0.00029919107,0.00023389481,0.0009986423,0.15,1.4271714e-05,1.4270266e-05,1.4951173e-05,1310988,0.01031846,-0.0020846592,0.004918955,0.4,0.017864542,0.01792951,0.0025310142,197388,-0.00028544458,0.0011746633,-0.00035830738,0.5,0.0016761072,0.0012864157,0.0012789298,1,0,1,0,1,0
4832000,4680000,1310988,0.0002786898,0.00020142188,0.0009993138,0.15,1.4149116e-05,1.41468745e-05,1.494872e-05,1310988,0.007867226,-0.009660134,0.004378827,0.4,0.012647202,0.0126733305,0.002298207,197388,-0.00017920615,0.0010901545,-0.0003820149,0.5,0.0016724009,0.0012826755,0.0012771541,1,0,1,0,1,0
4952000,4800000,1310988,0.00012348525,0.0001394469,0.0009076866,0.15,1.3312838e-05,1.331084e-05,1.4012129e-05,1310988,0.008828989,-0.009371567,0.004387647,0.4,0.012617908,0.0126437675,0.0022947835,197388,-0.00014206891,0.0011250713,-0.00032461667,0.5,0.0016671298,0.0012807585,0.0012752329,1,0,1,0,1,0
5232000,5080000,1310988,-3.3238975e-06,4.0592746e-05,0.0008133562,0.15,1.2449759e-05,1.2447002e-05,1.3179196e-05,1310988,0.00438404,-0.010052418,0.003896882,0.4,0.009302298,0.009313381,0.0020381727,197388,-0.00021229962,0.0010429753,-0.00034789174,0.5,0.0016578082,0.0012759616,0.0012717056,1,0,1,0,1,0
5632000,5480000,1310988,-6.872437e-05,-4.5779834e-05,0.00078302505,0.15,1.1081685e-05,1.107873e-05,1.1781964e-05,1310988,0.0032590963,-0.009577727,0.005034871,0.4,0.007233289,0.0072409967,0.0017753204,197388,-0.00024176035,0.0009582934,-0.0003455304,0.5,0.001648611,0.0012720106,0.0012685477,1,0,1,0,1,0
5752000,5600000,1310988,-0.00016581336,-0.00015133161,0.0010685662,0.15,1.0562378e-05,1.0559649e-05,1.1188662e-05,1310988,0.0041801184,-0.008523851,0.0050647147,0.4,0.0071916725,0.0071994322,0.0017690151,197388,-0.00027679084,0.0010580071,-0.0003494483,0.5,0.0016455604,0.0012710775,0.0012676117,1,0,1,0,1,0
5952000,5800000,1310988,1.4792051e-05,-8.2758605e-05,0.0010458912,0.15,1.0090223e-05,1.0087677e-05,1.0647902e-05,1310988,0.0026228912,-0.009234093,0.0050869896,0.4,0.0071524493,0.007160485,0.0017610865,197388,-0.0003002605,0.0010617505,-0.00037770078,0.5,0.001641412,0.0012698717,0.0012663858,1,0,1,0,1,0
6032000,5880000,1310988,-8.808751e-06,-9.1523834e-05,0.0010458681,0.15,9.944577e-06,9.941242e-06,1.0644075e-05,1310988,0.0014076311,-0.011245539,0.0057626422,0.4,0.005940623,0.0059498646,0.0015272219,197388,-0.00028132266,0.0010248693,-0.0003683764,0.5,0.0016399816,0.0012688056,0.0012658351,1,0,1,0,1,0
6152000,6000000,1310988,4.3077467e-05,5.6817436e-05,0.00089902896,0.15,9.524524e-06,9.521395e-06,1.0155432e-05,1310988,0.0012264416,-0.012812959,0.0057052136,0.4,0.0058958936,0.0059052818,0.0015206081,197388,-0.0002651194,0.0010685506,-0.00034526276,0.5,0.0016375589,0.0012681179,0.0012651423,1,0,1,0,1,0
6432000,6280000,1310988,-3.5256136e-05,1.3485553e-05,0.00084188563,0.15,8.971507e-06,8.96765e-06,9.70563e-06,1310988,0.00023904978,-0.014092607,0.0062241587,0.4,0.005119158,0.0051316274,0.0012985896,197388,-0.00020741245,0.0009864421,-0.0003692024,0.5,0.00163406,0.0012667354,0.0012641007,1,0,1,0,1,0
6752000,6600000,1310988,-0.00015997075,0.00014452566,0.0009553977,0.15,8.311193e-06,8.307685e-06,8.915083e-06,1310988,0.0020674046,-0.015005551,0.0061886795,0.4,0.0050271037,0.00504039,0.0012828236,197388,-0.00028394032,0.0010343487,-0.0003203624,0.5,0.0016292825,0.0012654627,0.0012628011,1,0,1,0,1,0
6832000,6680000,1310988,-0.00018988094,0.00013059539,0.000956628,0.15,8.1187545e-06,8.114258e-06,8.910784e-06,1310988,0.0015667533,-0.016551172,0.0066510607,0.4,0.0045830035,0.0045984685,0.001100885,197388,-0.00025838925,0.0010193511,-0.00034010306,0.5,0.0016282677,0.0012649214,0.0012624904,1,0,1,0,1,0
7152000,7000000,1310988,-0.00026332954,4.355527e-05,0.00096822274,0.15,7.574603e-06,7.570432e-06,8.240737e-06,1310988,0.0021888544,-0.015162278,0.00665159,0.4,0.004491824,0.004507771,0.0011009083,197388,-0.00028149894,0.0010331421,-0.00038421454,0.5,0.0016250394,0.0012640959,0.0012616512,1,0,1,0,1,0
7232000,7080000,1310988,-0.00029397252,3.2413423e-05,0.0009712146,0.15,7.3569786e-06,7.3514316e-06,8.231274e-06,1310988,0.002057896,-0.016204154,0.0056693526,0.4,0.004223769,0.0042419396,0.00094326364,197388,-0.00026511322,0.0010672986,-0.00037658546,0.5,0.0016234651,0.0012635147,0.0012612203,1,0,1,0,1,0
7352000,7200000,1310988,-0.0002179999,-3.3660795e-05,0.0010141493,0.15,7.12494e-06,7.1195855e-06,7.936674e-06,1310988,0.00081085454,-0.015823754,0.00566914,0.4,0.004180464,0.004198388,0.0009432724,197388,-0.00023534382,0.0010735971,-0.00042880405,0.5,0.0016227462,0.0012633285,0.0012610384,1,0,1,0,1,0
7632000,7480000,1310988,-0.00021273558,-7.234698e-05,0.0009998601,0.15,6.6639636e-06,6.657253e-06,7.648684e-06,1310988,-0.00023546607,-0.016877007,0.0055161207,0.4,0.0039783334,0.003998681,0.00080675,197388,-0.00020209023,0.0010307353,-0.00044680916,0.5,0.0016199532,0.0012625257,0.0012603387,1,0,1,0,1,0
7752000,7600000,1310988,-8.7546934e-05,-7.7815224e-05,0.0010725937,0.15,6.473176e-06,6.4666547e-06,7.3881524e-06,1310988,-0.0018716569,-0.017501159,0.0055155503,0.4,0.003932556,0.0039531603,0.0008067587,197388,-0.00018584984,0.0010383169,-0.00041052152,0.5,0.0016187386,0.0012622325,0.0012600336,1,0,1,0,1,0
7952000,7800000,1310988,-2.8003462e-05,-5.350233e-05,0.0010810952,0.15,6.293666e-06,6.2872846e-06,7.139931e-06,1310988,-0.0026110709,-0.01823455,0.0055151437,0.4,0.0038853989,0.0039067306,0.00080677326,197388,-0.00016873764,0.0010274249,-0.00038419006,0.5,0.0016170345,0.0012618371,0.0012596103,1,0,1,0,1,0
8352000,8200000,1310988,2.3874272e-05,1.0697471e-05,0.0009106956,0.15,5.7238035e-06,5.716126e-06,6.6923203e-06,1310988,-0.0032004814,-0.019246306,0.0049645305,0.4,0.0037115265,0.003734716,0.0006867065,197388,-0.00016279849,0.0010893826,-0.00036025373,0.5,0.0016139599,0.0012610871,0.0012589466,1,0,1,0,1,0
8440000,8288000,1310988,3.8807473e-05,-6.6758375e-06,0.0009157178,0.15,5.4377606e-06,5.4290545e-06,6.6822645e-06,1310988,-0.0026218484,-0.019104995,0.00405292,0.4,0.0036566504,0.0036811777,0.00058855093,197388,-0.00014273378,0.0011493103,-0.00033973565,0.5,0.0016122819,0.0012607601,0.0012586908,1,0,1,0,1,0
8552000,8400000,1310988,-3.0544736e-05,-0.0001243116,0.0008981769,0.15,5.3102967e-06,5.301754e-06,6.485154e-06,1310988,-0.002514349,-0.016929764,0.004138736,0.4,0.0036201093,0.0036443062,0.00058580504,197388,-0.00014253306,0.0010886872,-0.00035760444,0.5,0.0016118038,0.0012606456,0.0012585798,1,0,1,0,1,0
8752000,8600000,1310988,-4.9566865e-05,-8.642542e-05,0.0008060324,0.15,5.1893844e-06,5.180958e-06,6.290012e-06,1310988,-0.0014198375,-0.017525092,0.004311817,0.4,0.0035762864,0.0036011024,0.0005766892,197388,-0.00010922605,0.0011822691,-0.00035475462,0.5,0.0016104443,0.0012603462,0.0012582697,1,0,1,0,1,0
9080000,8928000,1310988,-1.0800563e-05,-9.036324e-05,0.00071903603,0.15,4.7927797e-06,4.783152e-06,6.095365e-06,1310988,-0.001997577,-0.01833204,0.0041034394,0.4,0.0034981275,0.003524053,0.00049152767,197388,-4.4739187e-05,0.0011712813,-0.00036126896,0.5,0.00160768,0.0012597943,0.0012577741,1,0,1,0,1,0
9352000,9200000,1310988,-4.4466296e-06,-1.3409247e-05,0.00056175946,0.15,4.3052482e-06,4.294012e-06,5.7679226e-06,1310988,-0.0017222575,-0.019576462,0.0043144836,0.4,0.00341452,0.0034388942,0.00042592784,197388,-1.635568e-06,0.0011835262,-0.00037234073,0.5,0.0016058488,0.0012594205,0.0012574878,1,0,1,0,1,0
9552000,9400000,1310988,0.000101090336,4.7555608e-05,0.0004861352,0.15,4.2259576e-06,4.214841e-06,5.610319e-06,1310988,-0.0028161695,-0.021258889,0.0044144182,0.4,0.0033766448,0.0034014892,0.0004218563,197388,2.074972e-05,0.0012345153,-0.0003656384,0.5,0.001604735,0.0012591903,0.0012572386,1,0,1,0,1,0
9752000,9600000,1310988,0.0001148492,2.4756326e-05,0.00049502705,0.15,3.8570965e-06,3.844888e-06,5.4589577e-06,1310988,-0.0037491394,-0.021668507,0.0038990716,0.4,0.0033247366,0.0033480125,0.00037161363,197388,4.6456757e-05,0.0011984524,-0.00037742287,0.5,0.0016030734,0.0012588707,0.0012569805,1,0,1,0,1,0
10432000,10280000,1310988,0.00017753243,-4.0530376e-06,0.00042698058,0.15,3.1027243e-06,3.0901906e-06,5.046525e-06,1310988,-0.0047577186,-0.021352645,0.00426342,0.4,0.003185366,0.0032034277,0.00029116558,197388,9.844622e-05,0.0011919378,-0.00038487688,0.5,0.001598468,0.0012581012,0.0012563168,1,0,1,0,1,0
10952000,10800000,1310988,0.00021174632,6.005405e-05,0.00041592176,0.15,2.7186163e-06,2.7068393e-06,4.690921e-06,1310988,-0.005147833,-0.022601571,0.0042801523,0.4,0.0030824547,0.0030970625,0.00025940192,197388,0.0001015589,0.0011780198,-0.00041828954,0.5,0.001595198,0.0012575937,0.0012558225,1,0,1,0,1,0
11152000,11000000,1310988,0.00022121782,3.144511e-06,0.00037543935,0.15,2.6877165e-06,2.6759537e-06,4.586558e-06,1310988,-0.006169412,-0.021741148,0.004356024,0.4,0.003062441,0.003077084,0.00025641138,197388,7.842002e-05,0.0011367012,-0.00042168022,0.5,0.0015946586,0.0012574998,0.0012557135,1,0,1,0,1,0
11632000,11480000,1310988,0.00027045622,9.6546195e-05,0.00030869793,0.15,2.1551634e-06,2.1466456e-06,4.37052e-06,1310988,-0.006221201,-0.022919567,0.004175724,0.4,0.0029533037,0.002958856,0.00021452174,197388,5.1885087e-05,0.0011542158,-0.00038796844,0.5,0.0015905576,0.001257016,0.0012553515,1,0,1,0,1,0
11952000,11800000,1310988,0.00030055613,8.251925e-05,0.00024591445,0.15,2.1171384e-06,2.108498e-06,4.1895332e-06,1310988,-0.0073019136,-0.022892691,0.004267128,0.4,0.0029237138,0.0029293827,0.00021105453,197388,1.538434e-05,0.0011222372,-0.0004043934,0.5,0.0015895427,0.0012568538,0.0012551778,1,0,1,0,1,0
12952000,12800000,1310988,0.0003762916,0.00014313804,0.00011265633,0.15,1.4930293e-06,1.4877714e-06,3.7645511e-06,1310988,-0.0074671726,-0.023571799,0.0041255252,0.4,0.0027533665,0.002744748,0.00016675332,197388,8.415328e-05,0.0011989427,-0.000364472,0.5,0.0015853723,0.0012561376,0.0012546303,1,1,1,0,1,0
13616000,13464000,1310988,0.0003952798,0.0001179918,8.495123e-05,0.15,1.3237271e-06,1.3188771e-06,3.5367827e-06,1310988,-0.008424647,-0.02321059,0.004201905,0.4,0.0026888393,0.0026759272,0.00015400129,197388,4.2427614e-06,0.0011831111,-0.0003767048,0.5,0.001583323,0.0012557821,0.0012543172,1,1,1,0,1,0
14616000,14464000,1310988,0.00034397905,0.0001442299,-2.2977918e-05,0.15,9.573419e-07,9.545425e-07,3.2121654e-06,1310988,-0.0077743507,-0.023167482,0.004107266,0.4,0.002567183,0.002543201,0.00012898783,197388,6.299538e-05,0.0011232465,-0.00039867044,0.5,0.001580799,0.0012552892,0.0012539609,1,1,1,0,1,0
15616000,15464000,1310988,0.0003585993,0.00014279364,-0.00011801894,0.15,7.828829e-07,7.809713e-07,2.930554e-06,1310988,-0.008024651,-0.0230668,0.0038946478,0.4,0.0024944649,0.00246553,0.00011544636,197388,3.9488845e-05,0.0011472513,-0.00039656917,0.5,0.0015779427,0.0012549089,0.0012536442,1,1,1,0,1,0
16616000,16464000,1310988,0.0003696716,0.00014265743,-8.955849e-05,0.15,6.0144737e-07,6.003046e-07,2.6807224e-06,1310988,-0.007881248,-0.023022158,0.003845602,0.4,0.0024182547,0.0023842237,0.0001011296,197388,-2.7987675e-05,0.0011840496,-0.00035338657,0.5,0.0015744889,0.0012545611,0.0012533596,1,1,1,0,1,0
17616000,17464000,1310988,0.00034758332,0.00016898502,-8.06477e-05,0.15,5.1597993e-07,5.15248e-07,2.4645597e-06,1310988,-0.0071051065,-0.023402888,0.0038274392,0.4,0.002374286,0.002338302,9.274824e-05,197388,2.9867031e-05,0.0011483529,-0.00033783598,0.5,0.0015723758,0.0012543063,0.0012530716,1,1,1,0,1,0
18432000,18280000,1310988,0.00031439262,0.00018075664,-2.821457e-05,0.15,4.219452e-07,4.2177356e-07,2.3064565e-06,1310988,-0.0062031965,-0.022968145,0.0038378197,0.4,0.002327825,0.0022903155,8.379749e-05,197388,2.7606964e-05,0.0011622541,-0.00032029612,0.5,0.0015709391,0.0012540944,0.0012528737,1,1,1,0,1,0
19432000,19280000,1310988,0.00032180833,0.00018549795,-3.295331e-05,0.15,3.7767535e-07,3.775982e-07,2.1320525e-06,1310988,-0.006215225,-0.023251677,0.0038308627,0.4,0.0022986722,0.002261341,7.822976e-05,197388,1.73079e-05,0.001139891,-0.00025229168,0.5,0.001569693,0.0012538981,0.001252667,1,1,1,0,1,0
20432000,20280000,1310988,0.00030582922,0.00022738073,-8.60232e-05,0.15,3.2607446e-07,3.2588272e-07,1.9734362e-06,1310988,-0.005122561,-0.02376521,0.0037158963,0.4,0.00226472,0.002228437,7.169837e-05,197388,0.000179766,0.0011678747,-0.0002527244,0.5,0.0015675921,0.0012536818,0.0012524702,1,1,1,0,1,0
21432000,21280000,1310988,0.0002974676,0.00025757146,-2.6390138e-05,0.15,3.0178876e-07,3.0140967e-07,1.8331242e-06,1310988,-0.0044091935,-0.024172658,0.003760818,0.4,0.002243699,0.0022087283,6.764048e-05,197388,0.0002065983,0.0011510401,-0.0002492963,0.5,0.0015656968,0.0012534729,0.0012522851,1,1,1,0,1,0
22032000,21880000,1310988,0.00026604754,0.00028159047,-3.1912798e-05,0.15,2.7993914e-07,2.793585e-07,1.7555906e-06,1310988,-0.0034149871,-0.023991542,0.0037333395,0.4,0.0022264805,0.0021930968,6.4369626e-05,197388,0.00026331024,0.0011614974,-0.00025904697,0.5,0.0015636905,0.0012533355,0.0012521929,1,1,1,0,1,0
23032000,22880000,1310988,0.00023530585,0.00029469648,-6.172393e-05,0.15,2.642857e-07,2.6353794e-07,1.6362088e-06,1310988,-0.0025983707,-0.023560196,0.0037968964,0.4,0.0022093821,0.0021780354,6.110112e-05,197388,0.00044269333,0.0012065201,-0.0002408085,0.5,0.0015613625,0.001253077,0.0012520229,1,1,1,0,1,0
23632000,23480000,1310988,0.00020520583,0.00032598496,-0.00011188029,0.15,2.4889482e-07,2.480963e-07,1.5659931e-06,1310988,-0.0013693544,-0.023577884,0.003852867,0.4,0.0021949136,0.0021657553,5.843008e-05,197388,0.0007276305,0.0012164977,-0.0002330365,0.5,0.0015591321,0.0012528966,0.001251914,1,1,1,0,1,0
24552000,24400000,1310988,0.00016730081,0.00033339724,-0.0001622472,0.15,2.3772816e-07,2.3699312e-07,1.4709804e-06,1310988,-0.0006035796,-0.022877375,0.0038414192,0.4,0.002180953,0.00215416,5.578247e-05,197388,0.0009667522,0.001273166,-0.00020661404,0.5,0.0015565379,0.0012525935,0.0012517758,1,1,1,0,1,0
25552000,25400000,1310988,0.00014358666,0.00033779995,-0.00019149296,0.15,2.2905401e-07,2.2842637e-07,1.3777443e-06,1310988,-4.6424622e-05,-0.022422856,0.0038363214,0.4,0.0021681774,0.0021436613,5.3325224e-05,197388,0.0011944786,0.0012776939,-0.00017441393,0.5,0.001553768,0.0012521318,0.0012516391,1,1,1,0,1,0
26432000,26280000,1310988,9.103089e-05,0.00033972017,-0.00014898695,0.15,2.1460546e-07,2.1418877e-07,1.3012271e-06,1310988,0.0008248477,-0.021408735,0.0038150132,0.4,0.0021524292,0.00213107,5.034215e-05,197388,0.0016736937,0.00130862,-0.00020203262,0.5,0.001549745,0.0012515571,0.0012515155,1,1,1,0,1,0
27432000,27280000,1310988,6.137118e-05,0.000336262,-0.00017009913,0.15,2.0922455e-07,2.089123e-07,1.226063e-06,1310988,0.0012276643,-0.020703375,0.0038225763,0.4,0.0021426831,0.0021232346,4.8329068e-05,197388,0.002071176,0.0014228566,-0.00020554056,0.5,0.0015464289,0.0012506554,0.0012513673,1,1,1,0,1,0
28432000,28280000,1310988,1.6091491e-05,0.00033232526,-0.00019002895,0.15,1.9933925e-07,1.991453e-07,1.1529708e-06,1310988,0.0018374074,-0.01982744,0.003784487,0.4,0.0021305636,0.0021136396,4.5825684e-05,197388,0.0025224267,0.0014314747,-0.00025441853,0.5,0.0015424818,0.0012495462,0.001251241,1,1,1,0,1,0
29432000,29280000,1310988,-1.5801916e-05,0.00032908714,-0.00018572333,0.15,1.9605852e-07,1.9589987e-07,1.0873339e-06,1310988,0.0022514225,-0.019126415,0.0037618594,0.4,0.0021231947,0.0021077748,4.421581e-05,197388,0.0029784366,0.0014992841,-0.00026229976,0.5,0.0015386781,0.001248173,0.0012511426,1,1,1,0,1,0
30432000,30280000,1310988,-5.0537896e-05,0.00031229085,-0.00021510845,0.15,1.8873261e-07,1.8854892e-07,1.0262697e-06,1310988,0.0024183232,-0.018306954,0.003725051,0.4,0.002114164,0.0021006844,4.2099102e-05,197388,0.003464775,0.0015078158,-0.00027291916,0.5,0.0015342741,0.0012466263,0.0012510327,1,1,1,0,1,0
31432000,31280000,1310988,-7.549752e-05,0.00029634882,-0.00020335113,0.15,1.8683438e-07,1.8657903e-07,9.713806e-07,1310988,0.0023765936,-0.017657176,0.0036577047,0.4,0.0021086687,0.002096337,4.0723422e-05,197388,0.003804503,0.0016684894,-0.00027071926,0.5,0.0015295765,0.0012447329,0.0012509205,1,1,1,0,1,0
32432000,32280000,1310988,-0.00010896091,0.00027550792,-0.00022064359,0.15,1.8116133e-07,1.8074458e-07,9.202148e-07,1310988,0.0023852556,-0.016839324,0.0036045667,0.4,0.0021020377,0.0020911403,3.895164e-05,197388,0.0044035157,0.001853074,-0.0002534311,0.5,0.0015236454,0.0012424127,0.0012508136,1,1,1,0,1,0
33432000,33280000,1310988,-0.0001264279,0.0002647548,-0.00024258613,0.15,1.8023715e-07,1.796906e-07,8.742314e-07,1310988,0.002452304,-0.016488355,0.0035433916,0.4,0.0020980684,0.0020879973,3.778446e-05,197388,0.0047553014,0.0017321425,-0.00027833713,0.5,0.001517967,0.001240012,0.0012507328,1,1,1,0,1,0
34432000,34280000,1310988,-0.00015402009,0.00023422831,-0.00024269507,0.15,1.7573434e-07,1.7500811e-07,8.312748e-07,1310988,0.002280722,-0.015736852,0.0035153558,0.4,0.0020932243,0.0020842105,3.626642e-05,197388,0.005441348,0.0018648943,-0.0002903999,0.5,0.0015116038,0.0012373278,0.0012506474,1,1,1,0,1,0
35432000,35280000,1310988,-0.00016897495,0.00022416562,-0.00023613792,0.15,1.7542455e-07,1.7461683e-07,7.92662e-07,1310988,0.0023032671,-0.015393866,0.003598714,0.4,0.002090278,0.0020818734,3.5261477e-05,197388,0.0057771965,0.0018533489,-0.00029517623,0.5,0.001505234,0.0012343831,0.0012505782,1,1,1,0,1,0
36432000,36280000,1310988,-0.00018235223,0.00020712196,-0.00024169708,0.15,1.7162961e-07,1.7074632e-07,7.565209e-07,1310988,0.0022037944,-0.015090052,0.003531229,0.4,0.0020867267,0.0020789965,3.395061e-05,197388,0.006140978,0.0017603154,-0.0003205987,0.5,0.001497465,0.0012316257,0.0012505191,1,1,1,0,1,0
37432000,37280000,1310988,-0.00018907935,0.0002069093,-0.00022896774,0.15,1.7170889e-07,1.708442e-07,7.238988e-07,1310988,0.0022857578,-0.015003128,0.0035773974,0.4,0.0020845393,0.0020771862,3.3080123e-05,197388,0.0061494843,0.0016208759,-0.00031765827,0.5,0.0014901521,0.0012291773,0.0012504496,1,1,1,0,1,0
38432000,38280000,1310988,-0.00020717645,0.00020818016,-0.0002314204,0.15,1.6833138e-07,1.6759626e-07,6.9308885e-07,1310988,0.002491452,-0.0147991255,0.0035534936,0.4,0.0020818596,0.0020748267,3.1931933e-05,197388,0.0060506384,0.0014803385,-0.00032683706,0.5,0.0014793631,0.0012273784,0.0012503709,1,1,1,0,1,0
39432000,39280000,1310988,-0.00021270783,0.00022289237,-0.0002081292,0.15,1.6869237e-07,1.68052e-07,6.66812e-07,1310988,0.002646151,-0.014844369,0.00356665,0.4,0.0020801711,0.0020732984,3.1157055e-05,197388,0.0056075486,0.0015024568,-0.0003138449,0.5,0.0014697306,0.0012261652,0.0012502618,1,1,1,0,1,0
40432000,40280000,1310988,-0.00023033655,0.00024197993,-0.00022196445,0.15,1.6579234e-07,1.6524311e-07,6.4008816e-07,1310988,0.00295012,-0.0148669705,0.0035237663,0.4,0.0020780014,0.0020712414,3.0149635e-05,197388,0.0048864884,0.0014333304,-0.00029146066,0.5,0.0014564948,0.0012252744,0.0012501307,1,1,1,0,1,0
41432000,41280000,1310988,-0.00023294505,0.00025589368,-0.00019169066,0.15,1.6650972e-07,1.6597656e-07,6.156237e-07,1310988,0.003076433,-0.014970185,0.003490402,0.4,0.0020765697,0.0020698751,2.948312e-05,197388,0.0044844174,0.001475055,-0.0002527943,0.5,0.0014474989,0.0012248292,0.0012500109,1,1,1,0,1,0
42432000,42280000,1310988,-0.00023358369,0.0002796457,-0.00018073642,0.15,1.6408598e-07,1.6352217e-07,5.922993e-07,1310988,0.00325791,-0.015234839,0.0034247593,0.4,0.0020747338,0.0020680523,2.857569e-05,197388,0.004082842,0.0014635476,-0.00020251611,0.5,0.0014379389,0.0012244146,0.0012498498,1,1,1,0,1,0
43432000,43280000,1310988,-0.00023567915,0.0002900491,-0.0001867368,0.15,1.6502068e-07,1.6442213e-07,5.710282e-07,1310988,0.0033806532,-0.015347355,0.0033922298,0.4,0.0020734959,0.0020668434,2.7981034e-05,197388,0.0038593975,0.001441742,-0.0001869921,0.5,0.0014321259,0.001224058,0.0012497352,1,1,1,0,1,0
44432000,44280000,1310988,-0.00022660663,0.00031188308,-0.00016450566,0.15,1.628475e-07,1.6223292e-07,5.5078806e-07,1310988,0.0034266568,-0.01565912,0.0033206092,0.4,0.0020719033,0.0020652385,2.7178345e-05,197388,0.0034992243,0.0015050244,-0.0001759062,0.5,0.001425881,0.0012235835,0.001249568,1,1,1,0,1,0
45432000,45280000,1310988,-0.00020833926,0.000320977,-0.00016355226,0.15,1.6389238e-07,1.6334164e-07,5.324423e-07,1310988,0.0033071009,-0.015902355,0.0032749486,0.4,0.002070861,0.002064248,2.6645146e-05,197388,0.0033424688,0.0015121968,-0.00017530852,0.5,0.0014215767,0.0012230766,0.0012493765,1,1,1,0,1,0
46432000,46280000,1310988,-0.0001736087,0.00033749107,-0.0001741845,0.15,1.6180333e-07,1.6149023e-07,5.1504094e-07,1310988,0.0030528354,-0.016316218,0.0031887193,0.4,0.002069549,0.0020630062,2.592395e-05,197388,0.002873885,0.0014832736,-0.0001360223,0.5,0.001414519,0.0012224306,0.001249117,1,1,1,0,1,0
47432000,47280000,1310988,-0.00015174122,0.00033754026,-0.00016430345,0.15,1.6290348e-07,1.6281606e-07,4.9917867e-07,1310988,0.0028465174,-0.016499057,0.0031446395,0.4,0.0020686972,0.0020622562,2.5446281e-05,197388,0.0026383693,0.0015467971,-0.00010843269,0.5,0.0014096639,0.0012216957,0.0012489358,1,1,1,0,1,0
48432000,48280000,1310988,-0.00011206197,0.00034361947,-0.0001644089,0.15,1.6087947e-07,1.6110677e-07,4.851792e-07,1310988,0.0025105022,-0.01679081,0.0030640184,0.4,0.0020675599,0.0020612886,2.4793986e-05,197388,0.0020679021,0.0015596569,-0.00010653717,0.5,0.0014047942,0.0012208754,0.001248785,1,1,1,0,1,0
49432000,49280000,1310988,-7.985695e-05,0.0003357287,-0.00017552428,0.15,1.6205189e-07,1.6246722e-07,4.7129825e-07,1310988,0.0021907843,-0.016950719,0.0030145706,0.4,0.0020668139,0.0020606911,2.4363182e-05,197388,0.0016219855,0.0014997943,-0.00010061735,0.5,0.001401469,0.0012197286,0.0012486398,1,1,1,0,1,0
50432000,50280000,1310988,-4.2327323e-05,0.00032339705,-0.00015756076,0.15,1.60207e-07,1.6078822e-07,4.5799354e-07,1310988,0.0018033045,-0.017065002,0.0029135577,0.4,0.0020658646,0.0020599077,2.3771418e-05,197388,0.0011795942,0.001595892,-0.00012492931,0.5,0.0013984558,0.0012183574,0.0012485016,1,1,1,0,1,0
51432000,51280000,1310988,-1.570241e-05,0.00032643529,-0.00017063296,0.15,1.6147277e-07,1.6211791e-07,4.4590206e-07,1310988,0.0016281771,-0.017261833,0.0029121658,0.4,0.002065294,0.0020594222,2.338136e-05,197388,0.0010491615,0.0015631032,-0.00011055184,0.5,0.0013967179,0.0012166606,0.0012483615,1,1,1,0,1,0
52432000,52280000,1310988,2.4554662e-05,0.00031808234,-0.00017178785,0.15,1.5971666e-07,1.6044147e-07,4.343359e-07,1310988,0.0012747637,-0.017428806,0.0028665583,0.4,0.0020645729,0.0020587821,2.283445e-05,197388,0.0006182813,0.001526733,-0.00013366672,0.5,0.0013946258,0.0012146481,0.0012482255,1,1,1,0,1,0
53432000,53280000,1310988,5.2088504e-05,0.0003111656,-0.00017604168,0.15,1.6105777e-07,1.6175227e-07,4.2387867e-07,1310988,0.0010417956,-0.017523354,0.0028737055,0.4,0.0020641242,0.002058377,2.2487195e-05,197388,0.00036159306,0.001445529,-0.00011372732,0.5,0.0013929536,0.0012125822,0.0012481156,1,1,1,0,1,0
54432000,54280000,1310988,7.992101e-05,0.000291463,-0.00016657464,0.15,1.5940557e-07,1.5989416e-07,4.1380375e-07,1310988,0.0007351705,-0.017513348,0.0028057073,0.4,0.0020634842,0.0020578452,2.198564e-05,197388,-0.00025556056,0.0014470452,-0.00012433242,0.5,0.0013891589,0.0012106119,0.0012480344,1,1,1,0,1,0
55432000,55280000,1310988,9.707222e-05,0.00028093054,-0.00016702684,0.15,1.6080901e-07,1.610834e-07,4.0469627e-07,1310988,0.0005849323,-0.017528338,0.002777043,0.4,0.0020630907,0.002057516,2.1662598e-05,197388,-0.0005945754,0.0014478695,-0.00011329105,0.5,0.0013846332,0.0012083567,0.0012479874,1,1,1,0,1,0
56432000,56280000,1310988,0.000116078074,0.00024639402,-0.00014976959,0.15,1.5925919e-07,1.5919692e-07,3.9587184e-07,1310988,0.00029176997,-0.017409323,0.0027384143,0.4,0.0020625624,0.0020570983,2.1215463e-05,197388,-0.0014672541,0.001497809,-0.00012431185,0.5,0.0013771787,0.0012058781,0.0012479043,1,1,1,0,1,0
57432000,57280000,1310988,0.00012851441,0.00022103511,-0.00014662344,0.15,1.6073177e-07,1.6044069e-07,3.8881385e-07,1310988,9.932143e-05,-0.017336514,0.0026873522,0.4,0.0020622576,0.0020568478,2.091406e-05,197388,-0.0020082416,0.0014304095,-0.000109736335,0.5,0.0013704952,0.0012032968,0.0012478044,1,1,1,0,1,0
58432000,58280000,1310988,0.00014991409,0.00018245996,-0.00011792828,0.15,1.5927377e-07,1.5867337e-07,3.8115903e-07,1310988,-0.00022571205,-0.017217632,0.0026135612,0.4,0.0020618353,0.0020565144,2.0497186e-05,197388,-0.0028802957,0.0015919642,-0.00013509387,0.5,0.0013607827,0.0012001006,0.0012477227,1,1,1,0,1,0
59432000,59280000,1310988,0.000164839,0.00015926377,-0.00012027713,0.15,1.6079994e-07,1.5999971e-07,3.7435055e-07,1310988,-0.00037298782,-0.017150346,0.0025544495,0.4,0.0020615957,0.0020563046,2.022548e-05,197388,-0.0033643849,0.001507617,-0.00012860281,0.5,0.001351305,0.0011963053,0.0012476386,1,1,1,0,1,0
60432000,60280000,1310988,0.00018325492,0.00011880395,-9.5316114e-05,0.15,1.5937218e-07,1.583602e-07,3.678542e-07,1310988,-0.0006376049,-0.017009577,0.0024872904,0.4,0.0020612865,0.0020560313,1.9840647e-05,197388,-0.0039420975,0.0016957382,-0.00014893585,0.5,0.0013414456,0.0011924437,0.0012475804,1,1,1,0,1,0
61432000,61280000,1310988,0.00020162696,8.105473e-05,-0.00010300139,0.15,1.6090101e-07,1.5980049e-07,3.6215846e-07,1310988,-0.0008392107,-0.016926337,0.0024611668,0.4,0.0020611375,0.0020558625,1.9592313e-05,197388,-0.0042234184,0.0015999309,-0.00015140482,0.5,0.001332686,0.0011882351,0.0012475336,1,1,1,0,1,0
62432000,62280000,1310988,0.00021796113,3.64133e-05,-9.0542286e-05,0.15,1.5943873e-07,1.5820223e-07,3.5668708e-07,1310988,-0.0010858935,-0.01676697,0.0024408118,0.4,0.0020609058,0.0020556303,1.9234678e-05,197388,-0.004757067,0.001686071,-0.000164803,0.5,0.001321875,0.0011837455,0.0012474888,1,1,1,0,1,0
63432000,63280000,1310988,0.00021879617,9.210506e-06,-7.045578e-05,0.15,1.6090293e-07,1.5961973e-07,3.5184792e-07,1310988,-0.0012004852,-0.01661455,0.0024298527,0.4,0.0020607924,0.002055473,1.9004865e-05,197388,-0.005247592,0.0019439872,-0.00016326488,0.5,0.0013111118,0.0011793848,0.0012474392,1,1,1,0,1,0
64432000,64280000,1310988,0.00021802158,-1.9152127e-05,-3.6933467e-05,0.15,1.5929716e-07,1.5805404e-07,3.4713702e-07,1310988,-0.0013224579,-0.016422028,0.0024359708,0.4,0.0020606276,0.0020552534,1.8673076e-05,197388,-0.006094106,0.0023638452,-0.00012228037,0.5,0.0012976747,0.0011745897,0.0012473519,1,1,1,0,1,0
65432000,65280000,1310988,0.0002103679,-3.9783386e-05,-1.7959035e-05,0.15,1.6063613e-07,1.5951382e-07,3.4305756e-07,1310988,-0.0013838597,-0.016312143,0.0024474561,0.4,0.0020605628,0.0020551034,1.8460469e-05,197388,-0.0065657767,0.0026667567,-9.984686e-05,0.5,0.0012833929,0.0011693108,0.0012472216,1,1,1,0,1,0
66432000,66280000,1310988,0.00020745822,-4.75323e-05,-9.8532e-06,0.15,1.5890326e-07,1.5802496e-07,3.3913983e-07,1310988,-0.0013980792,-0.016241865,0.0024632367,0.4,0.0020604688,0.002054896,1.815118e-05,197388,-0.007110725,0.0028772673,-5.7446676e-05,0.5,0.0012652559,0.0011636482,0.0012470679,1,1,1,0,1,0
67432000,67280000,1310988,0.00020108228,-5.2911237e-05,-3.267793e-06,0.15,1.6024902e-07,1.5952602e-07,3.3581676e-07,1310988,-0.0014001727,-0.016220327,0.002460079,0.4,0.002060435,0.0020547637,1.7954128e-05,197388,-0.0073414226,0.0029972375,-3.868066e-05,0.5,0.0012495341,0.0011583599,0.0012470077,1,1,1,0,1,0
68432000,68280000,1310988,0.00020050803,-4.457718e-05,1.4468293e-05,0.15,1.586208e-07,1.5805092e-07,3.3266923e-07,1310988,-0.0014006458,-0.016181717,0.0024549249,0.4,0.002060383,0.002054607,1.7669858e-05,197388,-0.0077621345,0.0032302085,-8.238925e-06,0.5,0.0012347469,0.0011531459,0.0012469413,1,1,1,0,1,0
69432000,69280000,1310988,0.0001971587,-3.6406436e-05,2.560522e-05,0.15,1.6006108e-07,1.5953985e-07,3.3006324e-07,1310988,-0.001417364,-0.016131368,0.0024886602,0.4,0.0020603773,0.0020545167,1.7482951e-05,197388,-0.008436758,0.0035023137,5.029721e-05,0.5,0.001220688,0.0011475537,0.0012468081,1,1,1,0,1,0
70432000,70280000,1310988,0.00019549426,-2.356162e-05,3.7709084e-05,0.15,1.5859632e-07,1.5806776e-07,3.275846e-07,1310988,-0.0014120202,-0.016135557,0.0025244309,0.4,0.0020603538,0.0020544024,1.721479e-05,197388,-0.008540076,0.0036509545,9.686075e-05,0.5,0.0012062558,0.0011420359,0.0012465981,1,1,1,0,1,0
71432000,71280000,1310988,0.00018836006,-6.942139e-06,5.1965897e-05,0.15,1.6017445e-07,1.5958341e-07,3.2549966e-07,1310988,-0.0014013714,-0.016148891,0.0025705402,0.4,0.0020603584,0.0020543393,1.7046232e-05,197388,-0.008509887,0.0037640748,0.00013530486,0.5,0.0011937402,0.0011375742,0.0012464019,1,1,1,0,1,0
72432000,72280000,1310988,0.00017823341,2.345816e-05,6.621133e-05,0.15,1.5932349e-07,1.5857601e-07,3.2399777e-07,1310988,-0.0013694252,-0.016153587,0.0026044755,0.4,0.0020603572,0.0020542801,1.6803611e-05,197388,-0.008855028,0.00407669,0.00020868503,0.5,0.0011826204,0.0011338275,0.0012462301,1,1,1,0,1,0
73432000,73280000,1310988,0.00018274652,5.970015e-05,7.577871e-05,0.15,1.5875577e-07,1.5780783e-07,3.2224978e-07,1310988,-0.0013308384,-0.016183792,0.0026169023,0.4,0.0020603698,0.0020542422,1.657817e-05,197388,-0.00918481,0.0040468564,0.00021221554,0.5,0.001172298,0.00112982,0.0012461024,1,1,1,0,1,0
74432000,74280000,1310988,0.00018010911,7.4209885e-05,8.435989e-05,0.15,1.6048489e-07,1.5942396e-07,3.2082045e-07,1310988,-0.0013413046,-0.016184159,0.0026483247,0.4,0.0020603987,0.0020542312,1.6433678e-05,197388,-0.009451657,0.0041599507,0.00022257013,0.5,0.0011639646,0.0011263235,0.001246038,1,1,1,0,1,0
75432000,75280000,1310988,0.00018208609,9.396114e-05,8.282984e-05,0.15,1.5904702e-07,1.5795523e-07,3.1943023e-07,1310988,-0.0013440411,-0.016201846,0.0027174307,0.4,0.002060419,0.0020542203,1.6209027e-05,197388,-0.00946817,0.0043339753,0.00022081545,0.5,0.0011549965,0.0011227307,0.0012460003,1,1,1,0,1,0
76432000,76280000,1310988,0.00017279193,0.00010832363,8.493538e-05,0.15,1.6045608e-07,1.5942786e-07,3.1832298e-07,1310988,-0.0013382992,-0.016192898,0.0027441308,0.4,0.0020604392,0.0020542184,1.6068654e-05,197388,-0.009320951,0.004432737,0.00021772107,0.5,0.0011456233,0.0011194922,0.0012459408,1,1,1,0,1,0
77432000,77280000,1310988,0.00017099356,0.00012321907,9.3751754e-05,0.15,1.5882797e-07,1.5792358e-07,3.1718952e-07,1310988,-0.0013348566,-0.016179837,0.002793115,0.4,0.0020604467,0.002054217,1.5853882e-05,197388,-0.009430575,0.0045635635,0.00022724448,0.5,0.0011349107,0.001116563,0.0012458921,1,1,1,0,1,0
78432000,78280000,1310988,0.00016103436,0.00013426656,9.7659096e-05,0.15,1.6025234e-07,1.5941197e-07,3.1627295e-07,1310988,-0.0013282464,-0.016174218,0.0028355788,0.4,0.0020604653,0.0020542215,1.5721744e-05,197388,-0.009253708,0.004554926,0.0002241004,0.5,0.0011260755,0.0011143776,0.0012458672,1,1,1,0,1,0
79432000,79280000,1310988,0.00015391334,0.00015248581,9.48136e-05,0.15,1.5870341e-07,1.5792388e-07,3.1529729e-07,1310988,-0.0013196557,-0.01617435,0.0029319571,0.4,0.0020604786,0.0020542287,1.551865e-05,197388,-0.0090269605,0.0046651247,0.00022989507,0.5,0.0011172723,0.001112504,0.0012458367,1,1,1,0,1,0
80432000,80280000,1310988,0.00014538768,0.0001635666,0.000103825645,0.15,1.6015031e-07,1.594128e-07,3.1447928e-07,1310988,-0.0013243695,-0.016166296,0.0029950181,0.4,0.0020605004,0.002054236,1.5395653e-05,197388,-0.008829517,0.0045677824,0.00021861249,0.5,0.0011100025,0.0011112371,0.0012458239,1,1,1,0,1,0
81432000,81280000,1310988,0.00014056296,0.00017133432,0.000109089306,0.15,1.5856381e-07,1.5791356e-07,3.1353508e-07,1310988,-0.0013263379,-0.016158396,0.003045895,0.4,0.0020605181,0.0020542333,1.5203994e-05,197388,-0.008760788,0.004483608,0.00020726329,0.5,0.001101757,0.0011103135,0.0012457985,1,1,1,0,1,0
82432000,82280000,1310988,0.00013198452,0.00016673269,0.00010738931,0.15,1.5996844e-07,1.5940228e-07,3.1278478e-07,1310988,-0.001345179,-0.016157426,0.0030884992,0.4,0.0020605423,0.0020542343,1.5085554e-05,197388,-0.00870713,0.00456904,0.00020650872,0.5,0.0010930314,0.001109585,0.0012457377,1,1,1,0,1,0
83432000,83280000,1310988,0.00011238402,0.00014880038,0.00010952828,0.15,1.5838287e-07,1.5792469e-07,3.1191786e-07,1310988,-0.0013891694,-0.016197825,0.003182771,0.4,0.00206056,0.0020542229,1.4908146e-05,197388,-0.008262905,0.0045519583,0.00023183851,0.5,0.0010801327,0.0011089825,0.0012456488,1,1,1,0,1,0
84432000,84280000,1310988,0.00010884794,0.00013187196,0.00010235664,0.15,1.5984544e-07,1.5941055e-07,3.1119126e-07,1310988,-0.0014059163,-0.016241899,0.0032377224,0.4,0.0020605847,0.002054217,1.4800313e-05,197388,-0.008265161,0.0046720714,0.00023166966,0.5,0.0010700166,0.0011085719,0.0012455793,1,1,1,0,1,0
85432000,85280000,1310988,9.809019e-05,0.000105326195,0.00011520505,0.15,1.5840054e-07,1.5791e-07,3.1037422e-07,1310988,-0.001454615,-0.016298778,0.003301444,0.4,0.0020606045,0.002054202,1.4626002e-05,197388,-0.007995569,0.0046771225,0.00022207612,0.5,0.0010567352,0.0011081643,0.0012455231,1,1,1,0,1,0
86432000,86280000,1310988,9.65147e-05,8.625507e-05,0.000115855546,0.15,1.5995485e-07,1.5938339e-07,3.096714e-07,1310988,-0.001473851,-0.016345136,0.0033355213,0.4,0.0020606322,0.0020541996,1.4525186e-05,197388,-0.007825344,0.0047468515,0.00021746723,0.5,0.001048331,0.0011078718,0.0012454946,1,1,1,0,1,0
87432000,87280000,1310988,8.416243e-05,5.9958897e-05,0.00012224604,0.15,1.5858045e-07,1.5787445e-07,3.0888052e-07,1310988,-0.0015176471,-0.016398367,0.003403196,0.4,0.0020606518,0.002054187,1.436282e-05,197388,-0.0076557267,0.004818239,0.00021250179,0.5,0.0010397997,0.0011075416,0.0012454478,1,1,1,0,1,0
88432000,88280000,1310988,7.285619e-05,4.88597e-05,0.00012680958,0.15,1.601178e-07,1.5935446e-07,3.0826104e-07,1310988,-0.0015602317,-0.016413504,0.0034565574,0.4,0.0020606727,0.0020541963,1.4267594e-05,197388,-0.0076116887,0.0048481086,0.0002170087,0.5,0.0010339333,0.001107251,0.0012454,1,1,1,0,1,0
89432000,89280000,1310988,6.488119e-05,3.287849e-05,0.00013066074,0.15,1.5864177e-07,1.5785507e-07,3.075358e-07,1310988,-0.0016044492,-0.016437523,0.0035061324,0.4,0.0020606846,0.0020542026,1.41133205e-05,197388,-0.0076958044,0.0048632706,0.00022286345,0.5,0.0010287173,0.0011069834,0.0012453638,1,1,1,0,1,0
90432000,90280000,1310988,5.0589115e-05,2.2760632e-05,0.00013251974,0.15,1.601093e-07,1.5934027e-07,3.070067e-07,1310988,-0.0016295589,-0.016442353,0.0035082782,0.4,0.002060709,0.002054225,1.40242455e-05,197388,-0.0078005665,0.0048838435,0.00023078283,0.5,0.0010239276,0.0011067254,0.0012453296,1,1,1,0,1,0
91432000,91280000,1310988,3.584936e-05,4.640714e-06,0.00013907772,0.15,1.5858829e-07,1.5786085e-07,3.0637577e-07,1310988,-0.0016649829,-0.016446255,0.0035055,0.4,0.0020607298,0.0020542515,1.3877809e-05,197388,-0.007937181,0.004849116,0.00022978787,0.5,0.0010191733,0.0011064427,0.0012452618,1,1,1,0,1,0
92432000,92280000,1310988,1.9370358e-05,2.9264563e-06,0.00014561725,0.15,1.6003847e-07,1.5935773e-07,3.0592264e-07,1310988,-0.0016937446,-0.01644465,0.0035336674,0.4,0.002060764,0.002054286,1.3796602e-05,197388,-0.0080386605,0.0047956016,0.00022362484,0.5,0.0010144716,0.0011061524,0.0012451845,1,1,1,0,1,0
93432000,93280000,1310988,-1.032531e-05,-6.092881e-06,0.00014605522,0.15,1.584908e-07,1.578833e-07,3.0538246e-07,1310988,-0.0017299799,-0.016436815,0.0035545786,0.4,0.0020607957,0.0020543227,1.3656908e-05,197388,-0.008315007,0.0048202826,0.00022395777,0.5,0.0010096059,0.0011058496,0.0012450985,1,1,1,0,1,0
94432000,94280000,1310988,-3.2276414e-05,-4.782582e-06,0.00014446506,0.15,1.5993842e-07,1.5938507e-07,3.0505333e-07,1310988,-0.0017407915,-0.016425489,0.0035479926,0.4,0.002060834,0.0020543633,1.3575641e-05,197388,-0.008560575,0.004797665,0.00022323836,0.5,0.0010044199,0.0011055206,0.001244997,1,1,1,0,1,0
95432000,95280000,1310988,-6.66435e-05,-4.9529126e-06,0.00015380871,0.15,1.5842306e-07,1.5794774e-07,3.0463568e-07,1310988,-0.0017583721,-0.016400712,0.0035476307,0.4,0.0020608706,0.0020544017,1.3443923e-05,197388,-0.008988817,0.0047325157,0.00023451148,0.5,0.0009990106,0.001105188,0.001244894,1,1,1,0,1,0
96432000,96280000,1310988,-9.54759e-05,2.0001612e-06,0.00015348109,0.15,1.5988961e-07,1.594688e-07,3.0441825e-07,1310988,-0.001750844,-0.01640024,0.0035514166,0.4,0.0020609135,0.002054439,1.3369968e-05,197388,-0.009187466,0.0047518923,0.00022342708,0.5,0.0009934432,0.0011047878,0.0012447578,1,1,1,0,1,0
97432000,97280000,1310988,-0.00013803586,1.0813631e-05,0.00015334829,0.15,1.5840183e-07,1.5806268e-07,3.0411832e-07,1310988,-0.0017198243,-0.016398203,0.0035480608,0.4,0.0020609493,0.0020544666,1.3243948e-05,197388,-0.009471483,0.004707857,0.00019924724,0.5,0.0009873572,0.0011044128,0.0012446824,1,1,1,0,1,0
98432000,98280000,1310988,-0.0001564474,1.5002342e-05,0.00015717125,0.15,1.5988682e-07,1.5958493e-07,3.039707e-07,1310988,-0.0016976215,-0.016395357,0.0035332837,0.4,0.002060988,0.002054501,1.3174585e-05,197388,-0.009641214,0.0047220835,0.0001823932,0.5,0.00098259,0.0011041127,0.0012446648,1,1,1,0,1,0
99432000,99280000,1310988,-0.00017240879,2.72448e-05,0.0001579807,0.15,1.5839952e-07,1.5806376e-07,3.0370953e-07,1310988,-0.0016661666,-0.016403634,0.0035060502,0.4,0.0020610185,0.0020545316,1.3054812e-05,197388,-0.009647551,0.0047633275,0.00016874804,0.5,0.0009777806,0.0011038186,0.0012446389,1,1,1,0,1,0
100432000,100280000,1310988,-0.00018133222,2.8047898e-05,0.00014782597,0.15,1.5989671e-07,1.594894e-07,3.036402e-07,1310988,-0.0016580274,-0.016410483,0.0034986294,0.4,0.0020610536,0.002054568,1.2989593e-05,197388,-0.009677936,0.0048790686,0.00017149671,0.5,0.0009719852,0.001103442,0.001244602,1,1,1,0,1,0
101432000,101280000,1310988,-0.00019579461,4.020703e-05,0.00014153087,0.15,1.584301e-07,1.5794134e-07,3.0343085e-07,1310988,-0.0016465307,-0.016432997,0.0034681638,0.4,0.0020610804,0.0020545998,1.2874648e-05,197388,-0.009733734,0.0048671784,0.0001570192,0.5,0.0009661364,0.0011030773,0.0012445892,1,1,1,0,1,0
102432000,102280000,1310988,-0.00020991567,5.3464588e-05,0.00014232709,0.15,1.5991168e-07,1.5938618e-07,3.0333783e-07,1310988,-0.0016396034,-0.016438907,0.0034737615,0.4,0.0020611198,0.0020546396,1.2810848e-05,197388,-0.00977257,0.0048631267,0.00015362841,0.5,0.00096110016,0.0011027554,0.0012445719,1,1,1,0,1,0
103432000,103280000,1310988,-0.00022385648,7.1124574e-05,0.00014670148,0.15,1.5843203e-07,1.5785642e-07,3.031012e-07,1310988,-0.0016345134,-0.016446153,0.0034624308,0.4,0.002061159,0.002054679,1.2701802e-05,197388,-0.010025948,0.0048240805,0.00015608099,0.5,0.00095609453,0.0011024408,0.0012445473,1,1,1,0,1,0
104432000,104280000,1310988,-0.00022794644,8.088186e-05,0.00014240545,0.15,1.5991743e-07,1.5932612e-07,3.030135e-07,1310988,-0.0016239741,-0.01645982,0.0034618708,0.4,0.0020612034,0.002054723,1.2644298e-05,197388,-0.009959704,0.0048486823,0.00015381332,0.5,0.00095138536,0.0011021333,0.0012445318,1,1,1,0,1,0
105432000,105280000,1310988,-0.00023499613,9.4088005e-05,0.00015072184,0.15,1.5842835e-07,1.5782395e-07,3.02763e-07,1310988,-0.0016181384,-0.016460316,0.0034348024,0.4,0.0020612453,0.0020547654,1.2539588e-05,197388,-0.009908348,0.0048343455,0.00016515657,0.5,0.00094655494,0.0011018487,0.0012445042,1,1,1,0,1,0
106432000,106280000,1310988,-0.00023759253,0.00010145505,0.00014943059,0.15,1.5990837e-07,1.5931684e-07,3.0262683e-07,1310988,-0.0016110662,-0.016468327,0.0034369978,0.4,0.0020612874,0.0020548098,1.2485279e-05,197388,-0.00977585,0.0048471866,0.00017583036,0.5,0.000941839,0.0011015913,0.001244476,1,1,1,0,1,0
107432000,107280000,1310988,-0.00022936697,0.00011400729,0.00014343984,0.15,1.5842227e-07,1.5786036e-07,3.0235236e-07,1310988,-0.0016025743,-0.016474113,0.00341708,0.4,0.0020613272,0.0020548536,1.2384828e-05,197388,-0.009782843,0.0048846817,0.00019562723,0.5,0.0009365248,0.0011013089,0.001244417,1,1,1,0,1,0
108432000,108280000,1310988,-0.00021717077,0.0001191671,0.00014001141,0.15,1.599021e-07,1.5937567e-07,3.0220988e-07,1310988,-0.0015967692,-0.016478932,0.0034030995,0.4,0.0020613682,0.0020548983,1.2333506e-05,197388,-0.00990088,0.004867278,0.00019629212,0.5,0.00093165913,0.0011010226,0.0012443409,1,1,1,0,1,0
109432000,109280000,1310988,-0.0001853976,0.00012531111,0.0001276875,0.15,1.584025e-07,1.5798094e-07,3.0197245e-07,1310988,-0.0015856179,-0.016482117,0.0033749144,0.4,0.0020614036,0.0020549463,1.2235666e-05,197388,-0.010135633,0.0048890226,0.00021477514,0.5,0.0009246656,0.0011006462,0.0012441984,1,1,1,0,1,0
110432000,110280000,1310988,-0.0001608687,0.00012969387,0.00011742949,0.15,1.5987207e-07,1.5957222e-07,3.0190085e-07,1310988,-0.0015784549,-0.016487276,0.0033463435,0.4,0.0020614394,0.0020549966,1.2189407e-05,197388,-0.010199196,0.0048998925,0.00027622088,0.5,0.00091748836,0.0011001728,0.0012439523,1,1,1,0,1,0
111432000,111280000,1310988,-0.000107976164,0.00014093216,0.00010446638,0.15,1.5835845e-07,1.583054e-07,3.017291e-07,1310988,-0.0015823289,-0.0164929,0.0033240956,0.4,0.002061468,0.0020550468,1.2097032e-05,197388,-0.010535556,0.004852323,0.00031696263,0.5,0.0009079056,0.0010996216,0.0012436953,1,1,1,0,1,0
112432000,112280000,1310988,-6.545327e-05,0.00014607399,9.9923345e-05,0.15,1.598359e-07,1.599773e-07,3.0170338e-07,1310988,-0.0015813201,-0.016507735,0.0032879335,0.4,0.0020615014,0.0020550976,1.2051326e-05,197388,-0.010623336,0.0047707553,0.0003976273,0.5,0.00089988025,0.0010990092,0.0012433475,1,1,1,0,1,0
113432000,113280000,1310988,5.78836e-07,0.00015027852,9.975364e-05,0.15,1.5834131e-07,1.5877586e-07,3.0154618e-07,1310988,-0.0016001425,-0.016514828,0.0032371134,0.4,0.0020615293,0.0020551481,1.1962619e-05,197388,-0.0109356595,0.0046125706,0.0004312701,0.5,0.00089111336,0.001098378,0.0012429712,1,1,1,0,1,0
114432000,114280000,1310988,4.529478e-05,0.00015592638,0.00010701869,0.15,1.5983035e-07,1.6046208e-07,3.0147166e-07,1310988,-0.0015967401,-0.016517386,0.0032014686,0.4,0.0020615638,0.0020551987,1.1919491e-05,197388,-0.010807868,0.00452999,0.0005046967,0.5,0.0008844045,0.0010978355,0.0012426061,1,1,1,0,1,0
115432000,115280000,1310988,9.9449106e-05,0.00015327803,9.829487e-05,0.15,1.5835109e-07,1.5918233e-07,3.0128257e-07,1310988,-0.0016226568,-0.016510593,0.003155605,0.4,0.002061598,0.0020552522,1.1834732e-05,197388,-0.011172414,0.004545947,0.00046691738,0.5,0.00087781786,0.0010974995,0.0012424911,1,1,1,0,1,0
116432000,116280000,1310988,0.00013636755,0.00015133743,9.598579e-05,0.15,1.5983434e-07,1.6066538e-07,3.012507e-07,1310988,-0.0016471337,-0.016495042,0.0031327973,0.4,0.002061638,0.0020553041,1.1794286e-05,197388,-0.011552046,0.004571876,0.00042173298,0.5,0.0008720412,0.0010971961,0.0012424494,1,1,1,0,1,0
117432000,117280000,1310988,0.00017713422,0.00016377865,0.000101382706,0.15,1.5837587e-07,1.5900387e-07,3.0107174e-07,1310988,-0.0016547514,-0.01648086,0.0030990413,0.4,0.0020616741,0.0020553535,1.1712806e-05,197388,-0.0116247395,0.0045386082,0.00038840153,0.5,0.00086549815,0.0010968915,0.0012424225,1,1,1,0,1,0
118432000,118280000,1310988,0.00019721997,0.00016563453,9.766311e-05,0.15,1.5985486e-07,1.6027047e-07,3.0101148e-07,1310988,-0.001650135,-0.016484883,0.0031050288,0.4,0.002061711,0.0020554038,1.1672974e-05,197388,-0.011589854,0.0045545413,0.00037381527,0.5,0.0008591313,0.0010966003,0.001242396,1,1,1,0,1,0
119432000,119280000,1310988,0.00021510804,0.00018830328,0.000103995895,0.15,1.5837016e-07,1.5842777e-07,3.0072624e-07,1310988,-0.0016206923,-0.016483469,0.0030684345,0.4,0.0020617368,0.0020554543,1.1596762e-05,197388,-0.011191849,0.0045621996,0.00036711385,0.5,0.0008516643,0.0010963302,0.0012423665,1,1,1,0,1,0
120432000,120280000,1310988,0.00022096772,0.00019480534,0.000106304135,0.15,1.5985782e-07,1.5969785e-07,3.0051217e-07,1310988,-0.0015966342,-0.016480934,0.0030329765,0.4,0.0020617617,0.0020555055,1.1560961e-05,197388,-0.0108997,0.0046064463,0.0003740343,0.5,0.00084536517,0.0010960522,0.0012423426,1,1,1,0,1,0
121432000,121280000,1310988,0.00022044627,0.00021494094,0.00010830672,0.15,1.5837642e-07,1.5797698e-07,3.0008056e-07,1310988,-0.0015682785,-0.01646509,0.0029941518,0.4,0.0020617752,0.0020555556,1.1483736e-05,197388,-0.010540468,0.004629001,0.00038112927,0.5,0.0008381665,0.0010956798,0.0012423253,1,1,1,0,1,0
122432000,122280000,1310988,0.00021778136,0.00022200467,0.000112523725,0.15,1.5986276e-07,1.5937127e-07,2.997505e-07,1310988,-0.0015606346,-0.016455628,0.0029890898,0.4,0.0020617954,0.002055603,1.1450156e-05,197388,-0.010387121,0.0046127024,0.00039150257,0.5,0.00083279057,0.0010952315,0.0012422927,1,1,1,0,1,0
123432000,123280000,1310988,0.00019995177,0.0002306846,0.00010769875,0.15,1.5838204e-07,1.5784683e-07,2.9926449e-07,1310988,-0.0015685565,-0.016443599,0.0029679441,0.4,0.0020618066,0.0020556427,1.1377913e-05,197388,-0.010239236,0.0046732407,0.0004032197,0.5,0.0008266812,0.0010947053,0.0012422621,1,1,1,0,1,0
124432000,124280000,1310988,0.00019131992,0.00022535697,0.0001006201,0.15,1.5986336e-07,1.5935763e-07,2.989513e-07,1310988,-0.0015764277,-0.016442819,0.002943939,0.4,0.0020618339,0.0020556843,1.1346054e-05,197388,-0.010242687,0.004735882,0.0004108609,0.5,0.000822443,0.0010942541,0.0012422411,1,1,1,0,1,0
125432000,125280000,1310988,0.00018209392,0.00022854893,8.533179e-05,0.15,1.5836432e-07,1.579382e-07,2.9849605e-07,1310988,-0.0015736406,-0.016440857,0.002938793,0.4,0.002061863,0.00205572,1.12778225e-05,197388,-0.010100795,0.0048635527,0.00043824824,0.5,0.00081823353,0.0010937401,0.0012421558,1,1,1,0,1,0
126432000,126280000,1310988,0.00016585735,0.00022545157,7.743295e-05,0.15,1.5984327e-07,1.5948561e-07,2.9820023e-07,1310988,-0.0015888069,-0.016449267,0.0029299706,0.4,0.002061901,0.002055762,1.1247878e-05,197388,-0.01016364,0.004920258,0.00047266274,0.5,0.00081432343,0.0010932233,0.0012420504,1,1,1,0,1,0
127432000,127280000,1310988,0.00014832534,0.00020487267,7.5441814e-05,0.15,1.5835249e-07,1.5808774e-07,2.9775177e-07,1310988,-0.0016015734,-0.016468478,0.0029087176,0.4,0.0020619363,0.0020558005,1.1178725e-05,197388,-0.0100305565,0.0049488503,0.0004919244,0.5,0.0008093763,0.0010926023,0.0012419301,1,1,1,0,1,0
128432000,128280000,1310988,0.00013568757,0.00019378628,6.723344e-05,0.15,1.5985773e-07,1.5963042e-07,2.9744317e-07,1310988,-0.0016093998,-0.016485464,0.0028897382,0.4,0.0020619766,0.0020558438,1.1150968e-05,197388,-0.009982538,0.0050271023,0.00051668653,0.5,0.0008054933,0.0010919601,0.0012418384,1,1,1,0,1,0
129432000,129280000,1310988,0.00011581864,0.0001661363,6.964577e-05,0.15,1.5841951e-07,1.5818915e-07,2.9701602e-07,1310988,-0.0016258185,-0.016509928,0.0028871582,0.4,0.0020620169,0.0020558839,1.1086673e-05,197388,-0.009845867,0.0050314413,0.00052409206,0.5,0.0008014352,0.0010912792,0.0012417779,1,1,1,0,1,0
130432000,130280000,1310988,0.00010120938,0.00015216852,6.452873e-05,0.15,1.5995504e-07,1.5969849e-07,2.9672543e-07,1310988,-0.0016337945,-0.016525233,0.002882697,0.4,0.0020620592,0.002055928,1.1060713e-05,197388,-0.009722836,0.005091398,0.00052534987,0.5,0.0007983427,0.00109055,0.0012417296,1,1,1,0,1,0
131432000,131280000,1310988,9.2122595e-05,0.00012293478,5.5336644e-05,0.15,1.585431e-07,1.5817677e-07,2.9631826e-07,1310988,-0.0016253741,-0.016557697,0.0028850175,0.4,0.0020620998,0.002055968,1.0998191e-05,197388,-0.009467744,0.005206799,0.00052479573,0.5,0.0007946217,0.0010898234,0.001241695,1,1,1,0,1,0
132432000,132280000,1310988,8.692059e-05,0.00010216959,5.052777e-05,0.15,1.6007557e-07,1.5960639e-07,2.960356e-07,1310988,-0.0016157378,-0.01657728,0.002890669,0.4,0.0020621414,0.0020560115,1.0973705e-05,197388,-0.009288732,0.005287363,0.000536978,0.5,0.0007914871,0.0010890071,0.0012416653,1,1,1,0,1,0
133432000,133280000,1310988,8.4822525e-05,8.601723e-05,6.4999615e-05,0.15,1.5862157e-07,1.5804437e-07,2.9559746e-07,1310988,-0.0016158394,-0.01660132,0.0029151468,0.4,0.0020621787,0.0020560494,1.0911815e-05,197388,-0.009112923,0.005200321,0.0005305402,0.5,0.0007888099,0.0010879687,0.001241654,1,1,1,0,1,0
134432000,134280000,1310988,7.715272e-05,7.3607196e-05,6.976398e-05,0.15,1.601078e-07,1.594876e-07,2.952991e-07,1310988,-0.0016133013,-0.016619219,0.0029175754,0.4,0.002062217,0.0020560904,1.0890353e-05,197388,-0.0090014385,0.005172202,0.0005245045,0.5,0.0007868753,0.0010868075,0.0012416411,1,1,1,0,1,0
135432000,135280000,1310988,7.001278e-05,5.7752593e-05,7.605558e-05,0.15,1.5858087e-07,1.5794835e-07,2.9488663e-07,1310988,-0.0016204434,-0.016636612,0.0029308982,0.4,0.0020622492,0.0020561249,1.0830383e-05,197388,-0.008915038,0.005104632,0.00051397464,0.5,0.0007850676,0.0010856657,0.0012416231,1,1,1,0,1,0
136432000,136280000,1310988,5.4095286e-05,5.3194537e-05,7.3609335e-05,0.15,1.6002824e-07,1.5941376e-07,2.946285e-07,1310988,-0.001642025,-0.016641764,0.002945432,0.4,0.0020622893,0.0020561675,1.0808694e-05,197388,-0.009053489,0.005122599,0.00051822653,0.5,0.0007836061,0.0010846512,0.0012415929,1,1,1,0,1,0
137432000,137280000,1310988,3.2733355e-05,3.7770216e-05,7.150811e-05,0.15,1.5849466e-07,1.5791483e-07,2.9424456e-07,1310988,-0.0016788784,-0.016655127,0.002968052,0.4,0.0020623275,0.0020562098,1.0752569e-05,197388,-0.009187807,0.0051087085,0.0005159392,0.5,0.000782229,0.0010836708,0.00124156,1,1,1,0,1,0
138432000,138280000,1310988,1.7431574e-05,2.9929972e-05,7.808607e-05,0.15,1.5995694e-07,1.5940773e-07,2.9404956e-07,1310988,-0.0017021658,-0.016660342,0.0029790637,0.4,0.0020623757,0.0020562585,1.0732373e-05,197388,-0.009299183,0.005025426,0.0005140188,0.5,0.0007807226,0.0010829418,0.0012415445,1,1,1,0,1,0
139432000,139280000,1310988,-8.895093e-06,2.9098239e-05,7.07816e-05,0.15,1.584427e-07,1.5792673e-07,2.9332585e-07,1310988,-0.0017183222,-0.016661007,0.0029898877,0.4,0.002062427,0.0020563083,1.0678004e-05,197388,-0.00941084,0.0050622113,0.00050545327,0.5,0.000779184,0.0010822507,0.0012415333,1,1,1,0,1,0
140432000,140280000,1310988,-2.0670275e-05,2.8420953e-05,7.5134936e-05,0.15,1.5991141e-07,1.5940823e-07,2.9319358e-07,1310988,-0.0017208082,-0.016663777,0.0029900074,0.4,0.0020624837,0.0020563598,1.0659177e-05,197388,-0.0094150435,0.005033968,0.0005013301,0.5,0.00077781896,0.001081698,0.0012415235,1,1,1,0,1,0
141432000,141280000,1310988,-3.773914e-05,2.6379676e-05,7.742521e-05,0.15,1.584065e-07,1.5791011e-07,2.9294452e-07,1310988,-0.0017192303,-0.016665393,0.0029730147,0.4,0.0020625398,0.0020564112,1.0606409e-05,197388,-0.0094508305,0.0050096526,0.00049818633,0.5,0.0007764826,0.0010811469,0.0012415092,1,1,1,0,1,0
142432000,142280000,1310988,-4.472398e-05,3.1110347e-05,8.763356e-05,0.15,1.5988877e-07,1.5939102e-07,2.9283873e-07,1310988,-0.0017205237,-0.016672406,0.0029792006,0.4,0.002062596,0.0020564622,1.05887575e-05,197388,-0.00943083,0.0049341223,0.0005109748,0.5,0.0007753429,0.0010805905,0.001241476,1,1,1,0,1,0
143432000,143280000,1310988,-5.72019e-05,4.1401214e-05,9.916086e-05,0.15,1.584064e-07,1.5788422e-07,2.92613e-07,1310988,-0.001720135,-0.016685747,0.0029590612,0.4,0.0020626506,0.0020565132,1.0537641e-05,197388,-0.009461272,0.00485064,0.00052888744,0.5,0.00077386125,0.0010800309,0.0012414171,1,1,1,0,1,0
144432000,144280000,1310988,-6.2766565e-05,5.506989e-05,0.00010413091,0.15,1.5992423e-07,1.5937395e-07,2.9254363e-07,1310988,-0.0017293049,-0.016691988,0.0029608903,0.4,0.0020627056,0.002056564,1.0519897e-05,197388,-0.009554708,0.0047943434,0.00055067084,0.5,0.0007724821,0.0010795713,0.00124136,1,1,1,0,1,0
145432000,145280000,1310988,-6.3935506e-05,7.124728e-05,0.00011095133,0.15,1.5846243e-07,1.5786155e-07,2.9235153e-07,1310988,-0.0017413707,-0.016700676,0.0029798504,0.4,0.002062758,0.0020566164,1.04709425e-05,197388,-0.009630218,0.0047648987,0.0005430293,0.5,0.0007710304,0.0010790947,0.0012413345,1,1,1,0,1,0
146432000,146280000,1310988,-7.031653e-05,7.943142e-05,0.00011966695,0.15,1.5999179e-07,1.5936061e-07,2.9230165e-07,1310988,-0.0017524713,-0.01670261,0.0030101382,0.4,0.0020628131,0.0020566694,1.0455675e-05,197388,-0.009721443,0.0046938458,0.0005479847,0.5,0.00077011733,0.0010786079,0.0012413213,1,1,1,0,1,0
147432000,147280000,1310988,-7.8568075e-05,9.030115e-05,0.00012535797,0.15,1.5851907e-07,1.5786284e-07,2.921195e-07,1310988,-0.001756416,-0.016705683,0.0030300054,0.4,0.0020628688,0.0020567244,1.0408198e-05,197388,-0.00976919,0.0046594925,0.0005452474,0.5,0.0007694064,0.0010781492,0.0012413048,1,1,1,0,1,0
148432000,148280000,1310988,-8.5357045e-05,9.57607e-05,0.00012520264,0.15,1.5998094e-07,1.5933158e-07,2.9206745e-07,1310988,-0.0017575669,-0.01670523,0.0030457238,0.4,0.0020629251,0.0020567793,1.0392438e-05,197388,-0.009774737,0.0046496433,0.0005474456,0.5,0.0007688405,0.0010776677,0.0012412776,1,1,1,0,1,0
149432000,149280000,1310988,-9.588474e-05,8.836145e-05,0.00013578999,0.15,1.5843722e-07,1.5782395e-07,2.918876e-07,1310988,-0.0017505703,-0.016702875,0.003033669,0.4,0.0020629785,0.0020568355,1.0346397e-05,197388,-0.009713969,0.004621107,0.00055563037,0.5,0.00076778256,0.0010771975,0.0012412254,1,1,1,0,1,0
150432000,150280000,1310988,-0.00010325758,8.490577e-05,0.00014469298,0.15,1.598917e-07,1.5930617e-07,2.918446e-07,1310988,-0.0017474034,-0.016703742,0.003039386,0.4,0.0020630336,0.0020568937,1.0333129e-05,197388,-0.00964652,0.0045824484,0.00054778747,0.5,0.0007667596,0.001076616,0.0012411849,1,1,1,0,1,0
151432000,151280000,1310988,-0.00011292553,7.320088e-05,0.0001393513,0.15,1.583694e-07,1.5781526e-07,2.9168746e-07,1310988,-0.0017400242,-0.016707445,0.003026283,0.4,0.0020630865,0.0020569512,1.0288065e-05,197388,-0.009522374,0.0045949174,0.00054228574,0.5,0.000764752,0.0010760651,0.0012411522,1,1,1,0,1,0
152432000,152280000,1310988,-0.00011604213,5.7060348e-05,0.00013810005,0.15,1.5985107e-07,1.5930118e-07,2.9168316e-07,1310988,-0.0017404178,-0.016709292,0.0030208852,0.4,0.0020631426,0.002057009,1.027704e-05,197388,-0.009516356,0.004591906,0.0005456426,0.5,0.0007634059,0.0010756269,0.0012410895,1,1,1,0,1,0
153432000,153280000,1310988,-0.00012212686,3.5453453e-05,0.0001311173,0.15,1.583758e-07,1.5781038e-07,2.9155538e-07,1310988,-0.0017390781,-0.016711378,0.0030094313,0.4,0.002063195,0.0020570667,1.0233033e-05,197388,-0.009437986,0.0046145692,0.000550428,0.5,0.00076117547,0.0010752382,0.0012410373,1,1,1,0,1,0
154432000,154280000,1310988,-0.00013269242,2.1734693e-05,0.00011053962,0.15,1.5988509e-07,1.5929908e-07,2.9156917e-07,1310988,-0.001735575,-0.016709363,0.0029772944,0.4,0.0020632495,0.0020571249,1.0220138e-05,197388,-0.00938636,0.00468444,0.00056325813,0.5,0.0007595614,0.0010749467,0.0012409958,1,1,1,0,1,0
155432000,155280000,1310988,-0.00013819679,3.2006515e-06,0.0001111001,0.15,1.5844138e-07,1.5781801e-07,2.914663e-07,1310988,-0.0017287761,-0.016708512,0.0029594933,0.4,0.002063302,0.0020571824,1.0177967e-05,197388,-0.009307828,0.0046897507,0.00056376035,0.5,0.0007578847,0.0010747013,0.001240979,1,1,1,0,1,0
156432000,156280000,1310988,-0.00014036059,-1.6569403e-06,0.0001101994,0.15,1.5995415e-07,1.5931253e-07,2.91501e-07,1310988,-0.001721855,-0.016711716,0.0029499873,0.4,0.0020633575,0.0020572396,1.0167766e-05,197388,-0.00919694,0.004683444,0.00056722696,0.5,0.00075676036,0.0010744776,0.0012409578,1,1,1,0,1,0
157432000,157280000,1310988,-0.00014772642,-6.5952418e-06,0.00011992485,0.15,1.5846976e-07,1.5783148e-07,2.9101113e-07,1310988,-0.0017154815,-0.016715363,0.0029466574,0.4,0.0020634136,0.0020572967,1.0126846e-05,197388,-0.009091198,0.0046363743,0.00059108937,0.5,0.0007555374,0.001074235,0.001240896,1,1,1,0,1,0
158432000,158280000,1310988,-0.00014045759,-1.6721872e-07,0.0001198825,0.15,1.5994115e-07,1.5932547e-07,2.9108037e-07,1310988,-0.0017171631,-0.016717361,0.0029311515,0.4,0.0020634704,0.0020573542,1.0117486e-05,197388,-0.009088119,0.004624764,0.000602909,0.5,0.0007542485,0.001074047,0.001240846,1,1,1,0,1,0
159432000,159280000,1310988,-0.00013739605,1.553811e-05,0.00013416368,0.15,1.5843702e-07,1.5784894e-07,2.910243e-07,1310988,-0.0017172509,-0.016723154,0.00293026,0.4,0.0020635251,0.0020574122,1.007743e-05,197388,-0.009044953,0.004584185,0.00063418504,0.5,0.0007525335,0.0010737928,0.0012407531,1,1,1,0,1,0
160432000,160280000,1310988,-0.00013033979,2.3262148e-05,0.00014332442,0.15,1.5991992e-07,1.5934137e-07,2.9109563e-07,1310988,-0.0017156079,-0.016727874,0.0029329655,0.4,0.0020635794,0.0020574704,1.0067392e-05,197388,-0.008956231,0.0045496044,0.0006651876,0.5,0.00075105304,0.0010735281,0.0012406764,1,1,1,0,1,0
