timestamp,timestamp_sample,lat,lon,alt,alt_ellipsoid,delta_alt,delta_terrain,eph,epv,terrain_alt,lat_lon_valid,alt_valid,lat_lon_reset_counter,alt_reset_counter,terrain_reset_counter,terrain_alt_valid,dead_reckoning
3056000,3056000,47.39775077893801,8.545607413956885,488.11017,488.11017,488.10492,488.10492,2.0000362,1.0000935,488.00812,0,1,2,3,3,0,1
3064000,3064000,47.397750778794766,8.54560741459525,488.11023,488.11023,488.10492,488.10492,2.0000393,1.000101,488.00818,0,1,2,3,3,0,1
3072000,3072000,47.3977507786541,8.545607415231455,488.1103,488.1103,488.10492,488.10492,2.0000424,1.0001088,488.00824,0,1,2,3,3,0,1
3080000,3080000,47.397750778523736,8.545607415884318,488.11032,488.11032,488.10492,488.10492,2.000046,1.0001171,488.0083,0,1,2,3,3,0,1
3088000,3088000,47.39775077845336,8.545607416539278,488.11038,488.11038,488.10492,488.10492,2.0000496,1.0001256,488.00836,0,1,2,3,3,0,1
3096000,3096000,47.39775077838205,8.545607417223824,488.11044,488.11044,488.10492,488.10492,2.0000532,1.0001345,488.00842,0,1,2,3,3,0,1
3104000,3104000,47.39775077826982,8.545607417871636,488.11047,488.11047,488.10492,488.10492,2.0000572,1.0001438,488.00848,0,1,2,3,3,0,1
3112000,3112000,47.3977507781294,8.545607418460392,488.11053,488.11053,488.10492,488.10492,2.0000613,1.0001534,488.00858,0,1,2,3,3,0,1
3120000,3120000,47.39775077797262,8.5456074190158,488.11057,488.11057,488.10492,488.10492,2.0000658,1.0001636,488.00867,0,1,2,3,3,0,1
3128000,3128000,47.397750777797405,8.545607419550658,488.11063,488.11063,488.10492,488.10492,2.0000703,1.0001739,488.00876,0,1,2,3,3,0,1
3136000,3136000,47.397750777611556,8.545607420052068,488.11066,488.11066,488.10492,488.10492,2.000075,1.0001848,488.00885,0,1,2,3,3,0,1
3144000,3144000,47.39775077743324,8.54560742056616,488.1107,488.1107,488.10492,488.10492,2.00008,1.000196,488.00894,0,1,2,3,3,0,1
3152000,3152000,47.397750777311984,8.545607421325311,488.11072,488.11072,488.10492,488.10492,2.0000834,1.0002077,488.009,0,1,2,3,3,0,1
3160000,3160000,47.39775077721618,8.545607422174243,488.11075,488.11075,488.10492,488.10492,2.0000887,1.0002197,488.00906,0,1,2,3,3,0,1
3168000,3168000,47.397750777117146,8.545607423072626,488.11078,488.11078,488.10492,488.10492,2.0000944,1.0002321,488.00912,0,1,2,3,3,0,1
3176000,3176000,47.397750777010586,8.545607424017883,488.1108,488.1108,488.10492,488.10492,2.0001001,1.0002451,488.0092,0,1,2,3,3,0,1
3184000,3184000,47.3977507768822,8.545607424995188,488.1108,488.1108,488.10492,488.10492,2.0001066,1.0002583,488.00925,0,1,2,3,3,0,1
3192000,3192000,47.39775077678678,8.545607426025846,488.11084,488.11084,488.10492,488.10492,2.000113,1.0002722,488.0093,0,1,2,3,3,0,1
3200000,3200000,47.397750776664836,8.545607427073797,488.11084,488.11084,488.10492,488.10492,2.00012,1.0002863,488.00937,0,1,2,3,3,0,1
3208000,3208000,47.397750776599985,8.54560742871752,488.11084,488.11084,488.10492,488.10492,14.142136,0.9617956,488.00873,0,1,3,3,3,0,1
3216000,3216000,47.397750776420196,8.545607429015726,488.11084,488.11084,488.10492,488.10492,14.142249,0.9618102,488.0088,0,1,3,3,3,0,1
3224000,3224000,47.3977507762909,8.545607429272938,488.1108,488.1108,488.10492,488.10492,14.142137,0.961787,488.00885,0,1,3,3,3,0,1
3232000,3232000,47.39775077622092,8.545607428255837,488.11075,488.11075,488.10492,488.10492,1.4071951,0.6932043,488.0074,1,1,3,3,3,0,0
3240000,3240000,47.39775077615399,8.545607427292667,488.1107,488.1107,488.10492,488.10492,1.4071964,0.6932141,488.00745,1,1,3,3,3,0,0
3248000,3248000,47.39775077609148,8.545607426445143,488.11063,488.11063,488.10492,488.10492,1.4072003,0.69322455,488.0075,1,1,3,3,3,0,0
3256000,3256000,47.39775077601066,8.545607425704985,488.11057,488.11057,488.10492,488.10492,1.4072067,0.6932355,488.00757,1,1,3,3,3,0,0
3264000,3264000,47.39775077592141,8.545607424996096,488.1105,488.1105,488.10492,488.10492,1.4072156,0.69324696,488.00763,1,1,3,3,3,0,0
3272000,3272000,47.3977507757954,8.545607424245466,488.11044,488.11044,488.10492,488.10492,1.407227,0.69325906,488.0077,1,1,3,3,3,0,0
3280000,3280000,47.39775077563546,8.545607423474378,488.11038,488.11038,488.10492,488.10492,1.407241,0.680062,488.008,1,1,3,3,3,0,0
3288000,3288000,47.397750775487,8.545607422741348,488.11035,488.11035,488.10492,488.10492,1.4072574,0.68007493,488.00803,1,1,3,3,3,0,0
3296000,3296000,47.397750775369346,8.545607422006867,488.11032,488.11032,488.10492,488.10492,1.4072765,0.6800885,488.00806,1,1,3,3,3,0,0
3304000,3304000,47.39775077526933,8.545607421320641,488.1103,488.1103,488.10492,488.10492,1.4072981,0.6801027,488.0081,1,1,3,3,3,0,0
3312000,3312000,47.39775077516675,8.545607420591756,488.11026,488.11026,488.10492,488.10492,1.4073224,0.6801175,488.00812,1,1,3,3,3,0,0
3320000,3320000,47.39775077506083,8.545607419881076,488.11023,488.11023,488.10492,488.10492,1.4073492,0.6801329,488.00815,1,1,3,3,3,0,0
3328000,3328000,47.397750774970035,8.5456074191648,488.1102,488.1102,488.10492,488.10492,1.4073786,0.68014896,488.00818,1,1,3,3,3,0,0
3336000,3336000,47.397750774878446,8.545607418395536,488.11017,488.11017,488.10492,488.10492,1.4074106,0.68016565,488.0082,1,1,3,3,3,0,0
3344000,3344000,47.39775077477517,8.545607417613276,488.11014,488.11014,488.10492,488.10492,1.4074453,0.680183,488.00824,1,1,3,3,3,0,0
3352000,3352000,47.39775077469052,8.545607416849835,488.11008,488.11008,488.10492,488.10492,1.4074826,0.6677125,488.00696,1,1,3,3,3,0,0
3360000,3360000,47.397750774601214,8.545607416173622,488.11002,488.11002,488.10492,488.10492,1.4075227,0.66773087,488.007,1,1,3,3,3,0,0
3368000,3368000,47.39775077444444,8.545607415574665,488.10995,488.10995,488.10492,488.10492,1.4075654,0.6677499,488.007,1,1,3,3,3,0,0
3376000,3376000,47.3977507742589,8.545607414968881,488.1099,488.1099,488.10492,488.10492,1.4076109,0.6677696,488.007,1,1,3,3,3,0,0
3384000,3384000,47.39775077405507,8.545607414434734,488.10983,488.10983,488.10492,488.10492,1.407659,0.66779006,488.007,1,1,3,3,3,0,0
3392000,3392000,47.397750773797355,8.545607413940782,488.1098,488.1098,488.10492,488.10492,1.4077101,0.6678112,488.007,1,1,3,3,3,0,0
3400000,3400000,47.39775077351871,8.545607413490554,488.10974,488.10974,488.10492,488.10492,1.4077638,0.6678331,488.007,1,1,3,3,3,0,0
3408000,3408000,47.39775077324852,8.54560741312365,488.10968,488.10968,488.10492,488.10492,1.4078203,0.6678557,488.007,1,1,3,3,3,0,0
3416000,3416000,47.3977507729754,8.545607412744637,488.10962,488.10962,488.10492,488.10492,1.4078798,0.66787905,488.007,1,1,3,3,3,0,0
3424000,3424000,47.397750772732465,8.545607412364621,488.1097,488.1097,488.10492,488.10492,1.4079422,0.6560696,488.01102,1,1,3,3,3,0,0
3432000,3432000,47.397750772508594,8.545607412122129,488.10977,488.10977,488.10492,488.10492,1.4080074,0.6560941,488.01102,1,1,3,3,3,0,0
3440000,3440000,47.39775077230056,8.545607412011417,488.10983,488.10983,488.10492,488.10492,1.4080756,0.6561193,488.01102,1,1,3,3,3,0,0
3448000,3448000,47.397750772122386,8.54560741193437,488.1099,488.1099,488.10492,488.10492,1.4081467,0.65614533,488.01102,1,1,3,3,3,0,0
3456000,3456000,47.397750771970145,8.545607411869518,488.10995,488.10995,488.10492,488.10492,1.408221,0.6561722,488.01105,1,1,3,3,3,0,0
3464000,3464000,47.39775077189059,8.545607411899367,488.11,488.11,488.10492,488.10492,1.4082984,0.6561999,488.01108,1,1,3,3,3,0,0
3472000,3472000,47.397750771878826,8.545607412031632,488.11005,488.11005,488.10492,488.10492,1.4083787,0.65622836,488.0111,1,1,3,3,3,0,0
3480000,3480000,47.39775077192732,8.545607412233906,488.11008,488.11008,488.10492,488.10492,1.4084622,0.65625775,488.01114,1,1,3,3,3,0,0
3488000,3488000,47.397750772008344,8.545607412500075,488.11014,488.11014,488.10492,488.10492,1.408549,0.6562879,488.01117,1,1,3,3,3,0,0
3496000,3496000,47.39775077213402,8.545607412811643,488.11017,488.11017,488.10492,488.10492,1.408639,0.64508146,488.01083,1,1,3,3,3,0,0
3504000,3504000,47.397750772266335,8.545607413118072,488.1102,488.1102,488.10492,488.10492,1.408732,0.6451129,488.01086,1,1,3,3,3,0,0
3512000,3512000,47.397750772376654,8.54560741337112,488.11023,488.11023,488.10492,488.10492,1.4088286,0.6451451,488.0109,1,1,3,3,3,0,0
3520000,3520000,47.397750772500984,8.545607413630876,488.11023,488.11023,488.10492,488.10492,1.4089285,0.6451783,488.01093,1,1,3,3,3,0,0
3528000,3528000,47.39775077266295,8.545607414001068,488.11026,488.11026,488.10492,488.10492,1.4090317,0.64521235,488.01096,1,1,3,3,3,0,0
3536000,3536000,47.39775077284515,8.545607414413658,488.11026,488.11026,488.10492,488.10492,1.4091386,0.6452474,488.011,1,1,3,3,3,0,0
3544000,3544000,47.397750773055385,8.545607414771899,488.1103,488.1103,488.10492,488.10492,1.4092488,0.64528334,488.01102,1,1,3,3,3,0,0
3552000,3552000,47.397750773273536,8.54560741511924,488.11032,488.11032,488.10492,488.10492,1.4093622,0.64532024,488.01105,1,1,3,3,3,0,0
3560000,3560000,47.39775077346812,8.545607415467773,488.11035,488.11035,488.10492,488.10492,1.4094796,0.6453581,488.01108,1,1,3,3,3,0,0
3568000,3568000,47.39775077367912,8.545607415840056,488.11038,488.11038,488.10492,488.10492,1.4096006,0.6347032,488.01135,1,1,3,3,3,0,0
3576000,3576000,47.397750773911284,8.545607416253453,488.1104,488.1104,488.10492,488.10492,1.4097254,0.6347424,488.01138,1,1,3,3,3,0,0
3584000,3584000,47.39775077417301,8.545607416704213,488.11044,488.11044,488.10492,488.10492,1.4098539,0.63478255,488.0114,1,1,3,3,3,0,0
3592000,3592000,47.397750774454146,8.54560741719672,488.11047,488.11047,488.10492,488.10492,1.4099864,0.63482374,488.0114,1,1,3,3,3,0,0
3600000,3600000,47.39775077472029,8.545607417699685,488.11053,488.11053,488.10492,488.10492,1.4101226,0.63486594,488.0114,1,1,3,3,3,0,0
3608000,3608000,47.39775077498057,8.54560741822828,488.11057,488.11057,488.10492,488.10492,1.4102627,0.63490915,488.0114,1,1,3,3,3,0,0
3616000,3616000,47.39775077527998,8.545607418826988,488.11063,488.11063,488.10492,488.10492,1.4104071,0.63495344,488.0114,1,1,3,3,3,0,0
3624000,3624000,47.397750775630165,8.545607419497692,488.11066,488.11066,488.10492,488.10492,1.4105554,0.6349988,488.0114,1,1,3,3,3,0,0
3632000,3632000,47.39775077687789,8.545607421287194,488.11063,488.11063,488.10492,488.10492,0.9983994,0.5360518,488.00815,1,1,3,3,3,0,0
3640000,3640000,47.39775077813584,8.545607423107556,488.1106,488.1106,488.10492,488.10492,0.99847674,0.5299151,488.00894,1,1,3,3,3,0,0
3648000,3648000,47.3977507793991,8.545607424952212,488.11057,488.11057,488.10492,488.10492,0.9985579,0.52995443,488.00894,1,1,3,3,3,0,0
3656000,3656000,47.39775078070839,8.545607426864258,488.11057,488.11057,488.10492,488.10492,0.998643,0.52999496,488.00894,1,1,3,3,3,0,0
3664000,3664000,47.39775078205245,8.54560742880515,488.11057,488.11057,488.10492,488.10492,0.99873203,0.5300367,488.00894,1,1,3,3,3,0,0
3672000,3672000,47.397750783405726,8.545607430802004,488.11053,488.11053,488.10492,488.10492,0.998825,0.5300796,488.00894,1,1,3,3,3,0,0
3680000,3680000,47.39775078474116,8.54560743286509,488.11053,488.11053,488.10492,488.10492,0.99892217,0.53012383,488.00894,1,1,3,3,3,0,0
3688000,3688000,47.397750786078454,8.545607434975583,488.11053,488.11053,488.10492,488.10492,0.99902344,0.53016925,488.00894,1,1,3,3,3,0,0
3696000,3696000,47.397750787416015,8.545607437119378,488.11053,488.11053,488.10492,488.10492,0.999129,0.530216,488.00894,1,1,3,3,3,0,0
3704000,3704000,47.39775078877366,8.545607439307664,488.11053,488.11053,488.10492,488.10492,0.99923885,0.530264,488.00894,1,1,3,3,3,0,0
3712000,3712000,47.39775079015013,8.54560744153636,488.1105,488.1105,488.10492,488.10492,0.9993531,0.52433395,488.00833,1,1,3,3,3,0,0
3720000,3720000,47.39775079155668,8.545607443854918,488.1105,488.1105,488.10492,488.10492,0.9994719,0.524384,488.00833,1,1,3,3,3,0,0
3728000,3728000,47.39775079297865,8.545607446240895,488.1105,488.1105,488.10492,488.10492,0.99959517,0.52443546,488.00833,1,1,3,3,3,0,0
3736000,3736000,47.39775079441783,8.545607448679062,488.11047,488.11047,488.10492,488.10492,0.99972314,0.5244882,488.00833,1,1,3,3,3,0,0
3744000,3744000,47.39775079586184,8.545607451218897,488.11047,488.11047,488.10492,488.10492,0.9998558,0.5245424,488.00833,1,1,3,3,3,0,0
3752000,3752000,47.39775079733045,8.545607453894226,488.11047,488.11047,488.10492,488.10492,0.9999926,0.5245979,488.00833,1,1,3,3,3,0,0
3760000,3760000,47.397750798827204,8.54560745667317,488.11047,488.11047,488.10492,488.10492,1.000135,0.5246548,488.00836,1,1,3,3,3,0,0
3768000,3768000,47.39775080034688,8.54560745954865,488.1105,488.1105,488.10492,488.10492,1.0002824,0.52471316,488.0084,1,1,3,3,3,0,0
3776000,3776000,47.397750801908025,8.545607462413685,488.1105,488.1105,488.10492,488.10492,1.0004348,0.5247729,488.00842,1,1,3,3,3,0,0
3784000,3784000,47.39775080351418,8.545607465282767,488.11053,488.11053,488.10492,488.10492,1.0005925,0.51903677,488.00858,1,1,3,3,3,0,0
3792000,3792000,47.397750805112224,8.5456074681774,488.11053,488.11053,488.10492,488.10492,1.0007553,0.51909876,488.0086,1,1,3,3,3,0,0
3800000,3800000,47.397750806654365,8.545607471130035,488.11057,488.11057,488.10492,488.10492,1.0009235,0.51916224,488.00864,1,1,3,3,3,0,0
3808000,3808000,47.39775080814572,8.545607474104074,488.1106,488.1106,488.10492,488.10492,1.0010973,0.5192272,488.00867,1,1,3,3,3,0,0
3816000,3816000,47.39775080963713,8.545607477094146,488.11063,488.11063,488.10492,488.10492,1.0012766,0.51929367,488.0087,1,1,3,3,3,0,0
3824000,3824000,47.397750811165174,8.545607480087266,488.11063,488.11063,488.10492,488.10492,1.0014616,0.5193617,488.00873,1,1,3,3,3,0,0
3832000,3832000,47.397750812716986,8.545607483089174,488.11063,488.11063,488.10492,488.10492,1.0016525,0.5194312,488.00876,1,1,3,3,3,0,0
3840000,3840000,47.39775081429924,8.5456074860946,488.11066,488.11066,488.10492,488.10492,1.0018492,0.5195023,488.0088,1,1,3,3,3,0,0
3848000,3848000,47.397750815904296,8.545607489117565,488.11066,488.11066,488.10492,488.10492,1.0020517,0.51957494,488.00882,1,1,3,3,3,0,0
3856000,3856000,47.39775081751135,8.545607492120391,488.11072,488.11072,488.10492,488.10492,1.0022606,0.51402074,488.01016,1,1,3,3,3,0,0
3864000,3864000,47.397750819147255,8.545607495073646,488.11078,488.11078,488.10492,488.10492,1.0024754,0.5140958,488.0102,1,1,3,3,3,0,0
3872000,3872000,47.39775082082078,8.545607498004685,488.1108,488.1108,488.10492,488.10492,1.0026966,0.5141725,488.01022,1,1,3,3,3,0,0
3880000,3880000,47.397750822500036,8.545607500939674,488.11087,488.11087,488.10492,488.10492,1.0029244,0.5142508,488.01028,1,1,3,3,3,0,0
3888000,3888000,47.39775082418276,8.54560750384652,488.11093,488.11093,488.10492,488.10492,1.0031587,0.51433086,488.01035,1,1,3,3,3,0,0
3896000,3896000,47.39775082588562,8.54560750675898,488.111,488.111,488.10492,488.10492,1.0033996,0.5144126,488.0104,1,1,3,3,3,0,0
3904000,3904000,47.39775082765017,8.545607509693808,488.11102,488.11102,488.10492,488.10492,1.0036472,0.5144959,488.01047,1,1,3,3,3,0,0
3912000,3912000,47.397750829418186,8.545607512633223,488.11108,488.11108,488.10492,488.10492,1.0039018,0.514581,488.01053,1,1,3,3,3,0,0
3920000,3920000,47.39775083117557,8.545607515580171,488.11115,488.11115,488.10492,488.10492,1.0041633,0.5146678,488.0106,1,1,3,3,3,0,0
3928000,3928000,47.397750832991896,8.545607518553807,488.1112,488.1112,488.10492,488.10492,1.0044321,0.5092843,488.01132,1,1,3,3,3,0,0
3936000,3936000,47.39775083486036,8.545607521562436,488.1113,488.1113,488.10492,488.10492,1.004708,0.50937366,488.01138,1,1,3,3,3,0,0
3944000,3944000,47.39775083670931,8.545607524540907,488.11136,488.11136,488.10492,488.10492,1.0049914,0.50946486,488.01144,1,1,3,3,3,0,0
3952000,3952000,47.39775083863801,8.545607527480376,488.11145,488.11145,488.10492,488.10492,1.005278,0.50955784,488.0115,1,1,3,3,3,0,0
3960000,3960000,47.39775084056993,8.545607530463451,488.11154,488.11154,488.10492,488.10492,1.0055763,0.5096526,488.01157,1,1,3,3,3,0,0
3968000,3968000,47.39775084251826,8.545607533422846,488.11163,488.11163,488.10492,488.10492,1.0058823,0.5097492,488.01163,1,1,3,3,3,0,0
3976000,3976000,47.397750844471375,8.545607536420107,488.11172,488.11172,488.10492,488.10492,1.0061961,0.50984764,488.0117,1,1,3,3,3,0,0
3984000,3984000,47.397750846419726,8.545607539426378,488.11182,488.11182,488.10492,488.10492,1.006518,0.50994796,488.01175,1,1,3,3,3,0,0
3992000,3992000,47.397750848351045,8.54560754245437,488.1119,488.1119,488.10492,488.10492,1.0068479,0.5100502,488.01178,1,1,3,3,3,0,0
4000000,4000000,47.397750850252216,8.545607545550002,488.11194,488.11194,488.10492,488.10492,1.007186,0.5048267,488.0104,1,1,3,3,3,0,0
4008000,4008000,47.39775085211606,8.545607548651628,488.112,488.112,488.10492,488.10492,1.0075328,0.5049316,488.01044,1,1,3,3,3,0,0
4016000,4016000,47.397750853980476,8.545607551750496,488.11206,488.11206,488.10492,488.10492,1.0078881,0.50503856,488.01047,1,1,3,3,3,0,0
4024000,4024000,47.39775085585349,8.545607554869097,488.11212,488.11212,488.10492,488.10492,1.008252,0.50514734,488.0105,1,1,3,3,3,0,0
4032000,4032000,47.39775085767221,8.545607555109573,488.1121,488.1121,488.10492,488.10492,0.8190903,0.4508006,488.00845,1,1,3,3,3,0,0
4040000,4040000,47.39775085949249,8.545607555351916,488.1121,488.1121,488.10492,488.10492,0.81928295,0.4508955,488.00848,1,1,3,3,3,0,0
4048000,4048000,47.397750861289694,8.545607555596598,488.1121,488.1121,488.10492,488.10492,0.8194818,0.4509924,488.00854,1,1,3,3,3,0,0
4056000,4056000,47.39775086312932,8.54560755589298,488.1121,488.1121,488.10492,488.10492,0.81968695,0.4510914,488.00858,1,1,3,3,3,0,0
4064000,4064000,47.39775086499566,8.545607556176433,488.1121,488.1121,488.10492,488.10492,0.81989855,0.45119244,488.0086,1,1,3,3,3,0,0
4072000,4072000,47.39775086690267,8.545607556435716,488.1121,488.1121,488.10492,488.10492,0.8201167,0.44759527,488.00797,1,1,3,3,3,0,0
4080000,4080000,47.39775086886083,8.545607556730364,488.1121,488.1121,488.10492,488.10492,0.8203416,0.4476997,488.008,1,1,3,3,3,0,0
4088000,4088000,47.39775087085577,8.545607557052868,488.1121,488.1121,488.10492,488.10492,0.8205732,0.44780624,488.00806,1,1,3,3,3,0,0
4096000,4096000,47.39775087289561,8.545607557424416,488.1121,488.1121,488.10492,488.10492,0.82081175,0.44791496,488.00812,1,1,3,3,3,0,0
4104000,4104000,47.39775087500587,8.545607557869328,488.1121,488.1121,488.10492,488.10492,0.8210574,0.44802585,488.00818,1,1,3,3,3,0,0
4112000,4112000,47.3977508772067,8.545607558415561,488.11212,488.11212,488.10492,488.10492,0.8213101,0.44813895,488.00824,1,1,3,3,3,0,0
4120000,4120000,47.397750879460325,8.545607559047026,488.11212,488.11212,488.10492,488.10492,0.82157016,0.44825423,488.0083,1,1,3,3,3,0,0
4128000,4128000,47.39775088174819,8.545607559777865,488.11215,488.11215,488.10492,488.10492,0.82183754,0.44837177,488.00836,1,1,3,3,3,0,0
4136000,4136000,47.39775088405874,8.545607560520635,488.11218,488.11218,488.10492,488.10492,0.8221124,0.44849154,488.00842,1,1,3,3,3,0,0
4144000,4144000,47.39775088638524,8.545607561262756,488.11218,488.11218,488.10492,488.10492,0.8223949,0.44497865,488.00797,1,1,3,3,3,0,0
4152000,4152000,47.397750888812375,8.54560756212265,488.11218,488.11218,488.10492,488.10492,0.8226827,0.44510198,488.00803,1,1,3,3,3,0,0
4160000,4160000,47.397750891256266,8.545607563033649,488.11218,488.11218,488.10492,488.10492,0.82298076,0.44522765,488.00812,1,1,3,3,3,0,0
4168000,4168000,47.39775089373135,8.545607563992366,488.11218,488.11218,488.10492,488.10492,0.82328695,0.44535565,488.00818,1,1,3,3,3,0,0
4176000,4176000,47.397750896280655,8.545607564963875,488.1122,488.1122,488.10492,488.10492,0.8236012,0.445486,488.00824,1,1,3,3,3,0,0
4184000,4184000,47.397750898890095,8.54560756593447,488.1122,488.1122,488.10492,488.10492,0.82392377,0.44561872,488.0083,1,1,3,3,3,0,0
4192000,4192000,47.39775090150752,8.545607566907439,488.1122,488.1122,488.10492,488.10492,0.82425475,0.44575384,488.0084,1,1,3,3,3,0,0
4200000,4200000,47.39775090411637,8.5456075678772,488.11224,488.11224,488.10492,488.10492,0.82459426,0.44589135,488.00848,1,1,3,3,3,0,0
4208000,4208000,47.3977509067618,8.545607568852176,488.11227,488.11227,488.10492,488.10492,0.8249424,0.4460313,488.00858,1,1,3,3,3,0,0
4216000,4216000,47.39775090942703,8.545607569822659,488.11227,488.11227,488.10492,488.10492,0.82529944,0.44259763,488.00793,1,1,3,3,3,0,0
4224000,4224000,47.3977509120977,8.545607570822357,488.11227,488.11227,488.10492,488.10492,0.82566553,0.44274136,488.00803,1,1,3,3,3,0,0
4232000,4232000,47.397750914723545,8.545607571878788,488.11227,488.11227,488.10492,488.10492,0.8260407,0.44288757,488.00812,1,1,3,3,3,0,0
4240000,4240000,47.397750917379845,8.545607572950898,488.1123,488.1123,488.10492,488.10492,0.82642514,0.4430363,488.0082,1,1,3,3,3,0,0
4248000,4248000,47.39775092006198,8.545607574027294,488.1123,488.1123,488.10492,488.10492,0.826819,0.44318753,488.0083,1,1,3,3,3,0,0
4256000,4256000,47.397750922705825,8.545607575169415,488.1123,488.1123,488.10492,488.10492,0.82722235,0.44334137,488.0084,1,1,3,3,3,0,0
4264000,4264000,47.397750925345804,8.545607576393367,488.11234,488.11234,488.10492,488.10492,0.8276354,0.44349775,488.00848,1,1,3,3,3,0,0
4272000,4272000,47.39775092805822,8.545607577642809,488.11234,488.11234,488.10492,488.10492,0.8280583,0.4436567,488.00858,1,1,3,3,3,0,0
4280000,4280000,47.397750930828025,8.545607578870912,488.11234,488.11234,488.10492,488.10492,0.8284909,0.4438183,488.00867,1,1,3,3,3,0,0
4288000,4288000,47.39775093362562,8.545607580087799,488.1123,488.1123,488.10492,488.10492,0.8289339,0.4404588,488.00818,1,1,3,3,3,0,0
4296000,4296000,47.39775093646587,8.54560758126839,488.11227,488.11227,488.10492,488.10492,0.8293871,0.4406244,488.00827,1,1,3,3,3,0,0
4304000,4304000,47.39775093937082,8.545607582436181,488.11227,488.11227,488.10492,488.10492,0.82985073,0.44079262,488.00836,1,1,3,3,3,0,0
4312000,4312000,47.3977509423149,8.54560758359402,488.11224,488.11224,488.10492,488.10492,0.83032495,0.44096354,488.00845,1,1,3,3,3,0,0
4320000,4320000,47.39775094531914,8.545607584755869,488.11224,488.11224,488.10492,488.10492,0.8308099,0.4411372,488.00854,1,1,3,3,3,0,0
4328000,4328000,47.39775094837216,8.54560758597742,488.11224,488.11224,488.10492,488.10492,0.8313056,0.44131356,488.00864,1,1,3,3,3,0,0
4336000,4336000,47.39775095145596,8.545607587242358,488.11224,488.11224,488.10492,488.10492,0.83181244,0.4414927,488.00873,1,1,3,3,3,0,0
4344000,4344000,47.397750954554844,8.545607588501662,488.1122,488.1122,488.10492,488.10492,0.8323304,0.44167462,488.00882,1,1,3,3,3,0,0
4352000,4352000,47.39775095750585,8.545607590030984,488.1122,488.1122,488.10492,488.10492,0.83284974,0.44185933,488.0089,1,1,3,3,3,0,0
4360000,4360000,47.397750960441755,8.545607591642893,488.11224,488.11224,488.10492,488.10492,0.83339006,0.438569,488.0091,1,1,3,3,3,0,0
4368000,4368000,47.39775096338003,8.54560759330004,488.11224,488.11224,488.10492,488.10492,0.83394194,0.4387579,488.0092,1,1,3,3,3,0,0
4376000,4376000,47.3977509663431,8.545607594972603,488.11224,488.11224,488.10492,488.10492,0.8345057,0.43894964,488.00928,1,1,3,3,3,0,0
4384000,4384000,47.39775096931048,8.545607596660028,488.11227,488.11227,488.10492,488.10492,0.8350813,0.43914425,488.00937,1,1,3,3,3,0,0
4392000,4392000,47.39775097229529,8.545607598317735,488.11227,488.11227,488.10492,488.10492,0.835669,0.43934178,488.00946,1,1,3,3,3,0,0
4400000,4400000,47.39775097529817,8.545607599947644,488.1123,488.1123,488.10492,488.10492,0.836269,0.4395422,488.00955,1,1,3,3,3,0,0
4408000,4408000,47.39775097833014,8.545607601586472,488.11234,488.11234,488.10492,488.10492,0.8368813,0.43974558,488.00964,1,1,3,3,3,0,0
4416000,4416000,47.39775098137455,8.545607603283967,488.1124,488.1124,488.10492,488.10492,0.8375062,0.43995193,488.00974,1,1,3,3,3,0,0
4424000,4424000,47.397750984487104,8.54560760501035,488.11243,488.11243,488.10492,488.10492,0.83814317,0.44016126,488.00983,1,1,3,3,3,0,0
4432000,4432000,47.39775098564822,8.54560760364198,488.11243,488.11243,488.10492,488.10492,0.7156624,0.39984375,488.00916,1,1,3,3,3,0,0
4440000,4440000,47.39775098684488,8.545607602337686,488.11246,488.11246,488.10492,488.10492,0.71599317,0.40002483,488.00922,1,1,3,3,3,0,0
4448000,4448000,47.39775098812489,8.545607601101041,488.1125,488.1125,488.10492,488.10492,0.71633196,0.40020886,488.00928,1,1,3,3,3,0,0
4456000,4456000,47.397750989482105,8.545607599955673,488.11252,488.11252,488.10492,488.10492,0.71667904,0.4003959,488.00934,1,1,3,3,3,0,0
4464000,4464000,47.3977509909066,8.545607598834318,488.11255,488.11255,488.10492,488.10492,0.7170345,0.40058595,488.0094,1,1,3,3,3,0,0
4472000,4472000,47.39775099241403,8.545607597661089,488.11258,488.11258,488.10492,488.10492,0.7173984,0.40077904,488.00946,1,1,3,3,3,0,0
4480000,4480000,47.39775099395065,8.54560759647148,488.1126,488.1126,488.10492,488.10492,0.7177709,0.4009752,488.00952,1,1,3,3,3,0,0
4488000,4488000,47.397750995489474,8.54560759529295,488.11264,488.11264,488.10492,488.10492,0.7181521,0.40117443,488.00958,1,1,3,3,3,0,0
4496000,4496000,47.39775099705011,8.54560759413343,488.11267,488.11267,488.10492,488.10492,0.71854204,0.40137672,488.00964,1,1,3,3,3,0,0
4504000,4504000,47.397750998633946,8.545607592989775,488.11267,488.11267,488.10492,488.10492,0.71894115,0.39896977,488.00848,1,1,3,3,3,0,0
4512000,4512000,47.397751000220076,8.545607591858833,488.11267,488.11267,488.10492,488.10492,0.71934927,0.39917699,488.00854,1,1,3,3,3,0,0
4520000,4520000,47.397751001821696,8.545607590771166,488.11264,488.11264,488.10492,488.10492,0.7197666,0.3993874,488.0086,1,1,3,3,3,0,0
4528000,4528000,47.39775100347388,8.545607589713391,488.11264,488.11264,488.10492,488.10492,0.72019327,0.39960095,488.00867,1,1,3,3,3,0,0
4536000,4536000,47.39775100515771,8.545607588734619,488.11264,488.11264,488.10492,488.10492,0.7206294,0.39981776,488.00873,1,1,3,3,3,0,0
4544000,4544000,47.39775100689462,8.545607587805033,488.11264,488.11264,488.10492,488.10492,0.7210751,0.40003774,488.0088,1,1,3,3,3,0,0
4552000,4552000,47.397751008658545,8.545607586982142,488.1126,488.1126,488.10492,488.10492,0.7215267,0.40026098,488.00888,1,1,3,3,3,0,0
4560000,4560000,47.39775101049604,8.545607586201495,488.1126,488.1126,488.10492,488.10492,0.72199184,0.4004875,488.00897,1,1,3,3,3,0,0
4568000,4568000,47.39775101238783,8.545607585424007,488.1126,488.1126,488.10492,488.10492,0.7224666,0.40071732,488.00906,1,1,3,3,3,0,0
4576000,4576000,47.39775101432903,8.545607584652284,488.11264,488.11264,488.10492,488.10492,0.7229517,0.39835054,488.00934,1,1,3,3,3,0,0
4584000,4584000,47.3977510163091,8.545607583950286,488.11264,488.11264,488.10492,488.10492,0.7234471,0.39858544,488.00943,1,1,3,3,3,0,0
4592000,4592000,47.39775101833401,8.545607583245289,488.11264,488.11264,488.10492,488.10492,0.7239528,0.3988237,488.00952,1,1,3,3,3,0,0
4600000,4600000,47.39775102037796,8.545607582510236,488.11267,488.11267,488.10492,488.10492,0.72446895,0.39906532,488.0096,1,1,3,3,3,0,0
4608000,4608000,47.39775102244268,8.545607581815874,488.11267,488.11267,488.10492,488.10492,0.72499573,0.39931032,488.0097,1,1,3,3,3,0,0
4616000,4616000,47.397751024494546,8.545607581154925,488.11267,488.11267,488.10492,488.10492,0.7255333,0.39955878,488.0098,1,1,3,3,3,0,0
4624000,4624000,47.39775102657357,8.545607580539597,488.11267,488.11267,488.10492,488.10492,0.72608167,0.39981064,488.0099,1,1,3,3,3,0,0
4632000,4632000,47.397751028692845,8.545607579960102,488.1127,488.1127,488.10492,488.10492,0.7266411,0.40006593,488.00998,1,1,3,3,3,0,0
4640000,4640000,47.397751030815996,8.545607579386852,488.1127,488.1127,488.10492,488.10492,0.7272114,0.4003247,488.01007,1,1,3,3,3,0,0
4648000,4648000,47.397751032964,8.545607578851401,488.11267,488.11267,488.10492,488.10492,0.7277932,0.39799434,488.00967,1,1,3,3,3,0,0
4656000,4656000,47.39775103513641,8.545607578330683,488.11267,488.11267,488.10492,488.10492,0.7283864,0.3982584,488.00977,1,1,3,3,3,0,0
4664000,4664000,47.39775103737176,8.545607577859299,488.11267,488.11267,488.10492,488.10492,0.7289912,0.39852598,488.00986,1,1,3,3,3,0,0
4672000,4672000,47.397751039631196,8.54560757741844,488.11267,488.11267,488.10492,488.10492,0.7296076,0.39879712,488.00995,1,1,3,3,3,0,0
4680000,4680000,47.39775104190678,8.545607577022103,488.11267,488.11267,488.10492,488.10492,0.7302358,0.39907187,488.01004,1,1,3,3,3,0,0
4688000,4688000,47.397751044233935,8.545607576636899,488.11264,488.11264,488.10492,488.10492,0.7308759,0.3993502,488.0101,1,1,3,3,3,0,0
4696000,4696000,47.39775104661849,8.54560757622779,488.11264,488.11264,488.10492,488.10492,0.7315281,0.39963213,488.0102,1,1,3,3,3,0,0
4704000,4704000,47.39775104906845,8.545607575847201,488.11264,488.11264,488.10492,488.10492,0.7321925,0.3999177,488.01028,1,1,3,3,3,0,0
4712000,4712000,47.39775105158378,8.545607575430022,488.1126,488.1126,488.10492,488.10492,0.73286885,0.4002069,488.01038,1,1,3,3,3,0,0
4720000,4720000,47.3977510541535,8.545607574990457,488.1126,488.1126,488.10492,488.10492,0.73355806,0.3979091,488.01035,1,1,3,3,3,0,0
4728000,4728000,47.397751056773295,8.54560757462895,488.1126,488.1126,488.10492,488.10492,0.73425984,0.39820376,488.01044,1,1,3,3,3,0,0
4736000,4736000,47.39775105941483,8.545607574364803,488.11258,488.11258,488.10492,488.10492,0.7349745,0.39850217,488.0105,1,1,3,3,3,0,0
4744000,4744000,47.39775106207005,8.545607574191125,488.11258,488.11258,488.10492,488.10492,0.7357019,0.39880428,488.01056,1,1,3,3,3,0,0
4752000,4752000,47.3977510645612,8.54560757376384,488.11255,488.11255,488.10492,488.10492,0.7364305,0.39911014,488.01065,1,1,3,3,3,0,0
4760000,4760000,47.397751067119955,8.545607573275834,488.11255,488.11255,488.10492,488.10492,0.73718363,0.39941978,488.0107,1,1,3,3,3,0,0
4768000,4768000,47.397751069720876,8.545607572817904,488.11255,488.11255,488.10492,488.10492,0.7379501,0.39973325,488.01077,1,1,3,3,3,0,0
4776000,4776000,47.39775107234497,8.545607572462583,488.11255,488.11255,488.10492,488.10492,0.73872983,0.40005046,488.01083,1,1,3,3,3,0,0
4784000,4784000,47.39775107502657,8.545607572134335,488.11255,488.11255,488.10492,488.10492,0.73952264,0.39778355,488.00986,1,1,3,3,3,0,0
4792000,4792000,47.39775107777568,8.54560757184848,488.11252,488.11252,488.10492,488.10492,0.7403296,0.3981064,488.00992,1,1,3,3,3,0,0
4800000,4800000,47.39775108056988,8.545607571589388,488.11252,488.11252,488.10492,488.10492,0.74115044,0.3984331,488.00998,1,1,3,3,3,0,0
4808000,4808000,47.39775108335667,8.545607571333246,488.1125,488.1125,488.10492,488.10492,0.7419852,0.3987637,488.01004,1,1,3,3,3,0,0
4816000,4816000,47.39775108610998,8.545607571048382,488.1125,488.1125,488.10492,488.10492,0.74283403,0.39909822,488.0101,1,1,3,3,3,0,0
4824000,4824000,47.39775108889399,8.54560757072837,488.1125,488.1125,488.10492,488.10492,0.74369717,0.39943662,488.01016,1,1,3,3,3,0,0
4832000,4832000,47.39775108751201,8.54560756761523,488.11246,488.11246,488.10492,488.10492,0.64869016,0.36988017,488.0091,1,1,3,3,3,0,0
4840000,4840000,47.39775108619362,8.545607564503415,488.1124,488.1124,488.10492,488.10492,0.64915,0.36812487,488.00912,1,1,3,3,3,0,0
4848000,4848000,47.397751084912976,8.545607561395025,488.11237,488.11237,488.10492,488.10492,0.64961886,0.36841992,488.00916,1,1,3,3,3,0,0
4856000,4856000,47.39775108369663,8.545607558303475,488.11234,488.11234,488.10492,488.10492,0.6500968,0.3687188,488.0092,1,1,3,3,3,0,0
4864000,4864000,47.397751082532245,8.54560755523351,488.11227,488.11227,488.10492,488.10492,0.65058386,0.36902153,488.00922,1,1,3,3,3,0,0
4872000,4872000,47.397751081424325,8.545607552166034,488.11224,488.11224,488.10492,488.10492,0.6510803,0.36932814,488.00925,1,1,3,3,3,0,0
4880000,4880000,47.397751080360216,8.545607549109464,488.1122,488.1122,488.10492,488.10492,0.6515861,0.36963862,488.00928,1,1,3,3,3,0,0
4888000,4888000,47.397751079324856,8.545607546089634,488.11218,488.11218,488.10492,488.10492,0.6521014,0.369953,488.0093,1,1,3,3,3,0,0
4896000,4896000,47.39775107831284,8.545607543071206,488.11218,488.11218,488.10492,488.10492,0.65262634,0.37027133,488.00934,1,1,3,3,3,0,0
4904000,4904000,47.397751077382836,8.545607540040209,488.11215,488.11215,488.10492,488.10492,0.6531609,0.37059355,488.00937,1,1,3,3,3,0,0
4912000,4912000,47.39775107652051,8.545607536991982,488.11212,488.11212,488.10492,488.10492,0.65370536,0.3688594,488.0096,1,1,3,3,3,0,0
4920000,4920000,47.39775107572677,8.545607533921785,488.1121,488.1121,488.10492,488.10492,0.6542597,0.36918777,488.00964,1,1,3,3,3,0,0
4928000,4928000,47.39775107497911,8.545607530865471,488.11206,488.11206,488.10492,488.10492,0.65482396,0.36952013,488.00967,1,1,3,3,3,0,0
4936000,4936000,47.39775107425227,8.545607527804423,488.11203,488.11203,488.10492,488.10492,0.6553984,0.36985648,488.0097,1,1,3,3,3,0,0
4944000,4944000,47.39775107360239,8.545607524734683,488.112,488.112,488.10492,488.10492,0.6559832,0.37019688,488.00977,1,1,3,3,3,0,0
4952000,4952000,47.39775107294681,8.545607521699523,488.11197,488.11197,488.10492,488.10492,0.65657455,0.37054133,488.00983,1,1,3,3,3,0,0
4960000,4960000,47.39775107233742,8.545607518625756,488.11197,488.11197,488.10492,488.10492,0.65717983,0.37088984,488.0099,1,1,3,3,3,0,0
4968000,4968000,47.3977510717512,8.545607515537643,488.11194,488.11194,488.10492,488.10492,0.6577957,0.37124246,488.00995,1,1,3,3,3,0,0
4976000,4976000,47.39775107122211,8.545607512483222,488.1119,488.1119,488.10492,488.10492,0.65842223,0.37159917,488.01,1,1,3,3,3,0,0
4984000,4984000,47.39775107077471,8.545607509427308,488.1119,488.1119,488.10492,488.10492,0.6590595,0.36988255,488.01038,1,1,3,3,3,0,0
4992000,4992000,47.3977510704041,8.54560750640829,488.1119,488.1119,488.10492,488.10492,0.65970767,0.3702455,488.01044,1,1,3,3,3,0,0
5000000,5000000,47.39775107009191,8.545607503400628,488.1119,488.1119,488.10492,488.10492,0.66036654,0.37061253,488.0105,1,1,3,3,3,0,0
5008000,5008000,47.39775106976284,8.54560750041336,488.1119,488.1119,488.10492,488.10492,0.66103673,0.3709838,488.01053,1,1,3,3,3,0,0
5016000,5016000,47.39775106942177,8.545607497458246,488.1119,488.1119,488.10492,488.10492,0.6617181,0.37135926,488.0106,1,1,3,3,3,0,0
5024000,5024000,47.39775106909387,8.545607494497446,488.1119,488.1119,488.10492,488.10492,0.66241074,0.3717389,488.01065,1,1,3,3,3,0,0
5032000,5032000,47.39775106880505,8.545607491568921,488.1119,488.1119,488.10492,488.10492,0.6631148,0.37212282,488.0107,1,1,3,3,3,0,0
5040000,5040000,47.39775106857947,8.54560748869036,488.1119,488.1119,488.10492,488.10492,0.66383034,0.37251094,488.01077,1,1,3,3,3,0,0
5048000,5048000,47.39775106840631,8.545607485852116,488.1119,488.1119,488.10492,488.10492,0.6645575,0.3729033,488.01083,1,1,3,3,3,0,0
5056000,5056000,47.397751068253896,8.54560748296009,488.11194,488.11194,488.10492,488.10492,0.6652964,0.3712003,488.01172,1,1,3,3,3,0,0
5064000,5064000,47.39775106813165,8.545607480023246,488.11197,488.11197,488.10492,488.10492,0.6660471,0.371599,488.01175,1,1,3,3,3,0,0
5072000,5072000,47.39775106804075,8.545607477051044,488.112,488.112,488.10492,488.10492,0.6668093,0.37200198,488.01178,1,1,3,3,3,0,0
5080000,5080000,47.39775106795836,8.545607474132575,488.11203,488.11203,488.10492,488.10492,0.66758394,0.37240928,488.0118,1,1,3,3,3,0,0
5088000,5088000,47.397751067929,8.545607471276034,488.11203,488.11203,488.10492,488.10492,0.6683707,0.37282097,488.01184,1,1,3,3,3,0,0
5096000,5096000,47.39775106797479,8.545607468465084,488.11206,488.11206,488.10492,488.10492,0.6691697,0.37323695,488.01187,1,1,3,3,3,0,0
5104000,5104000,47.3977510680768,8.545607465723771,488.11206,488.11206,488.10492,488.10492,0.66998106,0.37365735,488.0119,1,1,3,3,3,0,0
5112000,5112000,47.39775106821431,8.545607463052406,488.1121,488.1121,488.10492,488.10492,0.6708049,0.37408212,488.01193,1,1,3,3,3,0,0
5120000,5120000,47.39775106840853,8.545607460441941,488.1121,488.1121,488.10492,488.10492,0.6716413,0.37451127,488.01196,1,1,3,3,3,0,0
5128000,5128000,47.39775106869159,8.545607457866847,488.11212,488.11212,488.10492,488.10492,0.67249036,0.3728177,488.0126,1,1,3,3,3,0,0
5136000,5136000,47.397751069063894,8.545607455299363,488.11215,488.11215,488.10492,488.10492,0.6733522,0.3732532,488.01263,1,1,3,3,3,0,0
5144000,5144000,47.39775106945709,8.545607452753375,488.11218,488.11218,488.10492,488.10492,0.6742264,0.3736932,488.01266,1,1,3,3,3,0,0
5152000,5152000,47.39775106972926,8.545607450229804,488.1122,488.1122,488.10492,488.10492,0.6751023,0.37413764,488.0127,1,1,3,3,3,0,0
5160000,5160000,47.397751070001604,8.545607447696765,488.11224,488.11224,488.10492,488.10492,0.6760026,0.37458655,488.01273,1,1,3,3,3,0,0
5168000,5168000,47.39775107030717,8.545607445176413,488.11227,488.11227,488.10492,488.10492,0.676916,0.37503996,488.01276,1,1,3,3,3,0,0
5176000,5176000,47.39775107065832,8.545607442692578,488.11227,488.11227,488.10492,488.10492,0.67784274,0.37549788,488.0128,1,1,3,3,3,0,0
5184000,5184000,47.39775107108177,8.545607440236463,488.1123,488.1123,488.10492,488.10492,0.6787828,0.37596032,488.01282,1,1,3,3,3,0,0
5192000,5192000,47.39775107155897,8.545607437781209,488.11227,488.11227,488.10492,488.10492,0.6797363,0.37427512,488.0107,1,1,3,3,3,0,0
5200000,5200000,47.39775107205983,8.5456074353346,488.1122,488.1122,488.10492,488.10492,0.68070346,0.37474394,488.01074,1,1,3,3,3,0,0
5208000,5208000,47.397751072587624,8.545607432842118,488.11218,488.11218,488.10492,488.10492,0.6816843,0.37521735,488.01077,1,1,3,3,3,0,0
5216000,5216000,47.397751073187706,8.545607430281445,488.11215,488.11215,488.10492,488.10492,0.6826782,0.37569535,488.0108,1,1,3,3,3,0,0
5224000,5224000,47.39775107382464,8.545607427742665,488.11212,488.11212,488.10492,488.10492,0.6836867,0.3761779,488.01083,1,1,3,3,3,0,0
5232000,5232000,47.39775107107589,8.545607426997726,488.112,488.112,488.10492,488.10492,0.60245675,0.34992158,488.00845,1,1,3,3,3,0,0
5240000,5240000,47.39775106843072,8.545607426264207,488.1119,488.1119,488.10492,488.10492,0.60302365,0.3503365,488.00845,1,1,3,3,3,0,0
5248000,5248000,47.3977510658743,8.545607425544265,488.1118,488.1118,488.10492,488.10492,0.60359955,0.34901273,488.0086,1,1,3,3,3,0,0
5256000,5256000,47.39775106338345,8.545607424912669,488.1117,488.1117,488.10492,488.10492,0.6041847,0.34943432,488.0086,1,1,3,3,3,0,0
5264000,5264000,47.39775106096411,8.54560742434013,488.1116,488.1116,488.10492,488.10492,0.60477906,0.3498603,488.0086,1,1,3,3,3,0,0
5272000,5272000,47.39775105865151,8.545607423797245,488.1115,488.1115,488.10492,488.10492,0.60538274,0.35029072,488.0086,1,1,3,3,3,0,0
5280000,5280000,47.39775105639122,8.545607423371383,488.1114,488.1114,488.10492,488.10492,0.60599583,0.35072556,488.0086,1,1,3,3,3,0,0
5288000,5288000,47.39775105420202,8.545607423040222,488.1113,488.1113,488.10492,488.10492,0.6066183,0.35116488,488.0086,1,1,3,3,3,0,0
5296000,5296000,47.39775105209626,8.545607422745034,488.11124,488.11124,488.10492,488.10492,0.60725045,0.35160863,488.0086,1,1,3,3,3,0,0
5304000,5304000,47.397751050040796,8.545607422496321,488.11115,488.11115,488.10492,488.10492,0.6078923,0.35205686,488.0086,1,1,3,3,3,0,0
5312000,5312000,47.39775104807287,8.54560742225372,488.11105,488.11105,488.10492,488.10492,0.6085438,0.35250956,488.0086,1,1,3,3,3,0,0
5320000,5320000,47.3977510461928,8.545607422049525,488.111,488.111,488.10492,488.10492,0.60920525,0.35119087,488.00952,1,1,3,3,3,0,0
5328000,5328000,47.397751044391825,8.545607421895337,488.11093,488.11093,488.10492,488.10492,0.6098765,0.35165027,488.00952,1,1,3,3,3,0,0
5336000,5336000,47.39775104269455,8.545607421781565,488.11087,488.11087,488.10492,488.10492,0.61055785,0.3521142,488.00952,1,1,3,3,3,0,0
5344000,5344000,47.39775104103585,8.545607421701158,488.11084,488.11084,488.10492,488.10492,0.6112492,0.35258266,488.00952,1,1,3,3,3,0,0
5352000,5352000,47.39775103939349,8.545607421574157,488.11078,488.11078,488.10492,488.10492,0.61194766,0.3530557,488.00952,1,1,3,3,3,0,0
5360000,5360000,47.39775103783533,8.545607421429045,488.11072,488.11072,488.10492,488.10492,0.61265904,0.3535333,488.00952,1,1,3,3,3,0,0
5368000,5368000,47.39775103633074,8.54560742125584,488.1107,488.1107,488.10492,488.10492,0.61338097,0.35401544,488.00952,1,1,3,3,3,0,0
5376000,5376000,47.397751034874354,8.545607421059744,488.11063,488.11063,488.10492,488.10492,0.61411333,0.35450217,488.00952,1,1,3,3,3,0,0
5384000,5384000,47.397751033441466,8.545607420868023,488.11057,488.11057,488.10492,488.10492,0.61485606,0.3549935,488.00952,1,1,3,3,3,0,0
5392000,5392000,47.397751032071945,8.545607420683346,488.11053,488.11053,488.10492,488.10492,0.61560947,0.35367554,488.00952,1,1,3,3,3,0,0
5400000,5400000,47.39775103080598,8.545607420535397,488.11047,488.11047,488.10492,488.10492,0.6163735,0.35417357,488.00952,1,1,3,3,3,0,0
5408000,5408000,47.397751029660164,8.545607420412304,488.11044,488.11044,488.10492,488.10492,0.6171482,0.35467622,488.00952,1,1,3,3,3,0,0
5416000,5416000,47.397751028603736,8.545607420290542,488.11038,488.11038,488.10492,488.10492,0.61793375,0.3551835,488.00952,1,1,3,3,3,0,0
5424000,5424000,47.397751027578195,8.545607420179872,488.11035,488.11035,488.10492,488.10492,0.6187302,0.35569543,488.00952,1,1,3,3,3,0,0
5432000,5432000,47.39775102660269,8.54560742007637,488.1103,488.1103,488.10492,488.10492,0.6195373,0.35621202,488.00952,1,1,3,3,3,0,0
5440000,5440000,47.39775102575026,8.545607419998792,488.11026,488.11026,488.10492,488.10492,0.6203558,0.35673332,488.00952,1,1,3,3,3,0,0
5448000,5448000,47.397751024989,8.545607419956308,488.1102,488.1102,488.10492,488.10492,0.62118536,0.35725927,488.00952,1,1,3,3,3,0,0
5456000,5456000,47.39775102431938,8.545607419947075,488.11017,488.11017,488.10492,488.10492,0.62202615,0.3577899,488.00952,1,1,3,3,3,0,0
5464000,5464000,47.3977510236886,8.545607419996417,488.1101,488.1101,488.10492,488.10492,0.62287825,0.35646802,488.00967,1,1,3,3,3,0,0
5472000,5472000,47.397751023056564,8.54560742016617,488.11008,488.11008,488.10492,488.10492,0.6237417,0.3570053,488.00967,1,1,3,3,3,0,0
5480000,5480000,47.39775102248232,8.545607420369777,488.11002,488.11002,488.10492,488.10492,0.6246166,0.35754728,488.00967,1,1,3,3,3,0,0
5488000,5488000,47.397751021997905,8.545607420598646,488.11,488.11,488.10492,488.10492,0.6255031,0.358094,488.00967,1,1,3,3,3,0,0
5496000,5496000,47.39775102159463,8.545607420854541,488.10995,488.10995,488.10492,488.10492,0.6264012,0.3586455,488.00967,1,1,3,3,3,0,0
5504000,5504000,47.39775102131035,8.545607421117738,488.10992,488.10992,488.10492,488.10492,0.6273105,0.3592017,488.00967,1,1,3,3,3,0,0
5512000,5512000,47.39775102112816,8.545607421403826,488.1099,488.1099,488.10492,488.10492,0.62823206,0.3597627,488.00967,1,1,3,3,3,0,0
5520000,5520000,47.39775102100532,8.54560742163382,488.10986,488.10986,488.10492,488.10492,0.62916553,0.36032844,488.00967,1,1,3,3,3,0,0
5528000,5528000,47.39775102093862,8.545607421795276,488.10983,488.10983,488.10492,488.10492,0.6301108,0.36089897,488.00967,1,1,3,3,3,0,0
5536000,5536000,47.39775102094741,8.545607421948278,488.10977,488.10977,488.10492,488.10492,0.63106817,0.35956806,488.00894,1,1,3,3,3,0,0
5544000,5544000,47.39775102101188,8.545607422106173,488.10974,488.10974,488.10492,488.10492,0.63203764,0.36014512,488.00894,1,1,3,3,3,0,0
5552000,5552000,47.39775102108093,8.545607422274173,488.10968,488.10968,488.10492,488.10492,0.6330081,0.36072698,488.00894,1,1,3,3,3,0,0
5560000,5560000,47.39775102117103,8.54560742243001,488.10962,488.10962,488.10492,488.10492,0.6340015,0.36131367,488.00894,1,1,3,3,3,0,0
5568000,5568000,47.397751021328176,8.545607422581357,488.10956,488.10956,488.10492,488.10492,0.63500714,0.36190516,488.00894,1,1,3,3,3,0,0
5576000,5576000,47.397751021584035,8.54560742277407,488.1095,488.1095,488.10492,488.10492,0.63602453,0.36250147,488.00894,1,1,3,3,3,0,0
5584000,5584000,47.397751021897264,8.545607423027327,488.10944,488.10944,488.10492,488.10492,0.637055,0.36310264,488.00894,1,1,3,3,3,0,0
5592000,5592000,47.397751022257886,8.545607423334957,488.1094,488.1094,488.10492,488.10492,0.63809794,0.36370865,488.00894,1,1,3,3,3,0,0
5600000,5600000,47.39775102271472,8.545607423645512,488.10934,488.10934,488.10492,488.10492,0.63915354,0.36431947,488.00894,1,1,3,3,3,0,0
5608000,5608000,47.39775102326828,8.545607423893307,488.10928,488.10928,488.10492,488.10492,0.64022183,0.36297414,488.00876,1,1,3,3,3,0,0
5616000,5616000,47.39775102387826,8.545607424137376,488.1092,488.1092,488.10492,488.10492,0.6413028,0.36359137,488.00876,1,1,3,3,3,0,0
5624000,5624000,47.397751024559355,8.545607424402379,488.10913,488.10913,488.10492,488.10492,0.6423966,0.36421344,488.00876,1,1,3,3,3,0,0
5632000,5632000,47.39775102376383,8.545607425376168,488.1092,488.1092,488.10492,488.10492,0.5692546,0.33861086,488.01245,1,1,3,3,3,0,0
5640000,5640000,47.397751023030125,8.545607426338282,488.10922,488.10922,488.10492,488.10492,0.56990564,0.33914363,488.01248,1,1,3,3,3,0,0
5648000,5648000,47.39775102232099,8.545607427233856,488.10928,488.10928,488.10492,488.10492,0.5705655,0.33968103,488.0125,1,1,3,3,3,0,0
5656000,5656000,47.39775102164188,8.545607428109474,488.10934,488.10934,488.10492,488.10492,0.5712342,0.34022304,488.01254,1,1,3,3,3,0,0
5664000,5664000,47.39775102100736,8.54560742895387,488.10938,488.10938,488.10492,488.10492,0.5719119,0.34076965,488.01257,1,1,3,3,3,0,0
5672000,5672000,47.39775102041476,8.545607429794227,488.1094,488.1094,488.10492,488.10492,0.57259846,0.3413209,488.0126,1,1,3,3,3,0,0
5680000,5680000,47.39775101987295,8.545607430727559,488.10947,488.10947,488.10492,488.10492,0.5732941,0.34026307,488.01315,1,1,3,3,3,0,0
5688000,5688000,47.39775101942071,8.545607431701827,488.10953,488.10953,488.10492,488.10492,0.5739989,0.34082097,488.01318,1,1,3,3,3,0,0
5696000,5696000,47.397751019036264,8.545607432604594,488.1096,488.1096,488.10492,488.10492,0.5747129,0.34138352,488.0132,1,1,3,3,3,0,0
5704000,5704000,47.397751018718296,8.545607433365038,488.10965,488.10965,488.10492,488.10492,0.5754361,0.34195074,488.01324,1,1,3,3,3,0,0
5712000,5712000,47.39775101840317,8.54560743404852,488.1097,488.1097,488.10492,488.10492,0.5761686,0.34252262,488.01328,1,1,3,3,3,0,0
5720000,5720000,47.39775101811445,8.545607434728597,488.10977,488.10977,488.10492,488.10492,0.5769103,0.34309918,488.0133,1,1,3,3,3,0,0
5728000,5728000,47.397751017902586,8.5456074354293,488.10983,488.10983,488.10492,488.10492,0.57766163,0.3436804,488.01334,1,1,3,3,3,0,0
5736000,5736000,47.39775101771859,8.54560743618619,488.1099,488.1099,488.10492,488.10492,0.5784224,0.34426633,488.01337,1,1,3,3,3,0,0
5744000,5744000,47.39775101757071,8.545607436979424,488.10995,488.10995,488.10492,488.10492,0.57919276,0.34485692,488.0134,1,1,3,3,3,0,0
5752000,5752000,47.39775101742111,8.545607437778278,488.11002,488.11002,488.10492,488.10492,0.5799704,0.34378773,488.0135,1,1,3,3,3,0,0
5760000,5760000,47.39775101734942,8.545607438580635,488.11008,488.11008,488.10492,488.10492,0.5807599,0.34438482,488.01352,1,1,3,3,3,0,0
5768000,5768000,47.397751017361216,8.54560743935267,488.11014,488.11014,488.10492,488.10492,0.5815591,0.34498668,488.01355,1,1,3,3,3,0,0
5776000,5776000,47.397751017436946,8.545607440141664,488.1102,488.1102,488.10492,488.10492,0.5823682,0.3455932,488.01358,1,1,3,3,3,0,0
5784000,5784000,47.397751017545254,8.545607440908423,488.11026,488.11026,488.10492,488.10492,0.5831871,0.3462045,488.01358,1,1,3,3,3,0,0
5792000,5792000,47.39775101768255,8.545607441647983,488.11035,488.11035,488.10492,488.10492,0.5840157,0.34682047,488.0136,1,1,3,3,3,0,0
5800000,5800000,47.39775101788243,8.54560744239603,488.1104,488.1104,488.10492,488.10492,0.58485454,0.34744117,488.01364,1,1,3,3,3,0,0
5808000,5808000,47.39775101810313,8.545607443194513,488.11047,488.11047,488.10492,488.10492,0.58570343,0.3480666,488.01364,1,1,3,3,3,0,0
5816000,5816000,47.39775101834575,8.545607444042696,488.11053,488.11053,488.10492,488.10492,0.58656245,0.34869677,488.01364,1,1,3,3,3,0,0
5824000,5824000,47.3977510185773,8.545607444912058,488.1106,488.1106,488.10492,488.10492,0.5874316,0.34761092,488.01346,1,1,3,3,3,0,0
5832000,5832000,47.39775101879912,8.545607445799034,488.11066,488.11066,488.10492,488.10492,0.588311,0.3482474,488.01346,1,1,3,3,3,0,0
5840000,5840000,47.39775101906048,8.54560744667326,488.11072,488.11072,488.10492,488.10492,0.58920074,0.3488887,488.01346,1,1,3,3,3,0,0
5848000,5848000,47.39775101936614,8.545607447569049,488.11078,488.11078,488.10492,488.10492,0.5901008,0.34953472,488.01346,1,1,3,3,3,0,0
5856000,5856000,47.39775101969865,8.545607448469637,488.1108,488.1108,488.10492,488.10492,0.59101135,0.3501855,488.01346,1,1,3,3,3,0,0
5864000,5864000,47.39775102009952,8.545607449350591,488.11087,488.11087,488.10492,488.10492,0.591932,0.35084105,488.01346,1,1,3,3,3,0,0
5872000,5872000,47.39775102057987,8.545607450235046,488.11093,488.11093,488.10492,488.10492,0.5928636,0.35150138,488.0135,1,1,3,3,3,0,0
5880000,5880000,47.397751021098856,8.54560745118012,488.11096,488.11096,488.10492,488.10492,0.5938058,0.35216644,488.01352,1,1,3,3,3,0,0
5888000,5888000,47.39775102163627,8.545607452139109,488.11102,488.11102,488.10492,488.10492,0.5947587,0.35283628,488.01352,1,1,3,3,3,0,0
5896000,5896000,47.39775102217972,8.545607453072249,488.11108,488.11108,488.10492,488.10492,0.59572226,0.35172808,488.0141,1,1,3,3,3,0,0
5904000,5904000,47.39775102276978,8.545607453989264,488.11115,488.11115,488.10492,488.10492,0.5966966,0.35240403,488.0141,1,1,3,3,3,0,0
5912000,5912000,47.39775102343934,8.545607454894967,488.1112,488.1112,488.10492,488.10492,0.5976818,0.3530848,488.0141,1,1,3,3,3,0,0
5920000,5920000,47.39775102415279,8.545607455777445,488.11127,488.11127,488.10492,488.10492,0.598678,0.35377035,488.01413,1,1,3,3,3,0,0
5928000,5928000,47.39775102492584,8.54560745663427,488.11133,488.11133,488.10492,488.10492,0.5996851,0.35446066,488.01416,1,1,3,3,3,0,0
5936000,5936000,47.39775102576274,8.545607457541546,488.11142,488.11142,488.10492,488.10492,0.6007027,0.3551558,488.0142,1,1,3,3,3,0,0
5944000,5944000,47.397751026672836,8.54560745851139,488.1115,488.1115,488.10492,488.10492,0.6017319,0.3558557,488.01422,1,1,3,3,3,0,0
5952000,5952000,47.397751027821776,8.545607459471185,488.11157,488.11157,488.10492,488.10492,0.60276175,0.35656035,488.01425,1,1,3,3,3,0,0
5960000,5960000,47.39775102902465,8.545607460391269,488.11166,488.11166,488.10492,488.10492,0.60381275,0.35726982,488.01428,1,1,3,3,3,0,0
5968000,5968000,47.397751030287715,8.545607461309046,488.11176,488.11176,488.10492,488.10492,0.60487497,0.35613328,488.01382,1,1,3,3,3,0,0
5976000,5976000,47.397751031591206,8.54560746221468,488.11182,488.11182,488.10492,488.10492,0.6059485,0.35684863,488.01385,1,1,3,3,3,0,0
5984000,5984000,47.397751032912886,8.545607463079262,488.11188,488.11188,488.10492,488.10492,0.6070334,0.35756877,488.0139,1,1,3,3,3,0,0
5992000,5992000,47.39775103427825,8.54560746392674,488.11197,488.11197,488.10492,488.10492,0.6081296,0.35829374,488.0139,1,1,3,3,3,0,0
6000000,6000000,47.39775103571938,8.545607464712692,488.11203,488.11203,488.10492,488.10492,0.60923725,0.3590235,488.0139,1,1,3,3,3,0,0
6008000,6008000,47.3977510372195,8.54560746554185,488.1121,488.1121,488.10492,488.10492,0.6103556,0.35975808,488.0139,1,1,3,3,3,0,0
6016000,6016000,47.39775103876595,8.545607466421473,488.11215,488.11215,488.10492,488.10492,0.6114864,0.36049744,488.0139,1,1,3,3,3,0,0
6024000,6024000,47.397751040397615,8.545607467284773,488.1122,488.1122,488.10492,488.10492,0.6126287,0.3612416,488.0139,1,1,3,3,3,0,0
6032000,6032000,47.397751038914635,8.545607467109233,488.11234,488.11234,488.10492,488.10492,0.54480064,0.334533,488.01617,1,1,3,3,3,0,0
6040000,6040000,47.39775103747988,8.545607466954857,488.1125,488.1125,488.10492,488.10492,0.5455164,0.33364898,488.01627,1,1,3,3,3,0,0
6048000,6048000,47.39775103612411,8.545607466773088,488.11264,488.11264,488.10492,488.10492,0.5462404,0.33428702,488.0163,1,1,3,3,3,0,0
6056000,6056000,47.39775103483626,8.54560746656007,488.11276,488.11276,488.10492,488.10492,0.5469728,0.3349296,488.01633,1,1,3,3,3,0,0
6064000,6064000,47.397751033607385,8.545607466311726,488.1129,488.1129,488.10492,488.10492,0.5477136,0.3355767,488.01636,1,1,3,3,3,0,0
6072000,6072000,47.39775103247093,8.545607466075424,488.11307,488.11307,488.10492,488.10492,0.54846287,0.33622837,488.0164,1,1,3,3,3,0,0
6080000,6080000,47.39775103140527,8.545607465888146,488.1132,488.1132,488.10492,488.10492,0.54922056,0.33688462,488.01642,1,1,3,3,3,0,0
6088000,6088000,47.39775103041042,8.545607465656467,488.11334,488.11334,488.10492,488.10492,0.54998696,0.3375454,488.01645,1,1,3,3,3,0,0
6096000,6096000,47.39775102945555,8.54560746544072,488.11346,488.11346,488.10492,488.10492,0.550762,0.33821073,488.0165,1,1,3,3,3,0,0
6104000,6104000,47.39775102849727,8.54560746523996,488.1136,488.1136,488.10492,488.10492,0.5515457,0.33888063,488.01657,1,1,3,3,3,0,0
6112000,6112000,47.39775102750559,8.545607465086567,488.11368,488.11368,488.10492,488.10492,0.55233806,0.33797467,488.01556,1,1,3,3,3,0,0
6120000,6120000,47.39775102654756,8.545607464946267,488.11374,488.11374,488.10492,488.10492,0.55313927,0.33865052,488.01562,1,1,3,3,3,0,0
6128000,6128000,47.39775102565569,8.54560746479057,488.1138,488.1138,488.10492,488.10492,0.5539493,0.33933094,488.0157,1,1,3,3,3,0,0
6136000,6136000,47.397751024833745,8.545607464639227,488.1139,488.1139,488.10492,488.10492,0.5547682,0.34001595,488.01575,1,1,3,3,3,0,0
6144000,6144000,47.397751024114264,8.54560746447494,488.11395,488.11395,488.10492,488.10492,0.55559605,0.3407055,488.0158,1,1,3,3,3,0,0
6152000,6152000,47.3977510235277,8.54560746433106,488.11404,488.11404,488.10492,488.10492,0.55643094,0.3413996,488.01587,1,1,3,3,3,0,0
6160000,6160000,47.39775102296156,8.545607464169574,488.11414,488.11414,488.10492,488.10492,0.5572766,0.3420983,488.01593,1,1,3,3,3,0,0
6168000,6168000,47.39775102244403,8.545607464015605,488.11423,488.11423,488.10492,488.10492,0.55813134,0.34280154,488.016,1,1,3,3,3,0,0
6176000,6176000,47.39775102200412,8.545607463874356,488.11432,488.11432,488.10492,488.10492,0.5589951,0.34350932,488.01605,1,1,3,3,3,0,0
6184000,6184000,47.39775102165098,8.545607463729407,488.11444,488.11444,488.10492,488.10492,0.55986816,0.34257567,488.0168,1,1,3,3,3,0,0
6192000,6192000,47.39775102133882,8.545607463621911,488.11456,488.11456,488.10492,488.10492,0.56075037,0.34328917,488.01688,1,1,3,3,3,0,0
6200000,6200000,47.397751021044634,8.545607463583968,488.11472,488.11472,488.10492,488.10492,0.5616419,0.34400722,488.01694,1,1,3,3,3,0,0
6208000,6208000,47.397751020794374,8.545607463606569,488.11484,488.11484,488.10492,488.10492,0.5625427,0.34472987,488.017,1,1,3,3,3,0,0
6216000,6216000,47.39775102061153,8.545607463632788,488.11493,488.11493,488.10492,488.10492,0.56345284,0.34545708,488.01706,1,1,3,3,3,0,0
6224000,6224000,47.3977510204772,8.545607463633452,488.11505,488.11505,488.10492,488.10492,0.5643722,0.34618884,488.01712,1,1,3,3,3,0,0
6232000,6232000,47.39775102039179,8.545607463587887,488.11517,488.11517,488.10492,488.10492,0.56530124,0.34692517,488.01718,1,1,3,3,3,0,0
6240000,6240000,47.397751020350455,8.545607463562535,488.11526,488.11526,488.10492,488.10492,0.5662398,0.34766605,488.01724,1,1,3,3,3,0,0
6248000,6248000,47.39775102033744,8.545607463575077,488.1154,488.1154,488.10492,488.10492,0.5671878,0.3484115,488.0173,1,1,3,3,3,0,0
6256000,6256000,47.39775102035224,8.545607463606482,488.11548,488.11548,488.10492,488.10492,0.56814545,0.3474441,488.01715,1,1,3,3,3,0,0
6264000,6264000,47.39775102040896,8.545607463648494,488.11557,488.11557,488.10492,488.10492,0.5691127,0.34819493,488.01718,1,1,3,3,3,0,0
6272000,6272000,47.39775102052551,8.545607463674493,488.1157,488.1157,488.10492,488.10492,0.57008964,0.34895033,488.0172,1,1,3,3,3,0,0
6280000,6280000,47.39775102067846,8.54560746357153,488.11578,488.11578,488.10492,488.10492,0.57107633,0.34971032,488.01724,1,1,3,3,3,0,0
6288000,6288000,47.39775102088158,8.545607463445563,488.11588,488.11588,488.10492,488.10492,0.5720728,0.35047483,488.01727,1,1,3,3,3,0,0
6296000,6296000,47.397751021147684,8.545607463369441,488.116,488.116,488.10492,488.10492,0.57307863,0.3512439,488.0173,1,1,3,3,3,0,0
6304000,6304000,47.39775102150148,8.545607463346629,488.1161,488.1161,488.10492,488.10492,0.5740948,0.35201755,488.01733,1,1,3,3,3,0,0
6312000,6312000,47.3977510219334,8.545607463340096,488.1162,488.1162,488.10492,488.10492,0.5751209,0.35279572,488.0174,1,1,3,3,3,0,0
6320000,6320000,47.39775102245834,8.545607463329386,488.11633,488.11633,488.10492,488.10492,0.576157,0.35357845,488.01746,1,1,3,3,3,0,0
6328000,6328000,47.39775102305861,8.545607463346276,488.1165,488.1165,488.10492,488.10492,0.5772031,0.3525709,488.01773,1,1,3,3,3,0,0
6336000,6336000,47.39775102376056,8.54560746344463,488.1166,488.1166,488.10492,488.10492,0.5782593,0.3533587,488.0178,1,1,3,3,3,0,0
6344000,6344000,47.39775102451536,8.545607463621375,488.11673,488.11673,488.10492,488.10492,0.5793256,0.35415104,488.01785,1,1,3,3,3,0,0
6352000,6352000,47.39775102522567,8.54560746382961,488.11685,488.11685,488.10492,488.10492,0.58039176,0.35494792,488.0179,1,1,3,3,3,0,0
6360000,6360000,47.3977510259533,8.545607464090029,488.11697,488.11697,488.10492,488.10492,0.58147776,0.35574937,488.01797,1,1,3,3,3,0,0
6368000,6368000,47.39775102670814,8.545607464346581,488.1171,488.1171,488.10492,488.10492,0.5825733,0.3565553,488.01804,1,1,3,3,3,0,0
6376000,6376000,47.397751027515206,8.545607464664444,488.11725,488.11725,488.10492,488.10492,0.5836798,0.3573658,488.0181,1,1,3,3,3,0,0
6384000,6384000,47.397751028365285,8.545607465042204,488.11737,488.11737,488.10492,488.10492,0.5847966,0.35818082,488.01816,1,1,3,3,3,0,0
6392000,6392000,47.39775102925949,8.545607465409496,488.11752,488.11752,488.10492,488.10492,0.58592373,0.35900036,488.01822,1,1,3,3,3,0,0
6400000,6400000,47.397751030198975,8.545607465793337,488.11768,488.11768,488.10492,488.10492,0.5870613,0.35794595,488.01865,1,1,3,3,3,0,0
6408000,6408000,47.39775103119207,8.545607466256135,488.1178,488.1178,488.10492,488.10492,0.5882092,0.35877022,488.0187,1,1,3,3,3,0,0
6416000,6416000,47.39775103225407,8.54560746677722,488.11795,488.11795,488.10492,488.10492,0.5893676,0.359599,488.01877,1,1,3,3,3,0,0
6424000,6424000,47.3977510333875,8.545607467315884,488.1181,488.1181,488.10492,488.10492,0.59053653,0.3604323,488.01883,1,1,3,3,3,0,0
6432000,6432000,47.3977510311391,8.545607467440702,488.11826,488.11826,488.10492,488.10492,0.5264853,0.33247027,488.02,1,1,3,3,3,0,0
6440000,6440000,47.39775102896211,8.545607467604384,488.11844,488.11844,488.10492,488.10492,0.52724963,0.3331844,488.02005,1,1,3,3,3,0,0
6448000,6448000,47.397751026873095,8.545607467821625,488.1186,488.1186,488.10492,488.10492,0.52802175,0.33390284,488.02014,1,1,3,3,3,0,0
6456000,6456000,47.397751024913845,8.545607468109017,488.11877,488.11877,488.10492,488.10492,0.5288017,0.33462557,488.02023,1,1,3,3,3,0,0
6464000,6464000,47.3977510230415,8.545607468346441,488.11893,488.11893,488.10492,488.10492,0.52958953,0.33535257,488.02032,1,1,3,3,3,0,0
6472000,6472000,47.39775102124228,8.54560746852888,488.11908,488.11908,488.10492,488.10492,0.5303853,0.3345518,488.02042,1,1,3,3,3,0,0
6480000,6480000,47.39775101952651,8.545607468655415,488.11926,488.11926,488.10492,488.10492,0.5311891,0.33528402,488.0205,1,1,3,3,3,0,0
6488000,6488000,47.39775101787412,8.54560746885189,488.11942,488.11942,488.10492,488.10492,0.53200084,0.33602053,488.0206,1,1,3,3,3,0,0
6496000,6496000,47.39775101630686,8.54560746911376,488.11957,488.11957,488.10492,488.10492,0.53282064,0.3367613,488.0207,1,1,3,3,3,0,0
6504000,6504000,47.39775101482773,8.545607469434374,488.11975,488.11975,488.10492,488.10492,0.5336485,0.33750635,488.02078,1,1,3,3,3,0,0
6512000,6512000,47.39775101347332,8.545607469740807,488.1199,488.1199,488.10492,488.10492,0.5344845,0.3382557,488.02087,1,1,3,3,3,0,0
6520000,6520000,47.39775101222833,8.54560747004416,488.12006,488.12006,488.10492,488.10492,0.5353286,0.3390093,488.02097,1,1,3,3,3,0,0
6528000,6528000,47.39775101107404,8.545607470342016,488.1202,488.1202,488.10492,488.10492,0.53618103,0.33976716,488.02106,1,1,3,3,3,0,0
6536000,6536000,47.39775100995053,8.545607470606154,488.12036,488.12036,488.10492,488.10492,0.5370417,0.3405293,488.02115,1,1,3,3,3,0,0
6544000,6544000,47.397751008898645,8.545607470843628,488.12048,488.12048,488.10492,488.10492,0.53791064,0.33969173,488.0205,1,1,3,3,3,0,0
6552000,6552000,47.39775100792056,8.545607471086507,488.12064,488.12064,488.10492,488.10492,0.5387866,0.34045875,488.0206,1,1,3,3,3,0,0
6560000,6560000,47.3977510070179,8.545607471332454,488.1208,488.1208,488.10492,488.10492,0.53967214,0.34123003,488.0207,1,1,3,3,3,0,0
6568000,6568000,47.39775100616447,8.545607471614423,488.1209,488.1209,488.10492,488.10492,0.54056597,0.34200558,488.02078,1,1,3,3,3,0,0
