timestamp,x,y,z,vx,vy,vz,roll,pitch,yaw
1760000,-5.403111e-07,1.4199568e-09,-1.139164e-06,0.00012892937,-3.4111454e-07,0.0002733538,,,
1768000,3.3459482e-06,2.0077152e-06,1.0633909e-06,0.00089885725,0.00035180044,0.00018835459,,,
1776000,1.655198e-05,3.6174788e-06,1.1280405e-06,0.0023345898,0.00014605207,-0.00017793903,,,
1784000,3.7437007e-05,4.913852e-06,3.0844603e-07,0.002807098,-1.0817127e-05,-6.1971354e-05,,,
1792000,6.235973e-05,1.5965488e-06,4.0240047e-07,0.003242336,-0.00088147173,2.0986894e-05,,,
1800000,9.213564e-05,-6.867072e-06,4.750029e-06,0.0040095206,-0.0011017849,0.0010373191,,,
1808000,0.00012697249,-1.4347838e-05,1.811921e-05,0.0041949973,-0.0008344396,0.00199537,,,
1816000,0.00016440841,-2.0974e-05,3.6741472e-05,0.0047388584,-0.00061712315,0.0023325754,,,
1832000,0.00026040303,-3.7196496e-05,6.722004e-05,0.006541632,-0.0015114422,0.0010701817,,,
1840000,0.000322401,-5.6241934e-05,7.7632794e-05,0.007827563,-0.0028574322,0.0013655602,,,
1848000,0.0003927846,-8.4071384e-05,9.06302e-05,0.008342534,-0.0033793126,0.001541918,,,
1856000,0.00046606545,-0.00011489924,0.0001036467,0.008362026,-0.0037085135,0.0012011055,,,
1872000,0.0006106399,-0.00018188109,0.000115338626,0.007671213,-0.0039079254,0.00016868125,,,
1880000,0.00068385695,-0.00021953972,0.00011614367,0.008017058,-0.0044544158,-0.00012345794,,,
1888000,0.0007635478,-0.00026160246,0.000115892806,0.008780231,-0.004858059,-0.00040323718,,,
1896000,0.00085226004,-0.00030496917,0.00011281981,0.009568954,-0.0046471083,-0.0006340126,,,
1912000,0.0010467381,-0.00038753016,0.00011204726,0.010509509,-0.004249519,-6.4463835e-05,,,
1920000,0.0011549667,-0.00042853958,0.00011379288,0.01120875,-0.0038348737,5.276702e-06,,,
1928000,0.0012713509,-0.00046931507,0.000114400274,0.012222462,-0.0042888215,-0.00020468811,,,
1936000,0.0013997738,-0.0005159381,0.000114356444,0.013504461,-0.004770255,-0.0002169161,,,
1952000,0.0016967991,-0.0006297409,0.00011737537,0.016110709,-0.00614909,0.00043928061,,,
1960000,0.001859744,-0.00069213007,0.00012292428,0.016634418,-0.006017806,0.00052770006,,,
1968000,0.0019820153,-0.0007359892,0.00012904506,0.017346447,-0.0061626704,0.0008807528,,,
1976000,0.0021081378,-0.0007850652,0.00012904756,0.017108435,-0.0071760044,1.7310682e-05,,,
1992000,0.0023398937,-0.0009065572,0.00011951306,0.015373639,-0.00874368,-0.0004988745,-0.0009454601615166171,-0.004765967720376711,0.0006173728693159042
2000000,0.0024418912,-0.00097162754,0.00011008301,0.014320009,-0.008454582,-0.0006776464,-0.0008458696638809212,-0.004610336885443054,0.0005137141667280424
2008000,0.0025379297,-0.0010333442,0.000100402685,0.014129469,-0.008338272,-0.0004452313,-0.0008020941932612855,-0.004324254086653707,0.0005293971311150759
2016000,0.0026322082,-0.0010970592,9.342065e-05,0.014316426,-0.008534871,-0.00014387202,,,
2032000,0.00281861,-0.0012200172,8.1611324e-05,0.013936265,-0.008391068,1.9561176e-05,,,
2040000,0.002903239,-0.0012816251,7.523844e-05,0.01373598,-0.008584422,2.9226721e-06,-0.0006197978543257712,-0.0036357406997737495,0.0005098494742584764
2048000,0.0029860158,-0.0013450858,7.208729e-05,0.0137189245,-0.008856661,0.0009109941,-0.0005631923539473779,-0.003385683004967769,0.00047202954182584195
2056000,0.0030658327,-0.0014091694,7.3368035e-05,0.013914394,-0.009012036,0.0010822009,,,
2072000,0.003220012,-0.0015363169,7.817897e-05,0.013722145,-0.008996922,0.001479478,,,
2080000,0.003292194,-0.0015999216,8.066364e-05,0.013865213,-0.009354682,0.0013386753,-0.0005578862573920586,-0.002940088555306619,0.00018905163200569236
2088000,0.0033615544,-0.0016668411,8.240869e-05,0.013821495,-0.009656225,0.0011299233,-0.0005868979479322881,-0.002899751638489259,0.0001858332654758869
2096000,0.0034300736,-0.0017324847,8.008801e-05,0.014431534,-0.009591647,0.0006637949,,,
2112000,0.003563227,-0.0018631467,7.591734e-05,0.014171713,-0.0092708655,0.0012876902,,,
2120000,0.0036187656,-0.0019197938,7.447522e-05,0.013366681,-0.008208409,0.0008454111,-0.0006169739181407323,-0.0024001770414858767,0.00020282468529941132
2128000,0.0036664198,-0.001966909,6.6231034e-05,0.013189269,-0.0073433025,-6.92811e-05,-0.00045272286028319187,-0.0023376229554202235,0.0003075340075171754
2136000,0.0037123316,-0.0020076684,5.0650444e-05,0.013582141,-0.0065900716,-0.0009470851,,,
2152000,0.003790426,-0.0020829702,3.8856524e-06,0.013240032,-0.006961405,-0.0013865965,,,
2160000,0.0038245947,-0.0021204762,-1.8143473e-05,0.012953632,-0.0068290685,-0.0009958806,-0.00047525024865329064,-0.0017353762502352204,0.0002658850532001965
2168000,0.0038480393,-0.0021532588,-3.6927784e-05,0.011767299,-0.0058978708,-0.00054314575,-0.00040992919819604704,-0.0015355160207538277,0.0003270534928957896
2176000,0.0038682397,-0.002173016,-5.286839e-05,0.010493096,-0.0053550466,-0.001458209,,,
2192000,0.0038826324,-0.0021974507,-9.8470045e-05,0.009925007,-0.0045413496,-0.0016218083,,,
2200000,0.0038794577,-0.002205166,-0.00012063605,0.008910543,-0.0040821186,-0.0016302292,-0.00027930635665427545,-0.0010424400239460558,1.1605185075797252e-05
2208000,0.003867185,-0.0022113032,-0.00014189133,0.008629466,-0.004377724,-0.0012963779,-0.0002465295919744039,-0.0008684617278349713,-0.00012147238403100368
2216000,0.0038502226,-0.002218703,-0.00016283905,0.008244474,-0.004505767,-0.0015503074,,,
2232000,0.0037990708,-0.002244093,-0.000211695,0.008013168,-0.005667406,-0.0015847314,,,
2240000,0.003767921,-0.002260747,-0.00023679833,0.0077523445,-0.005955693,-0.002059892,-0.0001135528214464034,-0.0004947211329532392,-4.200017580368874e-05
2248000,0.0037349039,-0.0022799375,-0.00026638486,0.008155013,-0.0063529466,-0.0026246584,-0.00012203378124523146,-0.000368852438619943,-9.918127725276888e-05
2256000,0.0037012391,-0.0023004971,-0.0002998773,0.008034717,-0.0062490697,-0.0029060717,,,
2272000,0.0036109984,-0.0023350846,-0.0003797545,0.006623592,-0.005971295,-0.004188781,,,
2280000,0.0035574993,-0.002353286,-0.0004274308,0.006495606,-0.0064524077,-0.0050028358,-0.0003844450734771111,-0.000351526898121124,-0.0002922296920819777
2288000,0.0034986543,-0.0023744782,-0.00048317102,0.0058628917,-0.0068103275,-0.0058544264,-0.00035065267544113436,-0.00039486783069374797,-0.0004614930599651702
2296000,0.0034344739,-0.002395862,-0.00054427655,0.00583864,-0.006357518,-0.006499108,,,
2312000,0.003297978,-0.0024239272,-0.0006802832,0.005298654,-0.0059219585,-0.007689876,,,
2320000,0.003223001,-0.0024383892,-0.000754186,0.0049675843,-0.005788076,-0.0076565035,-0.0005199348582812251,-0.00031636903240969764,-0.000598406892272701
2328000,0.0031452917,-0.002449804,-0.0008251433,0.005092227,-0.0051576197,-0.006994958,-0.0004577450294718383,-0.0003387968528171243,-0.00066872339902987
2336000,0.0030697181,-0.0024547947,-0.000890178,0.005761948,-0.0045497497,-0.0063227513,,,
2352000,0.0029077958,-0.0024594825,-0.0010021385,0.004490401,-0.004380237,-0.0046743164,,,
2360000,0.0028122943,-0.0024580199,-0.0010521861,0.004040873,-0.0047935136,-0.004746414,-0.0003562639076220833,-0.000254652931313266,-0.0006983000414887995
2368000,0.0027133848,-0.0024592509,-0.0011000627,0.0038049202,-0.0048896587,-0.0043293633,-0.0003799957865607217,-0.000274790308869666,-0.000790078828845263
2376000,0.0026093288,-0.0024577582,-0.0011477672,0.0030320634,-0.0043227333,-0.0045823148,,,
2392000,0.0024461413,-0.0024337287,-0.0012335638,0.0018986608,-0.0038832098,-0.0048916857,,,
2400000,0.0023606515,-0.0024162752,-0.0012775913,0.002058468,-0.0033460057,-0.0046359682,-1.7831211245269235e-05,0.00010123520059107863,-0.0007654609130463427
2408000,0.0022736853,-0.0023947735,-0.0013191382,0.0019441956,-0.0029524644,-0.004360472,-7.055165088362427e-05,0.00010662848237385444,-0.0006592830110398761
2416000,0.0021843703,-0.002369608,-0.0013607697,0.001533413,-0.002326198,-0.004673292,,,
2432000,0.0019903982,-0.0023108304,-0.001447249,0.00024399959,-0.0023169355,-0.004468504,,,
2440000,0.0018889077,-0.0022841475,-0.001488246,0.0007461577,-0.0026004275,-0.0044252356,-0.0005443307879879607,0.00023970093982262966,-0.0008524963163489496
2448000,0.001786222,-0.0022595674,-0.0015318564,-0.00011509063,-0.0027945274,-0.0049700984,-0.0005358814880944032,0.0003031234128720436,-0.0007949543107469526
2456000,0.0016775081,-0.0022362447,-0.0015767558,-0.0003977833,-0.0030181133,-0.004657483,,,
2472000,0.0014557005,-0.0022010605,-0.0016641072,-0.00069956994,-0.0042548394,-0.0048157102,,,
2480000,0.0013425789,-0.0021889613,-0.001711918,-0.000978177,-0.004155383,-0.005607866,-0.000640067880626896,0.00035864659771844956,-0.0006957391005133279
2488000,0.0012294687,-0.002175009,-0.0017621727,-0.000698662,-0.0037984499,-0.0053895847,-0.0006850192808384333,0.0003480764350825619,-0.0007319951479349739
2496000,0.0011168013,-0.0021565014,-0.0018106644,-0.00096913794,-0.0030509548,-0.00535771,,,
2512000,0.00088271295,-0.002109514,-0.0019124281,-0.0016035469,-0.0022506744,-0.00618276,,,
2520000,0.0007672141,-0.002079213,-0.001966809,-0.000988621,-0.0017098072,-0.005967865,-0.0008269544675894633,0.000366674191385935,-0.0003843829679853155
2528000,0.00065539975,-0.0020478002,-0.0020228452,-0.000900537,-0.001741109,-0.0066951606,-0.0009053850489888374,0.00027255330106549787,-0.00041863650998636505
2536000,0.0005425416,-0.0020164938,-0.0020830114,-0.0013160965,-0.0016523509,-0.0067803706,,,
2552000,0.00029579268,-0.0019488994,-0.0021920032,-0.0028672586,-0.0012957565,-0.005436595,,,
2560000,0.0001606604,-0.0019184352,-0.0022422348,-0.0031620143,-0.001914689,-0.0057786107,-0.0010364185609044807,0.0001104129335059638,-0.00016848837731753147
2568000,2.313951e-05,-0.0018900437,-0.0022942787,-0.0036364205,-0.0017131087,-0.005852983,-0.0010547181272863874,0.00010145216237229012,-0.00016781092728299088
2576000,-0.00011678459,-0.0018576863,-0.002344807,-0.0038709627,-0.0009690268,-0.005396148,,,
2592000,-0.0003441477,-0.0017771214,-0.0024271938,-0.004540289,-0.0002374264,-0.005108229,,,
2600000,-0.0004313776,-0.0017265707,-0.0024637617,-0.0045211683,0.0007232151,-0.005920847,-0.0011868175941149573,0.00014877181147622401,-0.00016900337044805259
2608000,-0.000516314,-0.0016697117,-0.0025049206,-0.0044190073,0.0014580059,-0.0060218563,-0.0011922984194990033,-4.649304175328937e-05,-0.00013753885345088918
2616000,-0.00060188654,-0.0016085557,-0.0025445586,-0.0047738454,0.0018838403,-0.0056531867,,,
2632000,-0.00077699,-0.0014783264,-0.0026248202,-0.004749366,0.0019103957,-0.0060876044,,,
2640000,-0.0008636148,-0.0014174049,-0.0026691514,-0.0054100887,0.0017302622,-0.0065989476,-0.001427944772037799,-6.302282422063529e-05,-0.00025509152655908994
2648000,-0.00095341116,-0.0013573756,-0.0027162465,-0.0056266305,0.0016759515,-0.0067655547,-0.001501536095648369,-1.9488561521353768e-05,-0.00028604446956583717
2656000,-0.0010461763,-0.0012984605,-0.0027636844,-0.006530056,0.0015094344,-0.006457817,,,
2672000,-0.0012331869,-0.0011922884,-0.0028461188,-0.005820593,0.00096270005,-0.0059853373,,,
2680000,-0.0013194407,-0.0011385997,-0.0028884015,-0.0053583006,0.0011783756,-0.0058886413,-0.001710630393320427,-5.620959203274167e-05,-8.84546027741352e-05
2688000,-0.0014013767,-0.0010851315,-0.0029280013,-0.0050476347,0.0011688992,-0.0054323687,-0.001750528427142582,-3.800529885671459e-05,-4.085454570025584e-05
2696000,-0.0014804231,-0.0010326726,-0.0029639234,-0.0050984225,0.0009572749,-0.0049373736,,,
2712000,-0.0016378145,-0.00093065004,-0.0030277837,-0.004998596,0.0016406741,-0.0051080594,,,
2720000,-0.0017126855,-0.0008720189,-0.0030659647,-0.004811744,0.0023781494,-0.0056729796,-0.0020197171033989915,-4.4541771800317185e-05,0.00018142048910895238
2728000,-0.0017864645,-0.0008094022,-0.0031062956,-0.005155873,0.0026795731,-0.0056097046,-0.002064655372327451,-1.842466190386964e-05,0.00015274122477559228
2736000,-0.001860967,-0.00074396736,-0.0031469564,-0.005155747,0.0033428657,-0.0059158145,,,
2752000,-0.0020096404,-0.0005851532,-0.0032289037,-0.005158209,0.0035612974,-0.005409553,,,
2760000,-0.0020840515,-0.0004956996,-0.0032658025,-0.005147869,0.0033690408,-0.00504784,-0.0020780595364014564,-0.0002695883773326171,0.00027559049962920767
2768000,-0.0021590895,-0.0004088866,-0.0033016647,-0.0054761115,0.0029839084,-0.005188623,-0.0020610693862695346,-0.000277741379182936,0.00021477011152767696
2776000,-0.00223358,-0.0003217596,-0.0033428567,-0.0053188163,0.0035345156,-0.006331989,,,
2792000,-0.0023769902,-0.00015009558,-0.0034350061,-0.0049477466,0.0026367987,-0.00657972,,,
2800000,-0.0024044812,-9.4182775e-05,-0.0034710874,-0.0050462903,0.0024703157,-0.0066544125,-0.001850566168175803,-0.0003996964766897199,0.00022358906215740084
2808000,-0.0024306832,-3.9493272e-05,-0.0035025033,-0.0048979935,0.0025231133,-0.0067950124,-0.0019422264698835412,-0.0004709368978544904,0.0002084047401409438
2816000,-0.002455288,1.701822e-05,-0.0035378397,-0.0047354484,0.0028600376,-0.007186605,,,
2832000,-0.0018751877,-0.00033300582,-0.0015869141,-0.005070564,0.0028170978,-0.007409425,,,
2840000,-0.0018985578,-0.00027796166,-0.0016174316,-0.0050839693,0.0025584449,-0.007887109,-0.0019438094966560873,-0.0005914879492789321,0.00022440042560546242
2848000,-0.0019207542,-0.00022498195,-0.0016479492,-0.0049079107,0.0022279818,-0.0083840275,-0.0018789869276826512,-0.000640479891577832,0.0001629954836534398
2856000,-0.0019413575,-0.00017632057,-0.0017089844,-0.005011042,0.0014946626,-0.008559898,,,
2872000,-0.0019849332,-8.543321e-05,-0.0018005371,-0.0055651795,0.001875212,-0.008159568,,,
2880000,-0.002008365,-3.5236942e-05,-0.0018615723,-0.0055077504,0.0022084792,-0.0087307645,-0.0018426626341138562,-0.0007578071815704809,0.000249850405214816
2888000,-0.0020288718,1.5372645e-05,-0.0018920898,-0.0050835884,0.0019160839,-0.009023051,-0.0018414694511808406,-0.0007286294193248419,0.00032215007027047243
2896000,-0.0020467965,6.263393e-05,-0.001953125,-0.0051022274,0.0013659563,-0.008592369,,,
2912000,-0.0020756177,0.00015244425,-0.0020446777,-0.0047746478,0.0014517972,-0.009237359,,,
2920000,-0.002086481,0.00019795998,-0.002105713,-0.004167575,0.0014585668,-0.009421057,-0.0020481841404332906,-0.0006305473343137487,1.6111128863753414e-05
2928000,-0.0020947454,0.0002449765,-0.002166748,-0.004346617,0.001782297,-0.009788069,-0.0020152413074882455,-0.0006175911213785943,-1.2856541339935291e-05
2936000,-0.0021041713,0.00029368012,-0.0022277832,-0.004492464,0.0019872354,-0.010073657,,,
2952000,-0.0021222648,0.00039468682,-0.0023498535,-0.004810666,0.0018997953,-0.011127961,,,
2960000,-0.002138183,0.00044762754,-0.0024414062,-0.0054646786,0.0014742097,-0.011690945,-0.0017438173523265084,-0.0005666825175902553,-2.3856197650851544e-07
2968000,-0.0021580607,0.0004991728,-0.0025024414,-0.0060637784,0.0015731005,-0.012130608,-0.0016431038402352283,-0.0005538311953661116,3.0474383624060415e-05
2976000,-0.0021801293,0.00055064383,-0.0025939941,-0.0061239754,0.0014193242,-0.012416669,,,
2992000,-0.0022222288,0.0006542949,-0.002746582,-0.0056112357,0.0017874535,-0.011084709,,,
3000000,-0.0022393463,0.0007084449,-0.0028076172,-0.0055894568,0.001696423,-0.010370945,-0.0017806439575721977,-0.000517008208884818,-0.000143332950394471
3008000,-0.0022550758,0.000761947,-0.0028686523,-0.00548821,0.00155622,-0.009590299,-0.001962833450469588,-0.0005024177000817758,-0.0002443651943257471
3016000,-0.0022706932,0.00081172155,-0.0029296875,-0.005452241,0.0012404217,-0.009563067,,,
3032000,-0.0022985616,0.00091251533,-0.0030517578,-0.005303979,0.0015686954,-0.008760153,,,
3040000,-0.0023123217,0.00096032844,-0.0030822754,-0.0054754606,0.0005876424,-0.0082741985,-0.0018257748165265606,-0.0006719313601874165,-0.0004921347281154204
3048000,-0.0023263781,0.0010041858,-0.0031433105,-0.005485224,0.00064883276,-0.0077861007,-0.001773424029453954,-0.0006712421231191073,-0.00034730159468711346
3056000,-0.0023419857,0.0010505123,-0.0031738281,-0.0058365865,0.0011084238,-0.008257409,,,
3072000,-0.002373555,0.001146447,-0.0032958984,-0.0059647006,0.0011233822,-0.008281739,,,
3080000,-0.0023880508,0.001195587,-0.003326416,-0.005034727,0.0012053372,-0.008546927,-0.0018079413021644677,-0.0009542880864071728,1.5849524317886619
3088000,-0.002395877,0.0012448848,-0.0033874512,-0.0045858915,0.001273865,-0.008397058,-0.001813794724286226,-0.0009135920661129621,1.5850228917936768
3096000,-0.0024038067,0.0012964095,-0.0034484863,-0.0049317726,0.0015584497,-0.008498117,,,
3112000,-0.002431899,0.0013894839,-0.003540039,-0.0058151674,0.00038009058,-0.007947245,,,
3120000,-0.0024493325,0.0014312888,-0.0035705566,-0.0061291535,0.0003701468,-0.008107796,-0.0014651104597268637,-0.0007475663556390592,1.584933830249093
3128000,-0.0024688153,0.0014715465,-0.0036315918,-0.006437774,3.0037329e-05,-0.0072492007,-0.0013697607571749298,-0.0006687994962882523,1.5849202392173198
3136000,-0.0024894814,0.0015092869,-0.0036621094,-0.006570656,3.7143927e-05,-0.0069222255,,,
3152000,-0.0025227915,0.0016051219,-0.0037231445,-0.005910481,0.0017814569,-0.006195761,,,
3160000,-0.0025334447,0.0016690196,-0.003753662,-0.0058950908,0.0023454665,-0.005170853,-0.001441730549477786,-0.0005434773897074013,1.5860559489406385
3168000,-0.0025444569,0.0017366394,-0.0037841797,-0.0059577595,0.0027519136,-0.0045920294,-0.0015159114485677572,-0.0005817184319979762,1.5862898640181693
3176000,-0.0025563051,0.0018077873,-0.0038146973,-0.006378087,0.0031760277,-0.0042585665,,,
3192000,-0.0025811917,0.0019589236,-0.0038452148,-0.0059944564,0.004030595,-0.003936611,,,
3200000,-0.002594751,0.002037801,-0.0038452148,-0.0069293235,0.0039601484,-0.0039030742,-0.001474659228518148,-0.0006562180822436023,1.5875994310216863
3208000,-0.0026019623,0.0021615215,-0.0038452148,-0.0077464604,-0.0024499337,-0.00338529,-0.0015298453808171165,-0.0007433840758326466,1.587784709220121
3216000,-0.002621954,0.002183967,-0.0038452148,-0.0070861415,-0.002828091,-0.0033938314,,,
3232000,-0.0026441128,0.0021267713,-0.003753662,-0.0065594586,-0.0033063954,-0.00335659,,,
3240000,-0.0026515552,0.0020542752,-0.003692627,-0.0061843777,-0.0025048815,-0.0025646586,-0.0015301330343429175,-0.0009192319251624048,1.5884410573409569
3248000,-0.0026585057,0.0019904834,-0.0036315918,-0.0065978114,-0.0014891064,-0.0017461401,-0.0016353408677237085,-0.0009109173065656868,1.5885904517680702
3256000,-0.0026674925,0.0019347728,-0.0035705566,-0.006654082,-0.00078541075,-0.001555734,,,
3272000,-0.0026914277,0.0018249172,-0.0034484863,-0.007695636,-0.0017403082,-0.0015074393,,,
3280000,-0.0027092125,0.0017668785,-0.0033874512,-0.007760235,-0.0016180865,-0.0018473808,-0.0016712248047062966,-0.0009930475384465215,1.5892944995814953
3288000,-0.0027257209,0.0017117047,-0.0033569336,-0.0074725416,-0.0014304953,-0.0029681518,-0.0017035478721455822,-0.0008030308225856153,1.5892999800669023
3296000,-0.0027388034,0.0016564215,-0.003326416,-0.0070489408,-0.0015020836,-0.0031417566,,,
3312000,-0.0027613307,0.0015499083,-0.0032653809,-0.007115361,-0.0017964604,-0.0037997214,,,
3320000,-0.0027731087,0.0014964165,-0.0032348633,-0.0069428054,-0.0016118162,-0.00381337,-0.0015681124000971364,-0.0007135708024929511,1.58938415611068
3328000,-0.002783205,0.0014425035,-0.0032043457,-0.006689659,-0.0020749308,-0.0038042436,-0.001640002512491796,-0.0006524039662381289,1.5893882085269566
3336000,-0.0027933887,0.0013846024,-0.0031738281,-0.006975747,-0.002490329,-0.00408408,,,
3352000,-0.002814285,0.00126826,-0.0030822754,-0.006372131,-0.0021938013,-0.003891477,,,
3360000,-0.0028242152,0.0012173625,-0.0030212402,-0.007185512,-0.0012001509,-0.0037328089,-0.0015918139231417467,-0.0006293484890917034,1.5894254064803461
3368000,-0.0028416482,0.0011722799,-0.002960205,-0.0079526175,-0.0014738648,-0.0028478536,-0.001637975233304153,-0.0007374423525932518,1.589411340001603
3376000,-0.002862279,0.0011266835,-0.00289917,-0.008000948,-0.0013151297,-0.003360339,,,
3392000,-0.0029136003,0.0010493003,-0.0028076172,-0.009281829,-0.00090413296,-0.0027566482,,,
3400000,-0.0029445847,0.0010154123,-0.002746582,-0.0091326395,-0.00034932402,-0.0028926386,-0.0014843919768367563,-0.0008219602512013834,1.5892346435851077
3408000,-0.0029746275,0.000987796,-0.0026855469,-0.009201625,-1.721998e-05,-0.002847921,-0.001410325269003301,-0.00079185756748228,1.5891138644010867
3416000,-0.0030049975,0.00095926836,-0.0026245117,-0.008982936,-0.00084363914,-0.0032689779,,,
3432000,-0.003056904,0.0009124131,-0.0027770996,-0.008270844,0.0011591368,-0.0023632792,,,
3440000,-0.0030800363,0.0009040801,-0.0028381348,-0.008008238,0.0018773316,-0.0019621083,-0.001428510517762766,-0.0008787881200676887,1.5888155522726042
3448000,-0.003099848,0.00089828076,-0.00289917,-0.0074479873,0.0016176978,-0.0009012272,-0.0015482065088315955,-0.0008955494300776928,1.588697757125533
3456000,-0.0031167765,0.00089339964,-0.002960205,-0.0070114364,0.0019655288,-0.00069293316,,,
3472000,-0.0031269307,0.0009056016,-0.0030517578,-0.0047484864,0.0034915302,-0.00016024538,,,
3480000,-0.0031215388,0.0009208264,-0.0030822754,-0.004168774,0.004209272,-0.00029323262,-0.00181716182657204,-0.0005819113322188926,1.5879823864332658
3488000,-0.0031125292,0.00094086054,-0.0031433105,-0.0035111082,0.0044799545,-0.0007764332,-0.0019470286842243048,-0.0005444837421058317,1.5878565992602316
3496000,-0.0030985551,0.0009643117,-0.0031738281,-0.002987921,0.0047286497,-0.00070489425,,,
3512000,-0.0030715752,0.0010064228,-0.0032348633,-0.0033907478,0.0036572884,0.0005773611,,,
3520000,-0.0030577502,0.001025974,-0.0032348633,-0.0027396576,0.0042739743,0.0011025871,-0.001755522767914372,-0.0005157366041549716,1.5872654787563172
3528000,-0.00303974,0.0010538378,-0.0032653809,-0.0023155673,0.005150868,0.0011003606,-0.0016973394945479473,-0.0005540509875274426,1.587136357256034
3536000,-0.0030194805,0.0010848928,-0.0032653809,-0.0020436263,0.0049458086,0.00028756136,,,
3552000,-0.0029718466,0.001138001,-0.003326416,-0.0017505506,0.004229668,-0.0005067861,,,
3560000,-0.00295021,0.0011642344,-0.0033569336,-0.0018090038,0.0041577527,-0.00012431467,-0.0017157011828512424,-0.0004816792975176661,1.5865186555540056
3568000,-0.0029267478,0.0011922556,-0.0033874512,-0.0013025797,0.004501912,-0.00017208619,-0.0017736083040921333,-0.0006618122471257959,1.5863963319335554
3576000,-0.0029009322,0.0012233714,-0.0034179688,-0.0010397355,0.0047689066,-0.00044100877,,,
3592000,-0.0028405685,0.0012943695,-0.003479004,-0.0004795209,0.0053041135,-0.0014396693,,,
3600000,-0.0028109748,0.0013322269,-0.003540039,-0.0006139927,0.005343797,-0.0023378849,-0.001812282153318755,-0.0006836349444249652,1.586040449896772
3608000,-0.0027820326,0.0013720134,-0.0035705566,-0.00044224353,0.005750534,-0.0026370876,-0.0017460083098437798,-0.0007796437338069742,1.5860045656992836
3616000,-0.0027487404,0.001417077,-0.0036315918,0.0003964325,0.0063843527,-0.0031316287,,,
3632000,-0.0025710608,0.0016022528,-0.0036315918,0.0016399546,0.008261118,-0.0039780647,,,
3640000,-0.0024311834,0.0017392685,-0.0036010742,0.0019097794,0.007948942,-0.0040777265,-0.0015329382076190836,-0.0007576958302831852,1.5857938973475825
3648000,-0.0022907157,0.0018781128,-0.0035705566,0.0023748074,0.008803303,-0.0044063944,-0.001496052372733824,-0.0007094639599376397,1.5857415578330478
3656000,-0.0021451288,0.0020220294,-0.0035705566,0.0032074717,0.008990913,-0.0044241096,,,
3672000,-0.0018451987,0.0023184172,-0.003540039,0.0036744843,0.009941207,-0.0046340735,,,
3680000,-0.001696705,0.0024737024,-0.003540039,0.003850585,0.010723411,-0.005060085,-0.001378917129951656,-0.0008421665820212695,1.585627584170391
3688000,-0.0015480053,0.0026325558,-0.003540039,0.0037800546,0.010757019,-0.0051426073,-0.001385973600475158,-0.0008944825996411765,1.585610176220102
3696000,-0.0013992747,0.0027939158,-0.003540039,0.004266288,0.011376765,-0.00550183,,,
3712000,-0.0010952551,0.003126375,-0.0035095215,0.00508322,0.012241106,-0.005766501,,,
3720000,-0.00093885366,0.003300889,-0.0035095215,0.005605184,0.013014597,-0.005810038,-0.0013805565589929054,-0.0007979331104248962,1.5855915771925206
3728000,-0.00078073825,0.0034804777,-0.0035095215,0.0058920262,0.013456706,-0.006074676,-0.0013505696280891647,-0.0007474085546262381,1.5855544992158743
3736000,-0.0006207082,0.0036639946,-0.003479004,0.00619568,0.01422419,-0.0064350753,,,
3752000,-0.0002968398,0.0040565315,-0.003479004,0.006916074,0.015907412,-0.006596055,,,
3760000,-0.0001304081,0.004265698,-0.003479004,0.007292602,0.017037727,-0.007282321,-0.001342609602496816,-0.0007453064425745185,1.5853613580662262
3768000,3.8572096e-05,0.004482131,-0.0035095215,0.00787593,0.017417647,-0.0073609604,-0.0012953083528651891,-0.0007240020836846602,1.585267053539393
3776000,0.00021216333,0.0046977773,-0.0035095215,0.00863509,0.017127912,-0.0073395437,,,
3792000,0.0005684543,0.0051316028,-0.003540039,0.008606322,0.01764548,-0.008035931,,,
3800000,0.00073993177,0.005353843,-0.0035705566,0.007953831,0.018269759,-0.007920455,-0.0012696169465118545,-0.0006901794079084354,1.5853945034233563
3808000,0.00090576435,0.005577694,-0.0036010742,0.007586245,0.018200157,-0.0077718003,-0.0012885457793269176,-0.000723919195953798,1.5854718785606
3816000,0.0010716008,0.005802752,-0.0036315918,0.008110693,0.018502263,-0.0073154434,,,
3832000,0.0014140648,0.006253988,-0.0036315918,0.009164626,0.018537752,-0.0059773596,,,
3840000,0.001590004,0.0064802016,-0.0036621094,0.009762227,0.018768257,-0.005315515,-0.0014056812510256822,-0.00041244669124113634,1.5855387600237745
3848000,0.0017684775,0.0067077354,-0.0036621094,0.009790636,0.018834483,-0.0054495567,-0.0013020496160500706,-0.00039604656502324526,1.5855299359801946
3856000,0.0019471742,0.0069337534,-0.0037231445,0.010253819,0.018515192,-0.0060437983,,,
3872000,0.0023151662,0.0073766545,-0.0038146973,0.011314169,0.018161418,-0.005503928,,,
3880000,0.0025018912,0.0075975666,-0.0038757324,0.011548113,0.018160505,-0.005849818,-0.0010483331625630015,-0.00037924853131322654,1.5854792669915023
3888000,0.002689001,0.00781636,-0.0039367676,0.011671188,0.017864542,-0.006478567,-0.0010363015249461862,-0.000403199850563254,1.5854930964040381
3896000,0.0028783511,0.008035576,-0.0039978027,0.0125237405,0.01833325,-0.0062252833,,,
3912000,0.0032711537,0.008477721,-0.0040893555,0.013125999,0.018522944,-0.005801935,,,
3920000,0.0034665656,0.0086995335,-0.0041503906,0.013446768,0.018728409,-0.0055831405,-0.0011064309463565028,-0.0005656760487640842,1.5857094860957581
3928000,0.0036685322,0.008923354,-0.004211426,0.014844166,0.01922817,-0.0059574037,-0.0010134035597054785,-0.0006436465053995584,1.5856173288770554
3936000,0.003876296,0.009149808,-0.0043029785,0.015162315,0.019260174,-0.0064241886,,,
3952000,0.004296351,0.009595242,-0.0044555664,0.014753972,0.019945547,-0.007167174,,,
3960000,0.004511171,0.009819774,-0.004547119,0.014929441,0.0201013,-0.007844945,-0.001220419070413185,-0.0006748725939602561,1.5856745563161732
3968000,0.0047278167,0.010042522,-0.004638672,0.015388875,0.020055328,-0.008187383,-0.0012599111841749046,-0.000576836205412048,1.585704360665498
3976000,0.004944992,0.010268121,-0.0047302246,0.015451743,0.02067551,-0.008534758,,,
3992000,0.0053763916,0.01072231,-0.00491333,0.015166927,0.021332737,-0.008842867,,,
4000000,0.0055877925,0.010955314,-0.0049438477,0.014829601,0.02179898,-0.010185974,-0.001483687266722284,-0.0006746287038055084,1.5859071575826742
4008000,0.005795042,0.011188768,-0.005004883,0.014564088,0.02183117,-0.009843759,-0.0015289289007255939,-0.0006910829656442808,1.585997292052611
4016000,0.006002356,0.011422015,-0.005065918,0.0150808515,0.021872422,-0.009069497,,,
4032000,0.0064128577,0.011674847,-0.0050964355,0.015074563,0.022335444,-0.009823339,,,
4040000,0.0066152634,0.011693088,-0.0050964355,0.014738162,0.021781228,-0.010503365,-0.00166502439930535,-0.0006558109777755738,1.5860598842090698
4048000,0.006815104,0.011711505,-0.0050964355,0.0148537895,0.02175054,-0.01046915,-0.001712058192003477,-0.0006062440596279865,1.58608658944242
4056000,0.007019661,0.011733813,-0.0050964355,0.015404114,0.02167107,-0.010951747,,,
4072000,0.0074392385,0.011774664,-0.0050964355,0.016432786,0.020658037,-0.011702571,,,
4080000,0.0076569766,0.011796841,-0.0050964355,0.017090581,0.020753542,-0.011763764,-0.0019508822684217524,-0.0006419036512564485,1.5859147897104202
4088000,0.007878803,0.011821116,-0.0050964355,0.017468184,0.020773523,-0.011739683,-0.002028130899447465,-0.0006628213935643906,1.58592695037425
4096000,0.008105622,0.011849082,-0.0050964355,0.018333863,0.020999853,-0.011724398,,,
4112000,0.008584994,0.011923684,-0.005126953,0.020610454,0.022338241,-0.012813542,,,
4120000,0.008835586,0.011971213,-0.005126953,0.020986965,0.022777982,-0.012824029,-0.0023203446797744644,-0.0005617531428335195,1.5856151815785304
4128000,0.009089984,0.012026222,-0.0051574707,0.02159717,0.023495385,-0.012776639,-0.0024357619759093874,-0.0005671951525423057,1.5856478492921005
4136000,0.009346906,0.01208213,-0.0051879883,0.021558568,0.022856377,-0.012846879,,,
4152000,0.009875487,0.01220271,-0.0051879883,0.02319168,0.023226878,-0.011315276,,,
4160000,0.010147234,0.0122712795,-0.0051879883,0.02297877,0.023576384,-0.011146392,-0.0028223477886094787,-0.00047315542488972123,1.5856082673145666
4168000,0.0104224505,0.012343441,-0.0051879883,0.023990469,0.023745032,-0.011592164,-0.002780688093102407,-0.00041517698001771196,1.5855085963190831
4176000,0.010705922,0.012416565,-0.005218506,0.025058182,0.02352489,-0.011741281,,,
4192000,0.011287122,0.012562853,-0.005218506,0.025371678,0.023225835,-0.011710333,,,
4200000,0.011577213,0.012635846,-0.0052490234,0.02553588,0.022927685,-0.012202971,-0.002841523283519698,-0.0007185013418822548,1.585579892431574
4208000,0.0118713705,0.012709231,-0.005279541,0.026282502,0.022919532,-0.011932644,-0.0028830993756497588,-0.0006193091790266782,1.5855865691857745
4216000,0.01216773,0.012782278,-0.005279541,0.026347695,0.022661215,-0.012252719,,,
4232000,0.012756676,0.012937039,-0.005279541,0.02583984,0.02320991,-0.012827618,,,
4240000,0.013052044,0.013017735,-0.0053100586,0.026555795,0.023097867,-0.012499989,-0.002962977978174898,-0.0006744547792751305,1.585696133472039
4248000,0.013350284,0.013098754,-0.0053100586,0.026631841,0.023097752,-0.011623756,-0.002994828845137398,-0.0006502605268779914,1.5856511867844896
4256000,0.013644266,0.013184719,-0.0053100586,0.025926573,0.023874097,-0.010998562,,,
4272000,0.014239425,0.013370887,-0.005340576,0.027795672,0.024012294,-0.010022461,,,
4280000,0.014547413,0.013463325,-0.005340576,0.02841446,0.023713518,-0.00937081,-0.0030208699663781574,-0.0006774835573950794,1.5856317542693823
4288000,0.014858493,0.013554918,-0.0053100586,0.02876104,0.023416508,-0.009140708,-0.00300893110263762,-0.0007016647717181853,1.585611128907002
4296000,0.0151743125,0.01364378,-0.005279541,0.029748239,0.022733008,-0.008976186,,,
4312000,0.015824696,0.013818826,-0.0052490234,0.031274945,0.022306629,-0.008897378,,,
4320000,0.016158752,0.013906276,-0.0052490234,0.03218444,0.022505786,-0.009020316,-0.003148639810065388,-0.0007363534033772228,1.5856230520625916
4328000,0.016498232,0.013998221,-0.0052490234,0.032818865,0.022923363,-0.00890955,-0.003155894340168219,-0.0006050458547083284,1.5856918415254502
4336000,0.016841136,0.01409343,-0.0052490234,0.033251278,0.023014367,-0.00910632,,,
4352000,0.017513853,0.014303326,-0.005218506,0.03308021,0.023358196,-0.009891497,,,
4360000,0.017840309,0.014424652,-0.0052490234,0.033134587,0.023880357,-0.009697258,-0.0033665302667466564,-0.0007516485182534911,1.5857915134293792
4368000,0.01816703,0.014549382,-0.0052490234,0.033493094,0.023828767,-0.009378143,-0.0034361504750569567,-0.0008126086052757579,1.5857841223885565
4376000,0.01849651,0.014675274,-0.0052490234,0.033721283,0.02397853,-0.009255829,,,
4392000,0.019158363,0.014927056,-0.005279541,0.034169186,0.023197658,-0.010727038,,,
4400000,0.019492269,0.015049737,-0.0053100586,0.03506297,0.022917196,-0.011364545,-0.0036947661659663747,-0.0008508474428495275,1.5859795273871051
4408000,0.019829407,0.015173089,-0.005340576,0.035054475,0.023162656,-0.011430442,-0.003732691434855731,-0.0008942636223332398,1.5860688275061756
4416000,0.02016793,0.015300856,-0.0054016113,0.03584553,0.023647396,-0.011498066,,,
4432000,0.020643141,0.015327803,-0.005432129,0.03610911,0.023608396,-0.012535594,,,
4440000,0.020776205,0.015229631,-0.0054626465,0.03649063,0.023506999,-0.012604679,-0.0037786884408510446,-0.0007572801110496738,1.58608611174961
4448000,0.020918535,0.015136551,-0.005493164,0.037257932,0.023662295,-0.012610605,-0.0037671845247599527,-0.0007085772824160739,1.586130224973813
4456000,0.02106945,0.015050341,-0.0055236816,0.03777596,0.023733582,-0.012091509,,,
4472000,0.021395465,0.014877631,-0.005584717,0.038941972,0.021881381,-0.012009319,,,
4480000,0.02156633,0.014788091,-0.0056152344,0.038590644,0.021159004,-0.012319896,-0.003853902095051749,-0.0009510687356364343,1.5860168464661357
4488000,0.021737438,0.0146993855,-0.005645752,0.038314536,0.020813378,-0.011936147,-0.003955233801628819,-0.0009418158088827848,1.5859770269944145
4496000,0.021910973,0.01461211,-0.0056762695,0.038472228,0.020398393,-0.0116519425,,,
4512000,0.022263458,0.014440904,-0.0056762695,0.037923113,0.019797526,-0.0115382,,,
4520000,0.02244155,0.014359038,-0.005645752,0.03813088,0.019482283,-0.011099596,-0.0039417815051634,-0.001020245663866224,1.5858125008537163
4528000,0.022625264,0.0142794205,-0.005645752,0.03842954,0.019514188,-0.010105398,-0.003930162582908656,-0.0011050633541272038,1.5858134553160432
4536000,0.022812497,0.01420575,-0.005645752,0.038683593,0.019862039,-0.010002194,,,
4552000,0.023201773,0.014073844,-0.0056152344,0.04033355,0.019419646,-0.0103452485,,,
4560000,0.023406092,0.014015086,-0.0056152344,0.040726133,0.019344253,-0.01037307,-0.003765351805653948,-0.0014349180541234417,1.5857362046983599
4568000,0.02361645,0.013956565,-0.0056152344,0.04149172,0.018604776,-0.010223871,-0.0037226800404573965,-0.0014624300503394915,1.585632721103184
4576000,0.023832303,0.01389848,-0.005645752,0.04173332,0.018707376,-0.009927859,,,
4592000,0.024277635,0.013792577,-0.005645752,0.042487334,0.017903749,-0.01006594,,,
4600000,0.024504911,0.013737251,-0.0056762695,0.042343628,0.017733665,-0.010108592,-0.003674429100017159,-0.0016812421152661587,1.5855863484236685
4608000,0.024734499,0.013684988,-0.0056762695,0.04245708,0.017768152,-0.008991662,-0.0036715136529079837,-0.0017677396429339061,1.585602446113306
4616000,0.024962656,0.013635239,-0.0056762695,0.04185861,0.017537974,-0.008831202,,,
4632000,0.025429485,0.013545306,-0.005706787,0.042433675,0.01743381,-0.008140647,,,
4640000,0.025665568,0.013502159,-0.005706787,0.042630427,0.017388836,-0.007662297,-0.003738718834060537,-0.0016061538984049875,1.5854958571963371
4648000,0.025904417,0.013461856,-0.0056762695,0.04255489,0.017127689,-0.007711185,-0.0037549954008991603,-0.0015961386754303167,1.5853879606541836
4656000,0.026145976,0.013422663,-0.0056762695,0.043136783,0.017176675,-0.008609813,,,
4672000,0.026645774,0.013354,-0.0056762695,0.043568555,0.017176136,-0.0075286874,,,
4680000,0.026898807,0.0133241685,-0.0056762695,0.043843932,0.017101899,-0.0069359797,-0.0038757471938664933,-0.001654027201978148,1.5852600364432963
4688000,0.027157575,0.013295175,-0.005645752,0.044589225,0.016615393,-0.006562852,-0.003946984079653292,-0.0016659579262583313,1.5852717194706971
4696000,0.027422724,0.013264381,-0.005645752,0.045111354,0.016279701,-0.006334401,,,
4712000,0.027974842,0.013204335,-0.0056152344,0.046660736,0.015228903,-0.006025809,,,
4720000,0.02826058,0.013171249,-0.0056152344,0.047342166,0.015291534,-0.0053610513,-0.003942679215378504,-0.0016981947714626126,1.5849725947314082
4728000,0.02855189,0.01314404,-0.0056152344,0.047628008,0.015730297,-0.005056662,-0.00402635725847896,-0.0017348228109621713,1.5849433862767301
4736000,0.028845614,0.013124158,-0.005584717,0.047667615,0.016586607,-0.005097629,,,
4752000,0.029417863,0.013078924,-0.005554199,0.04843128,0.01600937,-0.0055409917,,,
4760000,0.029702384,0.013042193,-0.005554199,0.049101114,0.015010552,-0.0063402955,-0.004074771589995956,-0.0017979593622789683,1.5849997785196015
4768000,0.029991595,0.013007725,-0.005554199,0.049237795,0.015916325,-0.006884711,-0.0040123677575675,-0.0018677679272836993,1.58505128537358
4776000,0.030283378,0.012980981,-0.005554199,0.049574267,0.016028574,-0.0071476796,,,
4792000,0.030887246,0.012934758,-0.0055236816,0.051084634,0.016089803,-0.008128989,,,
4800000,0.031197948,0.012915256,-0.0055236816,0.051171687,0.015979202,-0.007964572,-0.003947100732590287,-0.001769526271672327,1.585080968064582
4808000,0.031507824,0.012895977,-0.005493164,0.050507303,0.015556104,-0.007406566,-0.0038945118372101565,-0.0017864720619488194,1.5851581040452922
4816000,0.03181398,0.012874536,-0.005493164,0.05023317,0.014781973,-0.0078010354,,,
4832000,0.03196988,0.012616128,-0.0054626465,0.050973885,0.013910552,-0.007633609,,,
4840000,0.031823277,0.012381907,-0.0054016113,0.050108954,0.013204095,-0.007589436,-0.0036092805483502357,-0.0018052922588862998,1.585222008287411
4848000,0.03168088,0.0121479435,-0.0053710938,0.04959922,0.012464098,-0.0071673803,-0.0036245194538357247,-0.0018428306746911384,1.585132592423263
4856000,0.031545628,0.011915247,-0.005340576,0.04928917,0.011995507,-0.0068127383,,,
4872000,0.031292956,0.011453292,-0.0052490234,0.04848603,0.010802719,-0.0074402657,,,
4880000,0.031174634,0.011223229,-0.005218506,0.047772814,0.010242924,-0.007541759,-0.0035211416556708663,-0.001818477247048537,1.5851067206440526
4888000,0.031059507,0.010995931,-0.0051879883,0.046951413,0.0101063615,-0.0075868503,-0.003587681473760727,-0.0018207849517935832,1.5850796585968276
4896000,0.030946976,0.010768739,-0.0051879883,0.046571627,0.00911209,-0.007527983,,,
4912000,0.030747678,0.010311166,-0.005126953,0.046550937,0.007688465,-0.0059937662,,,
4920000,0.030659419,0.010080077,-0.0050964355,0.04679842,0.0069796443,-0.005520088,-0.0036324685770903436,-0.0016575821815341023,1.5850629624639077
4928000,0.030576283,0.009850033,-0.005065918,0.04583534,0.006641872,-0.004859758,-0.0035309328849003913,-0.001693752938470221,1.5849944112490526
4936000,0.030495461,0.009619633,-0.0050354004,0.045747306,0.005863311,-0.005026624,,,
4952000,0.030350301,0.009160127,-0.0049743652,0.045844384,0.004433214,-0.0051951446,,,
4960000,0.03028254,0.008928769,-0.0049743652,0.04554775,0.0035824943,-0.004897047,-0.0034442801874189108,-0.0017055099716337782,1.584598835441514
4968000,0.030217355,0.008696332,-0.0049438477,0.045099676,0.0032493847,-0.0048437635,-0.003574074744331106,-0.0016326641466688795,1.5844571985137927
4976000,0.030158523,0.008466431,-0.00491333,0.045422755,0.0030459377,-0.0049129934,,,
4992000,0.030067565,0.00800918,-0.00491333,0.046092372,0.0025106396,-0.005253326,,,
5000000,0.03003285,0.0077827987,-0.00491333,0.045652978,0.0018870772,-0.0054644025,-0.0038085608834486553,-0.001437227037997471,1.5842734765156994
5008000,0.02999626,0.0075579514,-0.00491333,0.044463817,0.0018822291,-0.0060519646,-0.003906310622320388,-0.0013681500761769108,1.5841134807316013
5016000,0.029958336,0.007335525,-0.00491333,0.043755233,0.0014417865,-0.006088555,,,
5032000,0.029889759,0.006892245,-0.00491333,0.04337557,0.0010379024,-0.005206908,,,
5040000,0.029864674,0.0066755805,-0.00491333,0.043572042,0.0011596271,-0.0050073205,-0.00372310209144227,-0.0013596374306812976,1.584217918739751
5048000,0.02984542,0.0064619505,-0.00491333,0.043275233,0.0007106409,-0.005074577,-0.0037864000604619576,-0.0013838052742304963,1.5841955053934011
5056000,0.029828474,0.006244272,-0.0049438477,0.042798966,-0.0004439777,-0.005243603,,,
5072000,0.029804772,0.0057995077,-0.005004883,0.042086452,-0.0017718767,-0.0040927352,,,
5080000,0.029795611,0.0055798395,-0.0050354004,0.04171036,-0.0012625032,-0.00409389,-0.003825375218308109,-0.0012765353287203453,1.584240808079103
5088000,0.029792346,0.005364832,-0.0050354004,0.042046625,-0.0013307745,-0.0031647796,-0.003846361976690632,-0.0012135408537690955,1.5841671289225412
5096000,0.029797437,0.0051532565,-0.005065918,0.042347264,-0.001297399,-0.0031557197,,,
5112000,0.029824072,0.004745853,-0.0050964355,0.042118385,-0.00078935904,-0.002864294,,,
5120000,0.029845668,0.0045493674,-0.0050964355,0.042352226,-0.000586881,-0.0031204137,-0.003760861994282174,-0.0011772156385290416,1.5842201811137564
5128000,0.029877143,0.004355544,-0.005126953,0.043192904,-0.00092817657,-0.0028181432,-0.0036993325083696186,-0.0011714208290588659,1.5841643873520157
5136000,0.02991854,0.004162294,-0.0051574707,0.0434128,-0.0011345352,-0.0028443155,,,
5152000,0.029992526,0.0037807163,-0.005218506,0.042356744,-0.0009477395,-0.0022659614,,,
5160000,0.03002281,0.0035900588,-0.0052490234,0.042092,-0.0017667544,-0.002243331,-0.0037252176599332112,-0.0011733973297512364,1.5839705351790059
5168000,0.030056788,0.0034003558,-0.005279541,0.04183187,-0.0015981081,-0.0023204333,-0.0036364212762573477,-0.001188702462786375,1.5839791190791994
5176000,0.030095832,0.0032134017,-0.005279541,0.042141628,-0.0017545393,-0.0023723526,,,
5192000,0.030195981,0.0028437306,-0.005279541,0.04233034,-0.0022358694,-0.0021620372,,,
5200000,0.030251674,0.0026595783,-0.005218506,0.04181204,-0.0027359105,-0.0027148484,-0.0033877174999004923,-0.0012864077053633305,1.5839285708377682
5208000,0.03031036,0.0024719732,-0.0051879883,0.042022664,-0.0037699882,-0.0033383875,-0.00334313369528991,-0.0013004141101094688,1.5839706567337164
5216000,0.030377088,0.0022792355,-0.0051574707,0.042092897,-0.004446515,-0.0032059082,,,
5232000,0.030142264,0.0020320753,-0.005004883,0.042061973,-0.0043372363,-0.0025058945,,,
5240000,0.029848134,0.0019768646,-0.00491333,0.041841105,-0.0043318006,-0.0023061056,-0.0030882073614007313,-0.001374964686280425,1.5840516078094635
5248000,0.029563874,0.0019226756,-0.0047912598,0.041485824,-0.004106913,-0.0019606373,-0.003109411626173247,-0.0014336384155897134,1.5839664847669293
5256000,0.029286904,0.0018751364,-0.004699707,0.040647235,-0.0031706518,-0.0022638834,,,
5272000,0.028760737,0.0017911802,-0.0045166016,0.040457252,-0.0026762814,-0.0019538852,,,
5280000,0.028509405,0.0017591263,-0.0043945312,0.039680645,-0.0013800822,-0.001984041,-0.0031378725130539356,-0.0013180319543527603,1.58387945219989
5288000,0.028265975,0.0017342004,-0.0043029785,0.039703697,-0.0011477427,-0.0021871417,-0.0032068727198367544,-0.001254984623494937,1.5838335527199237
5296000,0.028031826,0.0017119821,-0.0042419434,0.039182432,-0.0007628507,-0.002182668,,,
5312000,0.027584445,0.0016750017,-0.004058838,0.038906276,-0.0007295805,-0.00094604766,,,
5320000,0.02737539,0.0016596323,-0.0039978027,0.03871963,-0.00034169748,-0.001212977,-0.0032194489264073933,-0.0014211582147145075,1.5840848706310058
5328000,0.027175132,0.0016480268,-0.0039367676,0.038937215,-0.00012508816,-0.001475725,-0.003115810934742895,-0.0014157859914535284,1.5841639153376044
5336000,0.026986403,0.0016394634,-0.0038757324,0.038802907,0.0002125456,-0.0017645746,,,
5352000,0.026619343,0.0016238522,-0.0037841797,0.037844136,-0.00022348606,-0.0014828983,,,
5360000,0.026446082,0.0016129297,-0.0037231445,0.037819915,-0.0005816608,-0.0018428904,-0.0031667168081370104,-0.0013500477097443302,1.5841378036418028
5368000,0.02627878,0.0015998929,-0.003692627,0.037346374,-0.0010541311,-0.0013340544,-0.003118671665249852,-0.0013439324073410046,1.5841153902940246
5376000,0.026116837,0.001585133,-0.0036315918,0.03688208,-0.0011686546,-0.0012567583,,,
5392000,0.025805224,0.0015568022,-0.003540039,0.036451735,-0.001237068,-0.0008978273,,,
5400000,0.025664454,0.0015456663,-0.003479004,0.037100274,-0.0010238664,-0.00086793496,-0.0030160362151636475,-0.0011962659716232135,1.584220656307987
5408000,0.025537046,0.0015364013,-0.0034484863,0.037733994,-0.0010720469,-0.0008921928,-0.0029461571524895393,-0.001146306301985877,1.5842422352566936
5416000,0.025419576,0.0015272364,-0.0033874512,0.03751047,-0.0011257728,-0.0011211704,,,
5432000,0.02519707,0.0015111162,-0.0032958984,0.037309356,-0.0010906465,-0.0009827304,,,
5440000,0.025102284,0.0015052768,-0.0032653809,0.03804419,-0.000999599,-0.0006323184,-0.0029141157779945495,-0.001279727672283023,1.584669525632318
5448000,0.025017636,0.0015020792,-0.0032043457,0.038209386,-0.0005781632,-0.0001882745,-0.002955511521160102,-0.0013072452505853373,1.5847381968607637
5456000,0.024943179,0.0015013842,-0.0031738281,0.038435362,-0.00050630583,0.0004700406,,,
5472000,0.02480276,0.0015178752,-0.0030822754,0.036780402,0.0013220886,-0.00035236537,,,
5480000,0.024738906,0.0015332004,-0.0030212402,0.03721454,0.0011335278,-0.00043951563,-0.0029332947553729794,-0.0014895981564201745,1.5851926729240633
5488000,0.024685042,0.0015504268,-0.0029907227,0.037486304,0.0015890565,-0.0008956613,-0.0029481722908123735,-0.0014455235009410224,1.585203997502366
5496000,0.024640199,0.0015696877,-0.002960205,0.037843764,0.0015434725,-0.00068266166,,,
5512000,0.02458833,0.0016110316,-0.00289917,0.0389111,0.0015542898,-0.00023368686,,,
5520000,0.024574671,0.0016283428,-0.0028686523,0.03878142,0.0008500975,-0.000556743,-0.0029261181050746735,-0.0014728459732317835,1.5855763297568009
5528000,0.024567254,0.0016404954,-0.0028381348,0.039045397,0.00026004537,-0.0012479473,-0.002848496730402146,-0.0016048722804751995,1.5857016351470394
5536000,0.024568232,0.0016520114,-0.0027770996,0.038959984,0.0004954622,-0.0011206428,,,
5552000,0.024583079,0.001676541,-0.0026855469,0.038824204,0.00023816258,0.0007495144,,,
5560000,0.024593098,0.0016882707,-0.0026245117,0.038478043,-2.5497387e-05,0.0008540056,-0.0030292013507444795,-0.0017462719259605196,1.5857995192276726
5568000,0.024610572,0.0016996624,-0.0025634766,0.038989868,0.00019894907,0.0003770776,-0.003087442719053431,-0.0016676714457606126,1.5858565065561403
5576000,0.024639022,0.0017141675,-0.0025024414,0.039252583,0.00069808867,8.594886e-05,,,
5592000,0.02471395,0.0017563846,-0.0024108887,0.0392547,0.0016296733,0.00072103785,,,
5600000,0.024764748,0.0017797595,-0.0023498535,0.040160216,0.0012025348,0.001405271,-0.0030790591715898017,-0.0015334513925904989,1.5857719760047084
5608000,0.024826301,0.0017984108,-0.0022888184,0.04044898,0.0006069866,0.0019013286,-0.00316863179819062,-0.0015416879027611487,1.5858560270796298
5616000,0.024894128,0.0018167815,-0.0021972656,0.04043052,0.0010683045,0.002378419,,,
5632000,0.024881402,0.0019100234,-0.0021972656,0.040940423,0.00060942234,0.0026336617,,,
5640000,0.02479982,0.00198244,-0.0022277832,0.040381346,0.00042143854,0.0019542847,-0.003133414289761869,-0.0013285613801852013,1.5862344364593275
5648000,0.024720967,0.0020498484,-0.0022888184,0.03940959,-0.00018951084,0.002243532,-0.0031105232865638413,-0.0011765177281913809,1.586336608798111
5656000,0.024645453,0.0021157549,-0.0023498535,0.038944025,1.305285e-06,0.002902326,,,
5672000,0.024509003,0.0022425635,-0.0024108887,0.037877265,0.0002653639,0.003155589,,,
5680000,0.024448756,0.002312814,-0.0024719238,0.03794802,0.0011428886,0.0036498222,-0.003030169962045859,-0.0011742115390730096,1.5861022149800061
5688000,0.02439847,0.0023861453,-0.002532959,0.038097978,0.0011980245,0.0030588761,-0.002866018077681212,-0.0011444778817418897,1.5860703815985173
5696000,0.024355723,0.0024540953,-0.0025939941,0.038034044,-6.7601744e-05,0.0028754119,,,
5712000,0.024285324,0.0025627774,-0.0027160645,0.036563314,-0.001299153,0.0015710889,,,
5720000,0.024253221,0.0026139654,-0.0027770996,0.036722943,-0.0013636834,0.00081312505,-0.002497512144392797,-0.001283110238651173,1.585887733176718
5728000,0.024229662,0.0026667062,-0.0028381348,0.036502104,-0.00071292324,0.0013648155,-0.002477512583214317,-0.001273942175318113,1.585857450249087
5736000,0.024209203,0.0027236762,-0.00289917,0.0358895,-0.00028241042,0.0017596312,,,
5752000,0.024176124,0.0028435101,-0.0030212402,0.035836387,0.00025113122,0.001911439,,,
5760000,0.024168152,0.0029039022,-0.0030822754,0.036365233,0.00012701299,0.00093522004,-0.0021472469527957947,-0.0011736634553601833,1.5858135754070217
5768000,0.024169466,0.002962012,-0.0031433105,0.03649452,0.000117813666,0.0007408755,-0.0020096163831323788,-0.001162628439475155,1.585773635822791
5776000,0.024177887,0.0030213983,-0.0032043457,0.03642138,0.000462992,0.0005246351,,,
5792000,0.024205195,0.0031347766,-0.0033569336,0.035930667,6.1407096e-05,9.1564936e-05,,,
5800000,0.024227422,0.0031910809,-0.0034179688,0.03578051,0.00036048493,0.0002789732,-0.002018548609909192,-0.0012129453889597008,1.5858277633022109
5808000,0.024251962,0.0032511814,-0.003479004,0.03527565,0.0011880859,-0.00014920984,-0.0018735844377242095,-0.001239187284869308,1.5858047549077168
5816000,0.02427894,0.0033150227,-0.003540039,0.034799635,0.0013826635,-0.0005329539,,,
5832000,0.024329353,0.0034472195,-0.0036621094,0.033129945,0.0017648353,0.000306229,,,
5840000,0.024358416,0.0035130212,-0.0037231445,0.033316355,0.0019653288,0.0010464876,-0.0019301436318061374,-0.001056654924647064,1.5855964695319542
5848000,0.024392402,0.0035804457,-0.0037841797,0.032879323,0.0022780867,0.0010357007,-0.0018950653737246305,-0.001043599521182155,1.5854860699435604
5856000,0.024429377,0.0036482315,-0.0038146973,0.03286944,0.0023004161,0.0008835029,,,
5872000,0.024527363,0.003781111,-0.0039367676,0.0335913,0.0028620954,0.00074409717,,,
5880000,0.024585072,0.003852245,-0.003967285,0.03337239,0.003285111,0.0003670606,-0.0018599404498346182,-0.0009752269051817888,1.5856251993620658
5888000,0.02464483,0.0039244266,-0.0040283203,0.032717798,0.0033412634,0.0006847261,-0.0018421258584139586,-0.0009191720876617065,1.5856765853109347
5896000,0.02470526,0.003994663,-0.0040893555,0.032396916,0.0032072053,0.0010478058,,,
5912000,0.024845323,0.0041318554,-0.004211426,0.033165418,0.0031243775,0.0008758255,,,
5920000,0.024924655,0.0041982783,-0.004272461,0.033158615,0.002930977,0.0005159477,-0.0016820930663094828,-0.0007062453665210768,1.5854357524089147
5928000,0.025010612,0.00426277,-0.004333496,0.033525717,0.0029991602,-0.00013377918,-0.0015749988023334494,-0.0006770748231064004,1.5853593308549068
5936000,0.025103671,0.0043310593,-0.004425049,0.033860732,0.004004768,-0.001633892,,,
5952000,0.025332626,0.0044763004,-0.0045776367,0.03408843,0.0043034046,-0.0019978508,,,
5960000,0.025466379,0.004545553,-0.0046691895,0.0345442,0.0039383476,-0.0035852157,-0.0016138303637019764,-0.00042455196491847033,1.5852489304486503
5968000,0.025606826,0.004614633,-0.004760742,0.034771644,0.004371791,-0.0040230067,-0.00152876114550666,-0.00041513332426826473,1.5851683378683534
5976000,0.025751768,0.0046827984,-0.0048217773,0.034511868,0.0037308643,-0.0031438926,,,
5992000,0.026050553,0.0048116627,-0.0049743652,0.034681536,0.0034023651,-0.002391375,,,
6000000,0.0262108,0.00487082,-0.0050354004,0.035452437,0.0031025258,-0.0016989383,-0.0015566915651455554,-0.0004449807021467368,1.5850114412278615
6008000,0.026377605,0.004933229,-0.0050964355,0.035583127,0.004044023,-0.0023131983,-0.001542776974815622,-0.00039742637773379025,1.585012275608617
6016000,0.026549563,0.004999437,-0.0051574707,0.035821028,0.0041775126,-0.0023903663,,,
6032000,0.026566096,0.005051204,-0.005340576,0.03594681,0.0041642175,-0.0033917122,,,
6040000,0.026406558,0.0050395844,-0.005493164,0.035484936,0.0039613284,-0.0038890634,-0.0017060786011821847,-0.00025687937441602944,1.584862890956487
6048000,0.026255805,0.0050259028,-0.005645752,0.035176292,0.003383406,-0.0043828944,-0.0017591559149234353,-0.00024472043395299894,1.5847625048794611
6056000,0.026112601,0.005009869,-0.0057678223,0.03471439,0.0030045141,-0.0047778366,,,
6072000,0.025849588,0.0049733906,-0.006072998,0.03444668,0.0030115207,-0.004531957,,,
6080000,0.025731092,0.0049592946,-0.0061950684,0.034023993,0.0027457166,-0.003854365,-0.0018139148169707367,-0.00037382055013293234,1.5848539494673275
6088000,0.02562047,0.0049418565,-0.0063476562,0.033660702,0.0024553735,-0.0029678424,-0.0018866417042323936,-0.00038863137411343014,1.5847659641089684
6096000,0.025514293,0.0049256175,-0.0064697266,0.032835018,0.002475718,-0.0029123724,,,
6112000,0.025297469,0.0048989607,-0.0066833496,0.029832808,0.0029526672,-0.0018915363,,,
6120000,0.02519094,0.004888401,-0.0067443848,0.029863928,0.0026847345,-0.0016835455,-0.001844392695170033,-0.0004537468931807238,1.584489253050198
6128000,0.025091767,0.0048766816,-0.00680542,0.029568816,0.0025349185,-0.0017514888,-0.0019167165150272547,-0.0004144873355918702,1.5844569446471553
6136000,0.025000373,0.0048652906,-0.0068969727,0.029734377,0.0025051807,-0.0017060869,,,
6152000,0.024855146,0.004842095,-0.0070495605,0.029804489,0.0017355691,-0.0028880392,,,
6160000,0.024792194,0.0048299404,-0.0071411133,0.029136226,0.0015635552,-0.0039775474,-0.0019452734764313446,-0.0004075267464965869,1.5848751708139894
6168000,0.024734648,0.0048183515,-0.007232666,0.029215937,0.0015682809,-0.0046804193,-0.00188284114084012,-0.00045726513919431124,1.5848446512227816
6176000,0.024685733,0.00480772,-0.0073242188,0.029485704,0.0014985111,-0.0048447126,,,
6192000,0.024611754,0.0047887187,-0.0075683594,0.029031213,0.0018383759,-0.0056551183,,,
6200000,0.024579043,0.0047858628,-0.0077209473,0.028515484,0.0025541144,-0.005485297,-0.0019012025744151123,-0.0004851555176412641,1.5845295509948842
6208000,0.024551215,0.004787564,-0.007843018,0.028644502,0.0026640529,-0.005403487,-0.0018339923717359435,-0.00046237356047145107,1.5843931630348351
6216000,0.024530884,0.0047895373,-0.00793457,0.028528742,0.002391233,-0.0048701786,,,
6232000,0.024506448,0.0047861575,-0.008178711,0.028329916,0.0015515576,-0.0047746664,,,
6240000,0.024501853,0.0047842497,-0.008270264,0.02807852,0.0018352466,-0.005011412,-0.0018720406518423919,-0.00041132398178220377,1.5847753815558792
6248000,0.024500405,0.0047851936,-0.008392334,0.027514933,0.0020110025,-0.0043420303,-0.001985834427566749,-0.0005554825469602413,1.5848601502521869
6256000,0.024502052,0.0047875573,-0.008483887,0.02738091,0.0019888582,-0.004410582,,,
6272000,0.02452132,0.0047926763,-0.00869751,0.027256846,0.001195842,-0.0048588095,,,
6280000,0.024538325,0.004784927,-0.0087890625,0.027166657,-7.575234e-05,-0.0050956234,-0.0018830165567814158,-0.0006578185604335208,1.5848605078447258
6288000,0.024560912,0.004775445,-0.008880615,0.027106263,0.0004313603,-0.0057606897,-0.0019101362399779605,-0.000642390907686416,1.584878271626908
6296000,0.0245905,0.0047697155,-0.009002686,0.027401805,0.00062142214,-0.006548323,,,
6312000,0.024677869,0.004767507,-0.009216309,0.02837374,0.00086253224,-0.008080545,,,
6320000,0.024736239,0.004766701,-0.009338379,0.029074261,0.0008938324,-0.008384618,-0.0018623085588243442,-0.0006580478404594838,1.5850677141944038
6328000,0.024802987,0.004767972,-0.009490967,0.029462256,0.0013024192,-0.008622582,-0.0018173318767251937,-0.0006561139487158105,1.5850669998620026
6336000,0.02488104,0.004775375,-0.009613037,0.030327376,0.00211164,-0.008479891,,,
6352000,0.025043953,0.004804352,-0.009857178,0.029675778,0.0031888268,-0.008636126,,,
6360000,0.02512486,0.004823953,-0.009979248,0.029190116,0.0033389574,-0.008804076,-0.00211542217785169,-0.0007107213039380278,1.585276235145917
6368000,0.025208797,0.0048432634,-0.010101318,0.029264916,0.003213981,-0.009645072,-0.0021830750069961463,-0.0007022849162903513,1.5852527473324196
6376000,0.025298538,0.0048671886,-0.010253906,0.029433241,0.0041092294,-0.0100290645,,,
6392000,0.025492493,0.0049232673,-0.010528564,0.029444981,0.0038963375,-0.010326684,,,
6400000,0.02559696,0.0049521583,-0.010681152,0.029707227,0.004479398,-0.010303799,-0.0022477657881915555,-0.0005423593367917966,1.5852310483361467
6408000,0.025707386,0.0049869926,-0.010803223,0.029972194,0.0051846714,-0.010246393,-0.002336603484281622,-0.0005313619289998834,1.5853155769979932
6416000,0.025825476,0.005026214,-0.010955811,0.030433573,0.0054532327,-0.009814253,,,
6432000,0.025701497,0.0050761527,-0.011260986,0.030774973,0.0053434554,-0.00929014,,,
6440000,0.025459427,0.005088473,-0.011444092,0.030205991,0.0055646403,-0.009200658,-0.002104956069948008,-0.0004216371578296782,1.5854154820218056
6448000,0.025227139,0.0051048244,-0.01159668,0.030275041,0.0063471724,-0.009614406,-0.0020235634229856005,-0.00042682817570473036,1.5854210860023326
6456000,0.025009278,0.005126456,-0.011779785,0.030615779,0.0062002395,-0.00973802,,,
6472000,0.02460102,0.0051580584,-0.012084961,0.029966641,0.0047162618,-0.009525495,,,
6480000,0.024410235,0.0051675825,-0.012268066,0.029371176,0.004650856,-0.009849192,-0.002103582752289918,-0.0003198834656343402,1.5854673447217726
6488000,0.024226498,0.0051823705,-0.012420654,0.029309934,0.005327728,-0.010442078,-0.0021467182177529916,-0.0003149680612532007,1.585499057100657
6496000,0.024052227,0.005202081,-0.012573242,0.02903216,0.005901427,-0.010228677,,,
6512000,0.023737151,0.005249278,-0.012908936,0.02986553,0.0055442103,-0.009270817,,,
6520000,0.023598714,0.005272111,-0.013061523,0.03028699,0.0057281265,-0.009485165,-0.002279834095797939,-0.00028560881425561646,1.585242013586912
6528000,0.023470365,0.00529453,-0.013214111,0.029903641,0.005231218,-0.010092124,-0.002288071406620755,-0.00024196878311716406,1.5852519095080728
6536000,0.023345435,0.005314411,-0.013366699,0.029262539,0.0049444623,-0.010654535,,,
6552000,0.023119712,0.0053505665,-0.013641357,0.029632417,0.0045719976,-0.011683765,,,
6560000,0.023019342,0.005369079,-0.013793945,0.029394196,0.0046058916,-0.011504755,-0.002485441306576874,-0.00016040692640339465,1.5851857423405105
6568000,0.022924444,0.0053903023,-0.013916016,0.029149448,0.0051367865,-0.010787779,-0.0025359703495740175,-8.621194876234076e-05,1.5852168587468152
6576000,0.022836149,0.005417441,-0.014038086,0.029092437,0.0057997345,-0.010753536,,,
6592000,0.022679908,0.005470882,-0.014312744,0.0293416,0.00520384,-0.011709082,,,
6600000,0.022615494,0.0054993723,-0.014434814,0.029695261,0.0054944064,-0.012732258,-0.002590877645663089,0.00023476220883004192,1.5850399344533297
6608000,0.022560608,0.005529976,-0.014587402,0.029628597,0.005801413,-0.013046349,-0.002705533607481178,0.00017888529787250522,1.585002498892634
6616000,0.022509942,0.005562882,-0.01473999,0.029352995,0.0057498845,-0.013039896,,,
6632000,0.02243318,0.005631195,-0.014984131,0.030138275,0.0060554724,-0.012861066,,,
6640000,0.02240776,0.005668706,-0.015106201,0.029893415,0.006327832,-0.012611092,-0.0027419521517180537,0.0001027581749429712,1.5848098355020426
6648000,0.0223861,0.0057105427,-0.0152282715,0.029588347,0.007207848,-0.012144686,-0.0027488574934090835,0.0001682621667650778,1.5848584772962486
6656000,0.022368105,0.005757072,-0.015350342,0.029235741,0.007231265,-0.0128981685,,,
6672000,0.022346878,0.005845677,-0.015625,0.029195696,0.0066542826,-0.013370363,,,
6680000,0.022344107,0.0058887196,-0.01574707,0.028819356,0.0067796553,-0.012995321,-0.0027817733218424043,7.458881016286324e-05,1.5849551682652097
6688000,0.022344524,0.0059333746,-0.015899658,0.028622998,0.0068893684,-0.01294474,-0.0028824259471586593,7.339543669554851e-05,1.5848972265427013
6696000,0.022353,0.005979327,-0.016052246,0.029329063,0.0071618427,-0.013106154,,,
6712000,0.02240287,0.00607706,-0.016357422,0.030793507,0.006652379,-0.014349444,,,
6720000,0.02244553,0.0061189546,-0.01651001,0.031348012,0.0061554033,-0.014594154,-0.002896367903877939,7.12054316556158e-05,1.584721016604424
6728000,0.022494696,0.006160653,-0.016662598,0.031430565,0.006162768,-0.0143029895,-0.002835259846801936,-2.096942626093523e-05,1.5846369664384492
6736000,0.022551013,0.0062016323,-0.016815186,0.031684037,0.0060469755,-0.014187533,,,
6752000,0.022673853,0.006319674,-0.017089844,0.031083347,0.007929244,-0.014344333,,,
6760000,0.022732707,0.006397761,-0.017242432,0.030952506,0.008006952,-0.013796365,-0.002657905190441254,-0.00027382106396750067,1.5844757812146677
6768000,0.022799578,0.0064791306,-0.01739502,0.031553656,0.008520016,-0.013762619,-0.002555943648886054,-0.00027982518442078483,1.5845320525167226
6776000,0.022871953,0.006562433,-0.017547607,0.03133339,0.008462612,-0.0141517045,,,
6792000,0.023029733,0.006726895,-0.017822266,0.031338166,0.009015176,-0.0147298,,,
6800000,0.023111388,0.0068177935,-0.017974854,0.030570231,0.0094320495,-0.014849528,-0.0024849844878512724,-0.00015114480687111094,1.5844278529695728
