timestamp,x,y,z,vx,vy,vz,roll,pitch,yaw
2043328000,46.563408,-16.585787,-0.00680542,-0.0006256633,-0.046656635,-0.007845477,0.00015240857469423896,0.006503112815874802,2.9887519878232824
2043336000,46.563713,-16.585691,-0.006866455,0.00077958254,-0.046922173,-0.009131942,,,
2043344000,46.56402,-16.58561,-0.006958008,0.0007648779,-0.04700503,-0.0094746,,,
2043352000,46.564304,-16.585537,-0.007019043,0.0010280599,-0.04630759,-0.00888218,,,
2043360000,46.56459,-16.585474,-0.0071105957,0.0020891244,-0.04598718,-0.008781644,0.00011999950547289007,0.006809820899574461,2.9887624308678467
2043368000,46.56488,-16.585417,-0.007171631,0.0033183603,-0.0454085,-0.007889882,0.00020680727992244637,0.006752099458968947,2.988724293925731
2043376000,46.565163,-16.58537,-0.0072631836,0.0034152227,-0.045374945,-0.008441248,,,
2043384000,46.56544,-16.585331,-0.0073242188,0.0037646727,-0.044931058,-0.009436478,,,
2043400000,46.565987,-16.585289,-0.007507324,0.004532493,-0.045649122,-0.010963722,0.0003657786657163261,0.006966480523835731,2.988558433087787
2043408000,46.566254,-16.585285,-0.0076293945,0.0051071094,-0.044881012,-0.011657914,0.00040672999085687316,0.006848058170783129,2.988486469108074
2043416000,46.566517,-16.585285,-0.007751465,0.004766446,-0.04487851,-0.011734277,,,
2043424000,46.56677,-16.585299,-0.007873535,0.0051624626,-0.045320176,-0.011929163,,,
2043440000,46.56726,-16.585361,-0.008117676,0.005040029,-0.045519553,-0.011941954,0.0005571091598797543,0.006841524324202331,2.9885715779829103
2043448000,46.5675,-16.585405,-0.008239746,0.0061584827,-0.04514484,-0.011595994,0.0005497927953303619,0.0067601849204320845,2.9885150263483573
2043456000,46.56774,-16.585457,-0.008331299,0.007357081,-0.04537039,-0.011248315,,,
2043464000,46.567986,-16.585518,-0.008453369,0.0080531705,-0.04534059,-0.011866472,,,
2043480000,46.56847,-16.585678,-0.008666992,0.008546332,-0.04541365,-0.011478627,0.0002507407849226805,0.006808374056414345,2.9884838113065264
2043488000,46.56871,-16.585772,-0.0087890625,0.009499742,-0.04540123,-0.011868195,0.00027822060822354323,0.006802569454050094,2.988551569195868
2043496000,46.56894,-16.585867,-0.008911133,0.009616879,-0.045117438,-0.012464511,,,
2043504000,46.569164,-16.585974,-0.009002686,0.0102421,-0.04595413,-0.012117187,,,
2043520000,46.5696,-16.586214,-0.009246826,0.00970186,-0.04546217,-0.01302149,0.0002323600901434573,0.00674910332597885,2.9887915078358653
2043528000,46.56981,-16.586338,-0.009338379,0.00982904,-0.044457797,-0.012636124,0.00028066938937792405,0.006825847005245497,2.988865745941465
2043536000,46.570015,-16.586464,-0.009460449,0.009608881,-0.04416904,-0.012429116,,,
2043544000,46.570213,-16.586596,-0.0095825195,0.009196606,-0.04437079,-0.01274919,,,
2043560000,46.5706,-16.586872,-0.00982666,0.010648566,-0.043428656,-0.013143442,0.00026120258375697536,0.006580816118018182,2.988879805851971
2043568000,46.570797,-16.587017,-0.0099487305,0.011630328,-0.043706823,-0.013972088,0.0003766303225704714,0.006637208000163213,2.988869129007201
2043576000,46.570995,-16.587172,-0.010070801,0.0121115185,-0.04420402,-0.014085143,,,
2043584000,46.571194,-16.587336,-0.010192871,0.0124677485,-0.04435851,-0.014328572,,,
2043600000,46.571587,-16.587694,-0.010467529,0.013679428,-0.045579135,-0.014743226,0.0004790022335771861,0.006566141416820772,2.9887840555392846
2043608000,46.571785,-16.587887,-0.0105896,0.013762013,-0.04591986,-0.014614042,0.0004316752896755616,0.006625563417976808,2.9887318009491257
2043616000,46.57198,-16.588087,-0.01071167,0.013852545,-0.046021447,-0.014580772,,,
2043624000,46.572174,-16.588295,-0.010864258,0.014063211,-0.046268478,-0.013848006,,,
2043640000,46.57256,-16.588728,-0.011108398,0.014763762,-0.046449933,-0.014549663,0.0006496488513868769,0.006726590420018428,2.988758424904665
2043648000,46.57275,-16.588951,-0.011260986,0.0152059235,-0.046523847,-0.014887644,0.0007161435140910997,0.006732578494103291,2.9887897552191234
2043656000,46.57282,-16.588858,-0.0113220215,0.015181292,-0.0465065,-0.01580035,,,
2043664000,46.57288,-16.588778,-0.011383057,0.014087534,-0.04659189,-0.016648619,,,
2043680000,46.572998,-16.588667,-0.011566162,0.01443912,-0.047355425,-0.01760109,0.000996894902162613,0.00672409115936862,2.9888526662242088
2043688000,46.57306,-16.588625,-0.011627197,0.014190802,-0.046651144,-0.017612154,0.0008842861282292206,0.006700422459930654,2.9888403206017338
2043696000,46.57312,-16.588594,-0.01171875,0.015090749,-0.047053535,-0.017202377,,,
2043704000,46.573185,-16.588581,-0.011779785,0.015414812,-0.04744616,-0.016916601,,,
2043720000,46.57331,-16.58859,-0.011932373,0.014420009,-0.04762196,-0.015716854,0.000906548847544402,0.006708720730578747,2.9889824490096606
2043728000,46.57337,-16.588612,-0.012023926,0.014533957,-0.047540385,-0.0155450925,0.0008101541884299605,0.006635969779532074,2.988965085558556
2043736000,46.57343,-16.588642,-0.012084961,0.01485568,-0.047480512,-0.015391592,,,
2043744000,46.57349,-16.58868,-0.012145996,0.014677963,-0.04735776,-0.0146244345,,,
2043760000,46.573612,-16.588785,-0.012268066,0.014955873,-0.046965994,-0.01255136,0.0009012638814744709,0.006464111931996052,2.9890773449660593
2043768000,46.573673,-16.588848,-0.012329102,0.015345008,-0.04679974,-0.012442828,0.0009055494682458903,0.006446705150387221,2.9891167348762635
2043776000,46.573742,-16.588917,-0.012390137,0.015494708,-0.04650439,-0.013179217,,,
2043784000,46.57381,-16.588995,-0.012451172,0.015661804,-0.046952397,-0.013349543,,,
2043800000,46.57395,-16.589178,-0.01260376,0.016725447,-0.046422858,-0.013856987,0.0008427548610884336,0.006247492635640646,2.9891113328704133
2043808000,46.57403,-16.589277,-0.012664795,0.017822536,-0.046066433,-0.014177435,0.0007618562454091904,0.006258933225825379,2.989155498164456
2043816000,46.57412,-16.58938,-0.012756348,0.018503882,-0.04566053,-0.014064624,,,
2043824000,46.57421,-16.58949,-0.012817383,0.01844062,-0.046047848,-0.014357686,,,
2043840000,46.574387,-16.589739,-0.012969971,0.01839713,-0.04683918,-0.0154471835,0.0007112318912355583,0.006521345238866218,2.9892869509675832
2043848000,46.57447,-16.589878,-0.013061523,0.017717518,-0.04669794,-0.016162764,0.0006436670651983378,0.006550069703200841,2.989221368665633
2043856000,46.574554,-16.59002,-0.013153076,0.018019527,-0.046126515,-0.0158627,,,
2043864000,46.57464,-16.59016,-0.013244629,0.018498404,-0.045134522,-0.015040497,,,
2043880000,46.574814,-16.590443,-0.013427734,0.018102052,-0.04474068,-0.01418868,0.0005641573600438927,0.006600568967506485,2.9889119133280038
2043888000,46.574898,-16.590591,-0.0134887695,0.017520186,-0.044860817,-0.0139106475,0.0006470671479623476,0.0066551396153866575,2.9888832737598467
2043896000,46.574978,-16.590752,-0.013580322,0.017105985,-0.0456344,-0.013826976,,,
2043904000,46.575054,-16.590923,-0.013671875,0.016751068,-0.04620982,-0.013432226,,,
2043920000,46.5752,-16.59129,-0.0138549805,0.016997809,-0.046729114,-0.012518543,0.000766689747181742,0.006819444479192895,2.9889768296430232
2043928000,46.575275,-16.591486,-0.013916016,0.017210709,-0.046728414,-0.0128400745,0.0007058203022834086,0.0068975856780505475,2.989053117365841
2043936000,46.575348,-16.59169,-0.014007568,0.016885802,-0.04715547,-0.013217382,,,
2043944000,46.575424,-16.591904,-0.014099121,0.017652353,-0.04754487,-0.013573246,,,
2043960000,46.57558,-16.592354,-0.014312744,0.017538624,-0.04796205,-0.013759968,0.0006327405302966453,0.0069139019072886245,2.9888011535444936
2043968000,46.57566,-16.592587,-0.014404297,0.01745739,-0.047491495,-0.013014405,0.0006602915925021152,0.006865700163386334,2.9886793465910717
2043976000,46.57574,-16.592817,-0.01449585,0.018092595,-0.04665862,-0.013303837,,,
2043984000,46.575825,-16.593046,-0.01461792,0.01868987,-0.046638105,-0.014028064,,,
2044000000,46.576004,-16.593517,-0.014831543,0.01949468,-0.045640666,-0.015112042,0.0003881479835001084,0.006694244858747816,2.9887699344454597
2044008000,46.5761,-16.593752,-0.014953613,0.01945926,-0.045267493,-0.015620868,0.00042612987630792756,0.006658953000165597,2.9887432152717297
2044016000,46.57619,-16.593988,-0.015075684,0.019304788,-0.044983808,-0.016432123,,,
2044024000,46.576286,-16.59423,-0.015197754,0.020086879,-0.045424107,-0.017039994,,,
2044040000,46.57649,-16.594725,-0.015472412,0.020208996,-0.044914953,-0.017204456,0.0006345128249717465,0.006616347313436988,2.9885558589056864
2044048000,46.57659,-16.594978,-0.015594482,0.020734116,-0.045297105,-0.016995482,0.0006788977477709694,0.006761357016679238,2.9884912016170464
2044056000,46.576447,-16.594639,-0.015655518,0.020715637,-0.04493824,-0.016863745,,,
2044064000,46.576305,-16.594313,-0.015716553,0.020167656,-0.044745304,-0.017080773,,,
2044080000,46.576035,-16.593725,-0.015838623,0.019953135,-0.045458168,-0.016557418,0.000339616732728885,0.007024013452205434,2.988539823372298
2044088000,46.575905,-16.593462,-0.015899658,0.019845081,-0.045737132,-0.016318787,0.00040986419826839803,0.007012130414837444,2.9885612926953447
2044096000,46.575783,-16.593216,-0.015960693,0.02052419,-0.046053186,-0.01608971,,,
2044104000,46.575672,-16.59299,-0.016021729,0.020455334,-0.04594047,-0.016058506,,,
2044120000,46.575462,-16.592567,-0.016174316,0.021135617,-0.044472072,-0.016171584,0.00049546864140303,0.006805131581756131,2.988682725073505
2044128000,46.57537,-16.592373,-0.016235352,0.021104194,-0.044495456,-0.016347656,0.000497827240847554,0.006864777666636932,2.9887193858212355
2044136000,46.575283,-16.592194,-0.016296387,0.020816023,-0.0448482,-0.01581199,,,
2044144000,46.5752,-16.592031,-0.01638794,0.021395113,-0.044768218,-0.01616242,,,
2044160000,46.57505,-16.591747,-0.016571045,0.020939235,-0.04495431,-0.016945349,0.0008665217939397745,0.006994994590533473,2.988605042297891
2044168000,46.57498,-16.591625,-0.016662598,0.02081205,-0.045094192,-0.016642453,0.0007933850209186527,0.007036611298335884,2.9886517477399517
2044176000,46.574913,-16.591518,-0.01675415,0.020878902,-0.045245353,-0.015831105,,,
2044184000,46.57485,-16.591423,-0.016815186,0.020847335,-0.044858895,-0.015653893,,,
2044200000,46.57474,-16.591276,-0.016998291,0.021474991,-0.046256438,-0.015460073,0.0005460395969566033,0.006931870344300025,2.9885620393980745
2044208000,46.57469,-16.59122,-0.017089844,0.021283912,-0.046176653,-0.015437856,0.0005304114284618225,0.006877818818854169,2.988448381708237
2044216000,46.57465,-16.59118,-0.017181396,0.021534188,-0.04639029,-0.015829206,,,
2044224000,46.574615,-16.591152,-0.017242432,0.021818545,-0.047055475,-0.016616322,,,
2044240000,46.57455,-16.591139,-0.017425537,0.021450112,-0.04721358,-0.017117776,0.0005477602953051819,0.007002912889002407,2.9886196358163617
2044248000,46.574528,-16.591148,-0.017547607,0.022581844,-0.047493313,-0.017493859,0.00041862603425754175,0.006962031022333616,2.988642437469402
2044256000,46.574512,-16.59117,-0.01763916,0.022872537,-0.047341086,-0.01760856,,,
2044264000,46.5745,-16.5912,-0.017730713,0.02245792,-0.047650352,-0.01751224,,,
2044280000,46.57448,-16.5913,-0.017944336,0.021678224,-0.048126426,-0.017306155,0.00039641515685948493,0.006926317665812139,2.9886671571333863
2044288000,46.57447,-16.591368,-0.018035889,0.022396084,-0.048233774,-0.016906593,0.0004396818631133637,0.0068582959745982245,2.9885462736305226
2044296000,46.574467,-16.591444,-0.018127441,0.02237616,-0.048567258,-0.017240757,,,
2044304000,46.57447,-16.591532,-0.018188477,0.022833968,-0.048613716,-0.017797658,,,
2044320000,46.574497,-16.591722,-0.018371582,0.023591986,-0.047713418,-0.018345319,0.0003184080668672418,0.006783116004956779,2.9884294540437812
2044328000,46.574516,-16.59183,-0.018463135,0.023353634,-0.047495518,-0.018372126,0.0003293358052760786,0.006829534662933792,2.988463184896125
2044336000,46.574535,-16.591938,-0.018554688,0.023243174,-0.047368925,-0.017545972,,,
2044344000,46.574554,-16.592058,-0.01864624,0.023604989,-0.047963016,-0.01696016,,,
2044360000,46.57461,-16.592325,-0.018829346,0.024011714,-0.047563348,-0.017111031,0.0006006632595515149,0.006814528844426525,2.988675646526712
2044368000,46.574646,-16.592466,-0.018920898,0.024222963,-0.04768196,-0.016709054,0.0005497147605630252,0.006766505019972521,2.988759003753723
2044376000,46.574688,-16.592617,-0.019012451,0.02500728,-0.047875226,-0.016844653,,,
2044384000,46.57474,-16.592775,-0.019073486,0.02554693,-0.047752187,-0.01680552,,,
2044400000,46.574852,-16.593111,-0.019256592,0.02593409,-0.047773946,-0.015865522,0.00037866610077898986,0.006605412881812776,2.9887008128177777
2044408000,46.574913,-16.593287,-0.019317627,0.02648121,-0.0476789,-0.015602165,0.0003238089052724747,0.006664356653643787,2.988583869613377
2044416000,46.57498,-16.59347,-0.01940918,0.02654527,-0.047680076,-0.016295066,,,
2044424000,46.57505,-16.593658,-0.019500732,0.026845442,-0.047704276,-0.01680472,,,
2044440000,46.575203,-16.594053,-0.019714355,0.02698399,-0.04814788,-0.017613413,0.0002546746264714044,0.006683512057300146,2.988446461046391
2044448000,46.575283,-16.594267,-0.019805908,0.026774777,-0.04909938,-0.016824936,0.00031115488785791534,0.00662140357445034,2.988332708303303
2044456000,46.57522,-16.593977,-0.019866943,0.026861228,-0.048180424,-0.016534474,,,
2044464000,46.57516,-16.593699,-0.019958496,0.027420988,-0.047730755,-0.017001934,,,
2044480000,46.575058,-16.593182,-0.020080566,0.026853148,-0.04657161,-0.016450057,0.000296360695102851,0.0065404368274744554,2.9881779732299925
2044488000,46.575012,-16.592945,-0.02017212,0.026795913,-0.04640602,-0.016284904,0.00022216101537235962,0.006521049537661304,2.9880307704900018
2044496000,46.574974,-16.59272,-0.020233154,0.027643027,-0.045755554,-0.017096426,,,
2044504000,46.574947,-16.592508,-0.020324707,0.02786635,-0.045384225,-0.017231807,,,
2044520000,46.574905,-16.592121,-0.020477295,0.027132114,-0.0447437,-0.0152393,7.627467761627499e-05,0.006417332025772991,2.987764853236064
2044528000,46.574886,-16.591948,-0.02053833,0.027310688,-0.044802617,-0.014795002,6.403180522438059e-05,0.006471685139918702,2.987755150817582
2044536000,46.574883,-16.591784,-0.020599365,0.027458083,-0.04484265,-0.014346389,,,
2044544000,46.57488,-16.591633,-0.0206604,0.027002692,-0.044366963,-0.015046866,,,
2044560000,46.57487,-16.591358,-0.020812988,0.025650974,-0.043469302,-0.014449748,7.426005724737609e-06,0.006633495200986448,2.9879020496645756
2044568000,46.574867,-16.591234,-0.020874023,0.025708657,-0.042901587,-0.014544222,-5.3564696051057e-05,0.006670092331199924,2.9879357943575218
2044576000,46.57487,-16.591122,-0.020935059,0.026419744,-0.042765018,-0.014627086,,,
2044584000,46.574883,-16.591019,-0.020996094,0.0264388,-0.04287962,-0.014029698,,,
2044600000,46.574917,-16.590855,-0.021087646,0.026182875,-0.042865224,-0.013833784,-0.0001598583828731544,0.006587786752926416,2.987889660077719
2044608000,46.574932,-16.590784,-0.021148682,0.024928218,-0.042724673,-0.013705292,-7.504657481572078e-05,0.006571285222372427,2.9878755405268382
2044616000,46.574944,-16.590729,-0.021209717,0.025070941,-0.043364864,-0.013768288,,,
2044624000,46.57496,-16.590687,-0.021270752,0.025555916,-0.043585148,-0.013480093,,,
2044640000,46.57502,-16.590641,-0.021331787,0.02607465,-0.044269614,-0.013093777,-0.0002629805149797567,0.006545856775218511,2.9879306002773203
2044648000,46.575054,-16.590637,-0.021392822,0.025860325,-0.04438327,-0.012995229,-0.00020240811592938263,0.006498719674459386,2.9880523541386976
2044656000,46.575092,-16.590643,-0.02142334,0.025819063,-0.044476748,-0.01345606,,,
2044664000,46.57513,-16.59066,-0.021484375,0.02561605,-0.044673067,-0.01360686,,,
2044680000,46.57523,-16.590727,-0.021575928,0.02695261,-0.045016,-0.0128827775,1.118308586962847e-05,0.006414317738222188,2.9881922905050216
2044688000,46.57529,-16.590775,-0.021636963,0.027092248,-0.045300227,-0.012711049,-7.920721931587338e-05,0.006318690857867411,2.9882746964818727
2044696000,46.57536,-16.590837,-0.02166748,0.027542349,-0.046420805,-0.011698916,,,
2044704000,46.575436,-16.590914,-0.021697998,0.028435323,-0.046392385,-0.011500142,,,
2044720000,46.575596,-16.591087,-0.021728516,0.027946858,-0.046216983,-0.010792076,-0.00017712690522559695,0.006176540318933485,2.98799140616354
2044728000,46.57568,-16.59119,-0.021728516,0.027868345,-0.046993025,-0.010192523,-0.00014003314185277214,0.006153715031494803,2.9880950395716264
2044736000,46.575768,-16.591307,-0.021759033,0.028808147,-0.04779862,-0.011167231,,,
2044744000,46.575867,-16.591436,-0.02178955,0.029287614,-0.04820465,-0.0120160375,,,
2044760000,46.576073,-16.591724,-0.021881104,0.02959547,-0.048547115,-0.013067499,-5.667030691539426e-05,0.006157876259600353,2.988485080000155
2044768000,46.576187,-16.591879,-0.021911621,0.03038211,-0.04785481,-0.013485219,-1.576089881210432e-05,0.00618545883427234,2.9885920199300267
2044776000,46.57631,-16.592033,-0.021972656,0.030703878,-0.047007132,-0.014106053,,,
2044784000,46.57643,-16.59219,-0.022003174,0.030818183,-0.046428036,-0.013732152,,,
2044800000,46.576687,-16.59252,-0.022125244,0.030453153,-0.04687246,-0.014179552,-1.702475237076327e-05,0.00614299390903636,2.988696286361965
2044808000,46.57682,-16.5927,-0.02218628,0.031050662,-0.04722447,-0.015248738,-9.028146338112402e-05,0.006243310915726802,2.9886840753837234
2044816000,46.576958,-16.592888,-0.022247314,0.031296186,-0.047697227,-0.015199755,,,
2044824000,46.577095,-16.59308,-0.02230835,0.031431254,-0.04709436,-0.015037682,,,
2044840000,46.577377,-16.593483,-0.02243042,0.031076094,-0.047041427,-0.015411402,0.00010133307293614095,0.0061976184148755265,2.9884784780734743
2044848000,46.577526,-16.59369,-0.022491455,0.03172842,-0.047149416,-0.015511224,0.00014862856662521006,0.006120254775257158,2.9884224932477497
2044856000,46.577667,-16.593384,-0.022491455,0.031411473,-0.04696259,-0.015530851,,,
2044864000,46.57781,-16.593096,-0.022491455,0.031517424,-0.046518706,-0.015424428,,,
2044880000,46.578114,-16.592556,-0.022521973,0.0328256,-0.045056444,-0.016371464,0.0002731576005764574,0.005993454277760301,2.988433306240541
2044888000,46.578274,-16.592306,-0.022521973,0.032790583,-0.044510573,-0.01626803,0.00029689818879280043,0.005988803635019989,2.988448076439007
2044896000,46.578434,-16.592072,-0.02255249,0.032783013,-0.04448383,-0.016451735,,,
2044904000,46.578594,-16.591852,-0.022583008,0.033061862,-0.04403271,-0.016759444,,,
2044920000,46.578945,-16.591438,-0.022644043,0.034363512,-0.04306347,-0.016955838,0.0002846653754300073,0.005959515811366793,2.988611660981526
2044928000,46.57912,-16.591253,-0.02267456,0.034015547,-0.04282733,-0.017000504,0.00036221627448557034,0.005852632574555578,2.9886566341286436
2044936000,46.5793,-16.591082,-0.022735596,0.034026347,-0.043065034,-0.017129213,,,
2044944000,46.579483,-16.590925,-0.022766113,0.0347816,-0.042842593,-0.017254828,,,
2044960000,46.57986,-16.59065,-0.022857666,0.03546412,-0.042706188,-0.016037056,0.0005191297544532264,0.00593114210200852,2.9891360508708846
2044968000,46.58005,-16.590532,-0.022888184,0.034918383,-0.043046575,-0.016185194,0.0005744048982340811,0.005860572701337451,2.989157552759009
2044976000,46.58024,-16.590431,-0.022949219,0.034404796,-0.043775443,-0.017309885,,,
2044984000,46.580425,-16.590347,-0.023010254,0.034471925,-0.043980036,-0.017642416,,,
2045000000,46.58081,-16.59021,-0.023101807,0.034859233,-0.043434698,-0.01748495,0.0005079176944371153,0.005925131706162448,2.9892056311692317
2045008000,46.581,-16.590157,-0.023162842,0.034253184,-0.04327362,-0.017926175,0.00040453513288953816,0.005900289639227906,2.9892139377634335
2045016000,46.581192,-16.590107,-0.023223877,0.033919808,-0.041931164,-0.018549683,,,
2045024000,46.581383,-16.590061,-0.023284912,0.03442187,-0.041871503,-0.018956603,,,
2045040000,46.58177,-16.59,-0.0234375,0.033755124,-0.04131029,-0.01966224,0.00031122254181295463,0.005897115636674554,2.9890188125767487
2045048000,46.581955,-16.589981,-0.023498535,0.03335744,-0.04096966,-0.019214045,0.00034406295205030617,0.005813654199031622,2.988912460698738
2045056000,46.58214,-16.589968,-0.023590088,0.03378746,-0.040670034,-0.019427089,,,
2045064000,46.582336,-16.589966,-0.02368164,0.03417361,-0.04096295,-0.020130355,,,
2045080000,46.582733,-16.589977,-0.023895264,0.034501065,-0.040334754,-0.02097701,0.0004928835316647281,0.005714425252545459,2.988924690718932
2045088000,46.582935,-16.589994,-0.024017334,0.034829054,-0.039682683,-0.020265438,0.00043997748429443656,0.005549195297095082,2.9888365248666298
2045096000,46.583145,-16.590014,-0.024108887,0.035528,-0.039193224,-0.0197435,,,
2045104000,46.583363,-16.59004,-0.024230957,0.03658234,-0.039582837,-0.01966897,,,
2045120000,46.58381,-16.59012,-0.024414062,0.036147792,-0.03922104,-0.01869762,0.0004980784847360383,0.005226183258710481,2.9885163047361685
2045128000,46.584026,-16.590166,-0.024505615,0.035314288,-0.038927574,-0.01893626,0.0004167784014712488,0.00519739522128663,2.988408530316867
2045136000,46.58424,-16.59022,-0.024627686,0.0350065,-0.03875933,-0.01971407,,,
2045144000,46.584454,-16.59028,-0.024749756,0.035214573,-0.03881753,-0.019991256,,,
2045160000,46.584892,-16.590424,-0.024963379,0.03510775,-0.038465917,-0.01852889,0.0004517236420477083,0.00531982811417505,2.9886004166914524
2045168000,46.58511,-16.590506,-0.02508545,0.03529712,-0.039316338,-0.01885379,0.0004107398815737751,0.005343352259772689,2.9885617033100074
2045176000,46.58533,-16.590603,-0.025177002,0.034998108,-0.03974024,-0.01927778,,,
2045184000,46.585545,-16.590704,-0.025299072,0.03485081,-0.039407406,-0.019266339,,,
2045200000,46.585983,-16.590929,-0.025543213,0.035211615,-0.03957779,-0.019378426,0.00026452865743633084,0.005335126701548979,2.988759989865213
2045208000,46.58621,-16.59105,-0.025634766,0.03562256,-0.03925168,-0.01965262,0.0002812441364730674,0.005321359695827511,2.9888706828364966
2045216000,46.586433,-16.591175,-0.025726318,0.03576585,-0.03938127,-0.019913629,,,
2045224000,46.586662,-16.591305,-0.025848389,0.035632383,-0.03883327,-0.020143587,,,
2045240000,46.587116,-16.59158,-0.026031494,0.03506922,-0.039040804,-0.0184159,0.00044665481705880093,0.005145259086426765,2.988851935182158
2045248000,46.587337,-16.591728,-0.026123047,0.034626726,-0.039522465,-0.0185512,0.00046632203971430034,0.005103967426563079,2.9888358646117403
2045256000,46.587257,-16.591518,-0.026000977,0.03462889,-0.039546106,-0.018364832,,,
2045264000,46.58718,-16.591322,-0.025848389,0.0343588,-0.03934901,-0.018445846,,,
2045280000,46.58708,-16.590961,-0.02557373,0.035078023,-0.03813023,-0.017264029,0.0003977238193211392,0.005046523175987971,2.988654409198371
2045288000,46.587036,-16.590794,-0.02545166,0.034416314,-0.03785251,-0.017602822,0.00036317335247894187,0.005097108612244802,2.9886333603681234
2045296000,46.586998,-16.59064,-0.025299072,0.034757573,-0.03822956,-0.017478509,,,
2045304000,46.586967,-16.590502,-0.02520752,0.03414765,-0.038471866,-0.01717001,,,
2045320000,46.58692,-16.590273,-0.024963379,0.033932034,-0.038916793,-0.016980644,0.0002699952018739808,0.005481753478361198,2.9886886558534016
2045328000,46.586906,-16.590176,-0.024871826,0.033700548,-0.03926438,-0.016829774,0.00030170161265639765,0.005544154436117607,2.988652033738433
2045336000,46.586895,-16.5901,-0.024780273,0.03306925,-0.040305786,-0.01573906,,,
2045344000,46.586887,-16.590036,-0.024658203,0.032921582,-0.040089943,-0.01553968,,,
2045360000,46.58688,-16.589949,-0.024475098,0.032307167,-0.04122282,-0.016327718,0.00017973776482671557,0.0056776951569914745,2.988704952786836
2045368000,46.586884,-16.589922,-0.024383545,0.032394063,-0.040367946,-0.017501919,9.952325945486089e-05,0.005679421391215545,2.9888049612637686
2045376000,46.58689,-16.589901,-0.02432251,0.03188531,-0.040129405,-0.018220888,,,
2045384000,46.5869,-16.589891,-0.024261475,0.030927904,-0.04020598,-0.018359499,,,
2045400000,46.586918,-16.589903,-0.024169922,0.030580852,-0.040696602,-0.017914325,0.00020621963565673482,0.005563959316132335,2.9892081944007045
2045408000,46.586933,-16.589922,-0.024108887,0.030805612,-0.040492736,-0.017754657,0.00018529608830275134,0.005662708073195005,2.9892113168887136
2045416000,46.586956,-16.58995,-0.02407837,0.031422753,-0.040968806,-0.017138723,,,
2045424000,46.58699,-16.589993,-0.024047852,0.031189337,-0.04154106,-0.017774021,,,
2045440000,46.587063,-16.59011,-0.023986816,0.031309403,-0.04187942,-0.01762416,0.00023896388308656063,0.005890014178712051,2.9892839666352042
2045448000,46.58711,-16.590187,-0.023956299,0.03089327,-0.042953655,-0.01723933,0.0002987541474851762,0.0058921925800147846,2.9893617630811806
2045456000,46.587154,-16.590277,-0.023925781,0.031460386,-0.04281987,-0.01695211,,,
2045464000,46.58721,-16.590372,-0.023895264,0.032108303,-0.04249265,-0.017757667,,,
2045480000,46.587337,-16.59057,-0.023895264,0.032693487,-0.041498877,-0.017432928,0.00030369365188223315,0.006086203590752472,2.989199075176956
2045488000,46.587414,-16.59068,-0.023895264,0.033512764,-0.04176245,-0.01723956,0.00037921101755808006,0.006095248763370787,2.9891671444785923
2045496000,46.587494,-16.590796,-0.023895264,0.03373607,-0.041846808,-0.017127732,,,
2045504000,46.58758,-16.590923,-0.023895264,0.03328107,-0.042309225,-0.016431583,,,
2045520000,46.587765,-16.591208,-0.023864746,0.034017745,-0.042746212,-0.015224885,0.00018507922999148738,0.006063014162112837,2.9891244293904644
2045528000,46.587868,-16.59136,-0.023864746,0.03393899,-0.042835657,-0.015248458,0.00015788158506334815,0.006100176948394226,2.989132932086982
2045536000,46.58797,-16.591522,-0.023864746,0.033414576,-0.043826476,-0.014872488,,,
2045544000,46.58807,-16.591698,-0.023864746,0.032821056,-0.04418894,-0.01473803,,,
2045560000,46.588276,-16.592056,-0.023864746,0.03280767,-0.043078195,-0.015228178,0.00018347419520957538,0.006048329729831963,2.9892563856237166
2045568000,46.588383,-16.592241,-0.023895264,0.032815214,-0.042711336,-0.014624308,0.00021728420207208434,0.006019867528131728,2.989256334714713
2045576000,46.588497,-16.592426,-0.023895264,0.03294102,-0.042402852,-0.015074,,,
2045584000,46.58862,-16.592615,-0.023895264,0.033757843,-0.042094577,-0.01456753,,,
2045600000,46.58888,-16.59302,-0.023925781,0.0346041,-0.043364517,-0.014263346,0.00030428097896279124,0.005846210995544382,2.988924729225073
2045608000,46.58902,-16.593235,-0.023956299,0.03506184,-0.043626323,-0.014603504,0.0001952581300301753,0.005835205368958361,2.98885753382781
2045616000,46.58916,-16.593454,-0.023956299,0.035128307,-0.04376839,-0.014252421,,,
2045624000,46.589306,-16.593681,-0.023986816,0.034871444,-0.043651376,-0.014833194,,,
2045640000,46.5896,-16.59415,-0.024047852,0.035192225,-0.044326596,-0.014727014,0.00022886475780511064,0.005905672777497148,2.9892125873478896
2045648000,46.589752,-16.594397,-0.02407837,0.035105105,-0.044484235,-0.014796417,0.00023197896140007772,0.005849147505829506,2.9893323597868493
2045656000,46.589634,-16.594048,-0.023925781,0.034367107,-0.04450788,-0.015360236,,,
2045664000,46.58952,-16.593718,-0.023803711,0.03395871,-0.043808986,-0.0151254665,,,
2045680000,46.589336,-16.593103,-0.023529053,0.036001295,-0.04379315,-0.014170945,0.0002740137619612493,0.0058490874344958605,2.9891266123082776
2045688000,46.589264,-16.592823,-0.023406982,0.036355183,-0.043822706,-0.014541088,0.00035902618042825174,0.005922675299771142,2.9890625064466168
2045696000,46.5892,-16.59256,-0.023284912,0.035724957,-0.04338043,-0.013995483,,,
2045704000,46.589138,-16.592306,-0.023162842,0.035236787,-0.04239649,-0.013169337,,,
2045720000,46.589035,-16.591833,-0.022918701,0.035175126,-0.04095575,-0.012804899,0.00036203110559111123,0.005944688893339069,2.9890417771729103
2045728000,46.588993,-16.591608,-0.02279663,0.035149716,-0.04021846,-0.012512971,0.00027174519447408695,0.005992906184581907,2.989032321714558
2045736000,46.588963,-16.591396,-0.022705078,0.03508212,-0.040186238,-0.011944539,,,
2045744000,46.58894,-16.591202,-0.022583008,0.035665594,-0.040887628,-0.012163354,,,
2045760000,46.588913,-16.59085,-0.022399902,0.03531776,-0.03983173,-0.011583275,0.00021695543380864185,0.005834586028903243,2.9888802740401097
2045768000,46.58891,-16.590689,-0.02230835,0.03534207,-0.0399272,-0.011083178,0.00020855196523605505,0.005880798116562366,2.9890090432687098
2045776000,46.58891,-16.59054,-0.022216797,0.035227392,-0.03973279,-0.0111604,,,
2045784000,46.588917,-16.590403,-0.022125244,0.0353408,-0.039323937,-0.010845434,,,
2045800000,46.588955,-16.59016,-0.021942139,0.03636999,-0.03947625,-0.010563681,8.96626444493669e-05,0.00597541982448784,2.9891254625462977
2045808000,46.588993,-16.590057,-0.021881104,0.036614135,-0.0391911,-0.010769263,-3.693777102304164e-06,0.005907789710638484,2.989107175784769
2045816000,46.589035,-16.589964,-0.02178955,0.03665904,-0.039191306,-0.0112021705,,,
2045824000,46.58908,-16.58988,-0.021728516,0.036485832,-0.038838994,-0.011436908,,,
2045840000,46.58916,-16.589754,-0.021606445,0.033767812,-0.039036494,-0.011353623,0.0001534994998293265,0.0060534106531514986,2.989097191316092
2045848000,46.589195,-16.5897,-0.021575928,0.032873776,-0.0379759,-0.010950798,0.0001754690665858202,0.0060458709932802845,2.989039897688764
2045856000,46.58923,-16.589647,-0.021514893,0.032844856,-0.036650315,-0.010903489,,,
2045864000,46.589268,-16.589596,-0.021453857,0.03223544,-0.03593801,-0.011257573,,,
2045880000,46.589355,-16.589518,-0.021392822,0.03241802,-0.03581476,-0.011489899,0.0002389754912517565,0.006090208352043838,2.988802916008907
2045888000,46.589405,-16.589493,-0.021331787,0.032687433,-0.03573887,-0.010969735,0.0001604125297392807,0.00594892974567026,2.988753938283735
2045896000,46.589466,-16.589476,-0.02130127,0.03318467,-0.03569257,-0.010142768,,,
2045904000,46.58953,-16.589462,-0.021270752,0.033192214,-0.034962647,-0.010038754,,,
2045920000,46.589684,-16.58946,-0.021209717,0.034166288,-0.035300575,-0.0100651495,0.00041716722530191463,0.005945034420119929,2.9887137496140035
2045928000,46.58977,-16.589474,-0.0211792,0.034363683,-0.035438675,-0.009444597,0.00032396682618494497,0.005952317957184693,2.9886090144626465
2045936000,46.589863,-16.589499,-0.021148682,0.034142483,-0.036111236,-0.009568971,,,
2045944000,46.58996,-16.589535,-0.021118164,0.033916693,-0.03587908,-0.009997068,,,
2045960000,46.59015,-16.58964,-0.021087646,0.032896355,-0.037474014,-0.009740815,0.0003521071249491048,0.006050373088948564,2.988596883948794
2045968000,46.59024,-16.58971,-0.021057129,0.032587964,-0.037656713,-0.00903163,0.0003264520973133355,0.006037803264226737,2.988644409402611
2045976000,46.590336,-16.589788,-0.021057129,0.031941075,-0.03769046,-0.008471604,,,
2045984000,46.590427,-16.58987,-0.021057129,0.03182776,-0.036794085,-0.008475332,,,
2046000000,46.590626,-16.590038,-0.021057129,0.031960532,-0.03629089,-0.009888746,0.0004166037885604314,0.006001229564105258,2.988638461479911
2046008000,46.59073,-16.59013,-0.021087646,0.03174997,-0.035964925,-0.00994209,0.0004006947245775091,0.006032771236711336,2.988620727675443
2046016000,46.590836,-16.590229,-0.021087646,0.031128371,-0.035962056,-0.009614968,,,
2046024000,46.590942,-16.59033,-0.021118164,0.030987917,-0.0350753,-0.009612373,,,
2046040000,46.59116,-16.590538,-0.021148682,0.030974234,-0.03510025,-0.010141271,0.00035093173016349305,0.006152107538302619,2.988745486352507
2046048000,46.591278,-16.590652,-0.0211792,0.031179536,-0.034987677,-0.010606542,0.0004526360310622462,0.00612860097903639,2.988722043678263
2046056000,46.591206,-16.590353,-0.021148682,0.031854693,-0.03516863,-0.0105887065,,,
2046064000,46.59115,-16.590075,-0.021118164,0.032491565,-0.035792276,-0.009685545,,,
2046080000,46.59106,-16.589567,-0.021026611,0.03337985,-0.035557147,-0.009308544,0.0004177251168698328,0.006148607561870795,2.9886536494164133
2046088000,46.591034,-16.589333,-0.020996094,0.033408396,-0.035098433,-0.008298318,0.00045112969607078574,0.006146480846585056,2.988695870560668
2046096000,46.591015,-16.589113,-0.020965576,0.03354032,-0.03544016,-0.008283225,,,
2046104000,46.591007,-16.588907,-0.020935059,0.03405011,-0.035330992,-0.008444494,,,
2046120000,46.591007,-16.588545,-0.020874023,0.034865413,-0.035890736,-0.009516465,0.0005017918373049894,0.005953191087568162,2.9886095480874344
2046128000,46.591022,-16.588385,-0.020843506,0.035640378,-0.03566123,-0.01014322,0.0005160089142961223,0.005918282639862275,2.9885992123797798
2046136000,46.591045,-16.58823,-0.020843506,0.035401396,-0.03474403,-0.010691374,,,
2046144000,46.591072,-16.588085,-0.020843506,0.03544273,-0.034898695,-0.011021611,,,
2046160000,46.591152,-16.587831,-0.020843506,0.03548955,-0.03419545,-0.010158295,0.00041781927687094896,0.006140122587387675,2.9885559043026135
2046168000,46.591198,-16.587717,-0.020843506,0.035883173,-0.03387855,-0.010632796,0.0004398573618128675,0.006102171412808947,2.988567969049899
2046176000,46.591255,-16.58761,-0.020843506,0.03621912,-0.033899356,-0.0108205,,,
2046184000,46.59132,-16.587519,-0.020843506,0.03629558,-0.03430452,-0.010536548,,,
2046200000,46.59146,-16.587374,-0.020874023,0.036659993,-0.03510266,-0.01104175,0.0004093195742893742,0.006265906174673299,2.9886615570997908
2046208000,46.59155,-16.58732,-0.020904541,0.037710182,-0.03538006,-0.010294046,0.00046428779534444554,0.00616949612642725,2.988632312774176
2046216000,46.59164,-16.587276,-0.020935059,0.037045803,-0.034820233,-0.0101042865,,,
2046224000,46.591732,-16.58724,-0.020935059,0.03575447,-0.034992725,-0.009573005,,,
2046240000,46.59191,-16.587198,-0.020965576,0.036045995,-0.03498962,-0.007997148,0.0006353768900255215,0.006130455277116364,2.9887784071487267
2046248000,46.592014,-16.58719,-0.020965576,0.036352653,-0.035443608,-0.007495573,0.0006431333147370724,0.006113167277878375,2.988797008859227
2046256000,46.592117,-16.58719,-0.020965576,0.03586106,-0.035279628,-0.007823807,,,
2046264000,46.592224,-16.587198,-0.020965576,0.035714094,-0.03558757,-0.0074170963,,,
2046280000,46.592453,-16.587248,-0.020996094,0.036067378,-0.036218762,-0.007477359,0.0005974281995261867,0.006111933718083452,2.988707777706738
2046288000,46.59257,-16.587288,-0.020996094,0.035839632,-0.036783144,-0.007344889,0.0006500939613745243,0.0061385882045293496,2.9888504086326178
2046296000,46.592697,-16.587343,-0.020996094,0.03605973,-0.03775997,-0.008464088,,,
2046304000,46.592827,-16.58741,-0.021026611,0.036511037,-0.037708566,-0.0082910145,,,
2046320000,46.5931,-16.587564,-0.021057129,0.036689103,-0.037865784,-0.0075524915,0.0005406999943840166,0.006098137779688969,2.988852790062354
2046328000,46.593246,-16.587658,-0.021087646,0.0371694,-0.038414612,-0.00772421,0.0005757337239536843,0.006141195025551865,2.9888296792928357
2046336000,46.593395,-16.58776,-0.021118164,0.037413698,-0.038859583,-0.007246589,,,
2046344000,46.59355,-16.587875,-0.021118164,0.03743634,-0.038970623,-0.00730746,,,
2046360000,46.593872,-16.58812,-0.0211792,0.037195977,-0.03892957,-0.007226488,0.0004294496444294239,0.006280001553504252,2.9886282317952433
2046368000,46.594036,-16.588251,-0.021209717,0.036797594,-0.038802844,-0.007616886,0.00035329258657698957,0.0062828626328972174,2.9886464879565438
2046376000,46.5942,-16.588388,-0.021240234,0.03667776,-0.039021462,-0.0076128226,,,
2046384000,46.594376,-16.588533,-0.021270752,0.036141932,-0.03975553,-0.0070412797,,,
2046400000,46.59473,-16.588852,-0.02130127,0.036310658,-0.040067185,-0.0060649063,0.00046272086586305835,0.006327964222137556,2.988544116859299
2046408000,46.59491,-16.589022,-0.021331787,0.03599023,-0.040379327,-0.005857087,0.00056153978786366,0.006302343958550397,2.9885465935465256
2046416000,46.595093,-16.589195,-0.021331787,0.03617052,-0.03964235,-0.0053463997,,,
2046424000,46.59528,-16.589369,-0.021362305,0.036138788,-0.03919245,-0.0055455198,,,
2046440000,46.59566,-16.589725,-0.021392822,0.036623735,-0.039106723,-0.0050395625,0.000890454071216237,0.006298450952922313,2.9884061386059986
2046448000,46.59586,-16.589912,-0.02142334,0.036445066,-0.039176807,-0.004937745,0.0008509440556292035,0.006296515160565991,2.988385169197807
2046456000,46.59571,-16.589676,-0.021362305,0.035651315,-0.039555658,-0.0048944275,,,
2046464000,46.59557,-16.589455,-0.02130127,0.035020307,-0.039528314,-0.005210707,,,
2046480000,46.595314,-16.589064,-0.021209717,0.035654332,-0.039999492,-0.0043298877,0.0007974302659013868,0.006139559592279558,2.988530360037555
2046488000,46.595207,-16.588894,-0.021148682,0.035975095,-0.040617082,-0.0044214926,0.0008170600891973088,0.006073417226808034,2.9885402824474316
2046496000,46.595104,-16.588741,-0.021118164,0.03491893,-0.040647402,-0.004522999,,,
2046504000,46.59501,-16.588598,-0.021057129,0.0342602,-0.040111613,-0.004030005,,,
2046520000,46.59483,-16.58835,-0.020965576,0.03391298,-0.04026452,-0.0041781706,0.00048295848764962795,0.006009395547687179,2.9886314340343723
2046528000,46.594753,-16.58824,-0.020935059,0.03372702,-0.039534282,-0.0034691007,0.0004996273760957936,0.006001976498262058,2.988649926793593
2046536000,46.594685,-16.588137,-0.020904541,0.03419842,-0.038797833,-0.0038821334,,,
2046544000,46.594627,-16.58804,-0.020874023,0.034065276,-0.03856462,-0.0041789487,,,
2046560000,46.59454,-16.587885,-0.02078247,0.034684278,-0.03867426,-0.0036716787,0.00044023468784464833,0.005943906102885322,2.988434207160092
2046568000,46.594513,-16.587824,-0.020751953,0.035326872,-0.03911654,-0.003026241,0.00031542652822670657,0.005949370269043617,2.9884634391686693
2046576000,46.594498,-16.587778,-0.020721436,0.035759676,-0.03985515,-0.002760576,,,
2046584000,46.594494,-16.58775,-0.020690918,0.036550783,-0.040505107,-0.002388205,,,
2046600000,46.594524,-16.587727,-0.020599365,0.03724305,-0.04046423,-0.0026762763,0.0003515731619634253,0.005777535040340907,2.9884689174779115
2046608000,46.594555,-16.587723,-0.020568848,0.03821379,-0.039800357,-0.002511824,0.00036591486386355253,0.005789484574483923,2.9884128869329647
2046616000,46.5946,-16.587729,-0.02053833,0.039130714,-0.040364522,-0.0024950914,,,
2046624000,46.594654,-16.587746,-0.020507812,0.03898908,-0.040728506,-0.0018959916,,,
2046640000,46.594776,-16.587797,-0.020446777,0.038233433,-0.038731538,-0.0014763029,0.0004428195837539889,0.005807093852076209,2.988142315173261
2046648000,46.59484,-16.587826,-0.02041626,0.03786724,-0.03862184,-0.0018429732,0.0003410932305333815,0.005855713442424994,2.9880300391721266
2046656000,46.59491,-16.587862,-0.020385742,0.038012184,-0.038307194,-0.0015800666,,,
2046664000,46.594986,-16.587904,-0.020355225,0.038192447,-0.037755307,-0.0010686857,,,
2046680000,46.595173,-16.58801,-0.020263672,0.03925816,-0.038640045,0.0005102004,0.00040804925420266836,0.005853895469600528,2.9881292047474455
2046688000,46.595276,-16.588081,-0.020233154,0.038698066,-0.038916886,0.00084966386,0.00037760513431862576,0.005893389815971394,2.988110058019138
2046696000,46.59538,-16.588161,-0.02017212,0.038834553,-0.039061487,0.001432025,,,
2046704000,46.595493,-16.588247,-0.020111084,0.039717454,-0.038424525,0.0013134193,,,
2046720000,46.595753,-16.588428,-0.020050049,0.04046051,-0.038032703,0.0005615402,0.000532691143983878,0.0058339531844432205,2.9880551892482177
2046728000,46.595894,-16.58853,-0.020019531,0.0407766,-0.038385727,0.00082657026,0.000624262120608861,0.005726912629956716,2.9880639372421363
2046736000,46.59604,-16.588636,-0.019989014,0.040654045,-0.03842405,0.0012417239,,,
2046744000,46.596184,-16.588749,-0.019958496,0.040587306,-0.037954703,0.0015172433,,,
2046760000,46.5965,-16.58899,-0.019866943,0.041614305,-0.037844673,0.0025493675,0.000499746478364628,0.005827188873605838,2.9878204088928424
2046768000,46.596672,-16.589117,-0.019836426,0.042335827,-0.03776918,0.0026041155,0.0004401959616224808,0.005779232404070313,2.9877850262899477
2046776000,46.596848,-16.589254,-0.019805908,0.04164181,-0.038518958,0.00262302,,,
2046784000,46.597023,-16.5894,-0.01977539,0.041358206,-0.03863915,0.0032225903,,,
2046800000,46.597385,-16.589708,-0.019683838,0.040859845,-0.038438328,0.003343615,0.00036993731005464703,0.005636253898960574,2.987631624895306
2046808000,46.59755,-16.589869,-0.019622803,0.040388625,-0.037964422,0.0032465572,0.0004853349171549321,0.00560685996273115,2.98757326704379
2046816000,46.59772,-16.590029,-0.019592285,0.040659696,-0.037872117,0.002770785,,,
2046824000,46.5979,-16.590199,-0.019561768,0.040722426,-0.038520988,0.003175749,,,
2046840000,46.59826,-16.590557,-0.019470215,0.04038549,-0.03854894,0.0035069627,0.0005249106880810251,0.005502923691112398,2.987190773354539
2046848000,46.598446,-16.590746,-0.019439697,0.040699508,-0.038918626,0.0035484727,0.0005104847286914735,0.005537842300468701,2.9871004603422553
2046856000,46.598263,-16.590391,-0.019317627,0.03996941,-0.038925678,0.0038727655,,,
2046864000,46.59809,-16.590054,-0.019226074,0.03991578,-0.03893143,0.00450664,,,
2046880000,46.59778,-16.589428,-0.019012451,0.03982707,-0.037685994,0.004641336,0.0004968265274416584,0.005442174006857226,2.9869940145845666
2046888000,46.59764,-16.589132,-0.01889038,0.040083017,-0.037305906,0.004489654,0.0004890588682836941,0.005433948909921395,2.986871664885155
2046896000,46.597515,-16.588852,-0.018798828,0.040267613,-0.037357964,0.004036058,,,
2046904000,46.597404,-16.588587,-0.018707275,0.04059567,-0.0369054,0.003381051,,,
2046920000,46.597233,-16.588104,-0.018554688,0.042173598,-0.03723946,0.0025263415,0.0003299896509354995,0.005473836186370601,2.986669646863835
2046928000,46.597168,-16.587883,-0.018463135,0.042567566,-0.036635473,0.0019277879,0.0003272558768797558,0.0055488860932398415,2.9866542468990027
2046936000,46.597115,-16.587671,-0.0184021,0.042741723,-0.035927914,0.0018830004,,,
2046944000,46.597076,-16.587467,-0.018341064,0.042944837,-0.035325006,0.0018237467,,,
2046960000,46.597023,-16.587074,-0.018188477,0.042066243,-0.034574587,0.0030912526,0.0003804887431962145,0.005522437989534225,2.9865802724234896
2046968000,46.597008,-16.58689,-0.018127441,0.041701723,-0.03343884,0.0026010294,0.000333431014226075,0.005624282954509178,2.9866109472785465
2046976000,46.596996,-16.586708,-0.018066406,0.041743737,-0.032621842,0.0026494896,,,
2046984000,46.596996,-16.586538,-0.017974854,0.042053577,-0.033037312,0.002384349,,,
2047000000,46.59701,-16.586231,-0.017852783,0.04119037,-0.032391246,0.0016712055,5.282771252496523e-05,0.0055919934930758015,2.986748910519719
2047008000,46.59703,-16.58609,-0.017822266,0.04133709,-0.03168596,0.0010728029,4.7263542738962244e-05,0.0056545579388607,2.9867521496044973
2047016000,46.597057,-16.585957,-0.01776123,0.041016314,-0.03149749,0.0008119485,,,
2047024000,46.597088,-16.585833,-0.017730713,0.040564723,-0.03151141,0.0008805956,,,
2047040000,46.597164,-16.585606,-0.01763916,0.039927423,-0.03081881,0.00072595733,7.149726339435302e-05,0.005795914533418598,2.986935488718075
2047048000,46.597214,-16.585506,-0.017578125,0.040114645,-0.030834729,0.0018701114,0.00011327681002096475,0.005803595745539475,2.9869354151003162
2047056000,46.597267,-16.58542,-0.017547607,0.03962957,-0.031530943,0.0019718525,,,
2047064000,46.597324,-16.585348,-0.017486572,0.0396601,-0.031910226,0.0019658317,,,
2047080000,46.597466,-16.585236,-0.01739502,0.040517505,-0.03183271,0.002046334,-3.8062990141789464e-05,0.005718314984830342,2.986930578498035
2047088000,46.597553,-16.585194,-0.017364502,0.04109502,-0.032400213,0.0019888123,-8.907860179277096e-05,0.005741492258897462,2.986996411488569
2047096000,46.59765,-16.585169,-0.017333984,0.041076865,-0.032796398,0.0017599656,,,
2047104000,46.59775,-16.585152,-0.017303467,0.04181191,-0.03261185,0.0017646758,,,
2047120000,46.59799,-16.585135,-0.017242432,0.04220219,-0.03226393,0.0021601939,-0.00021072412716931352,0.005631828649513405,2.9869506491758298
2047128000,46.598114,-16.585142,-0.017211914,0.041443206,-0.03314905,0.0019220746,-0.00023295185695826437,0.005639573651038592,2.986925569018753
2047136000,46.59824,-16.585163,-0.017181396,0.041589417,-0.03354321,0.0017268691,,,
2047144000,46.598373,-16.585194,-0.017150879,0.04169273,-0.03378243,0.0016269927,,,
2047160000,46.598663,-16.585274,-0.017089844,0.0422856,-0.03279361,0.00077673024,-9.54766883284351e-05,0.005522564651335835,2.9871155953024817
2047168000,46.598816,-16.58532,-0.017059326,0.04292063,-0.032654267,0.00053547637,-0.00012201892268634733,0.005536182192531301,2.9871770296843225
2047176000,46.598976,-16.585371,-0.017059326,0.042900026,-0.031971235,0.0007354503,,,
2047184000,46.59914,-16.585424,-0.017028809,0.04236312,-0.031543523,0.001119425,,,
2047200000,46.59947,-16.585543,-0.016967773,0.041983873,-0.03123209,0.0025711376,-0.00011245889765143635,0.005586305817275351,2.986978394116475
2047208000,46.59964,-16.58561,-0.016937256,0.041421067,-0.031164212,0.0030073882,-0.0002088444666253154,0.005678185971899969,2.9870342966426344
2047216000,46.599808,-16.585686,-0.016906738,0.040488593,-0.03130102,0.0022972,,,
2047224000,46.59998,-16.585766,-0.01687622,0.041051827,-0.031368867,0.002141092,,,
2047240000,46.600338,-16.585947,-0.016845703,0.04129225,-0.031215934,0.0019144671,-0.00012599126180737474,0.005595954004291427,2.987238085153693
2047248000,46.600525,-16.586044,-0.016815186,0.041304637,-0.030764012,0.001855191,-0.00016532357261768693,0.005619009722767191,2.9873264585056627
2047256000,46.600315,-16.58575,-0.01675415,0.04106348,-0.02996297,0.0015188102,,,
2047264000,46.60012,-16.585468,-0.016693115,0.041578915,-0.029824544,0.0018765051,,,
2047280000,46.599766,-16.584942,-0.016601562,0.0408716,-0.028917203,0.0015181955,-6.4866890417464e-05,0.005634687855183798,2.9872240656286775
2047288000,46.59961,-16.584694,-0.016540527,0.041525733,-0.028369784,0.0013443839,-0.00011655674500647773,0.005664653637257496,2.987218401022619
2047296000,46.59947,-16.584457,-0.01651001,0.041707534,-0.028427185,0.0018003257,,,
2047304000,46.59934,-16.584234,-0.016448975,0.041433215,-0.028275488,0.0015782532,,,
2047320000,46.599113,-16.583817,-0.016357422,0.042007323,-0.02830541,0.0018201672,-0.0002004446714739346,0.005636995243506765,2.9871602975765574
2047328000,46.599022,-16.58363,-0.016326904,0.04219469,-0.02826643,0.0021701907,-0.0002454450728103663,0.00562461451059002,2.9871595613739492
2047336000,46.59894,-16.583452,-0.01626587,0.042496305,-0.028263077,0.0020227472,,,
2047344000,46.598877,-16.583288,-0.016235352,0.04247823,-0.028161695,0.0019404204,,,
2047360000,46.598766,-16.582993,-0.016174316,0.041543208,-0.028379723,0.0013635807,-0.00017292296670787116,0.005739531792575892,2.9870904642556093
2047368000,46.59872,-16.58286,-0.016113281,0.040876582,-0.027662102,0.0014490781,-0.00017530228122878522,0.0057763424618841935,2.987056712213809
2047376000,46.59869,-16.582735,-0.016082764,0.04097098,-0.02682746,0.001447702,,,
2047384000,46.59867,-16.582615,-0.016052246,0.041138686,-0.026705606,0.0011550926,,,
2047400000,46.598667,-16.582403,-0.015991211,0.04137997,-0.026381962,0.0010238668,-0.00018974379267250538,0.0058099241891263875,2.987128147360026
2047408000,46.598675,-16.582308,-0.015991211,0.040909242,-0.025815558,0.0003151894,-0.000137801232200356,0.005749927386690598,2.987070573694801
2047416000,46.59869,-16.582218,-0.015960693,0.040747162,-0.025726756,5.866213e-05,,,
2047424000,46.598713,-16.582138,-0.015960693,0.041424405,-0.026408916,0.00019038754,,,
2047440000,46.59879,-16.58202,-0.015930176,0.041973,-0.027034221,-9.386917e-06,-0.00046353470886500314,0.005543850354623889,2.9871370132672883
2047448000,46.598846,-16.581972,-0.015930176,0.042527303,-0.02635533,-0.0004807835,-0.0004763243391231914,0.005416162249650169,2.987054731084815
2047456000,46.59891,-16.581928,-0.015960693,0.042235065,-0.026541665,-0.0013969991,,,
2047464000,46.598984,-16.581894,-0.015960693,0.042310387,-0.026191544,-0.0014111823,,,
2047480000,46.599144,-16.581842,-0.016021729,0.042115394,-0.025812604,-0.002408437,-0.0004637298378699427,0.0052827330147747435,2.9869325173899592
2047488000,46.599236,-16.581825,-0.016052246,0.042328157,-0.026164567,-0.0028237952,-0.0004264348807250486,0.00530899481700519,2.986776099507779
2047496000,46.599335,-16.58182,-0.016082764,0.042570315,-0.026263135,-0.0030379803,,,
2047504000,46.59944,-16.58182,-0.016113281,0.043124933,-0.026499892,-0.0035952362,,,
2047520000,46.59967,-16.581844,-0.016204834,0.04172441,-0.027205417,-0.005134503,-0.0004708000584180162,0.005122466528691803,2.9866752928583162
2047528000,46.59978,-16.581871,-0.016235352,0.041585267,-0.027951125,-0.0056424825,-0.000508368487839198,0.005013060332596392,2.986800045760828
2047536000,46.599903,-16.581903,-0.016296387,0.04201811,-0.027072085,-0.0061815795,,,
2047544000,46.60003,-16.581938,-0.016357422,0.041984756,-0.026990188,-0.006808964,,,
2047560000,46.600296,-16.582024,-0.016479492,0.041651838,-0.026878089,-0.006575855,-0.0004771331872751525,0.005059819372480336,2.9866142892912513
2047568000,46.60044,-16.582073,-0.016540527,0.042544506,-0.026404249,-0.007193792,-0.0006190916166661925,0.005062774031192562,2.986672532334919
2047576000,46.600594,-16.582127,-0.016601562,0.043000326,-0.026808688,-0.0073684566,,,
2047584000,46.600758,-16.58219,-0.016693115,0.042548455,-0.026713448,-0.0076918933,,,
2047600000,46.601086,-16.582329,-0.016815186,0.04216928,-0.027447447,-0.0067172446,-0.0005255053998386101,0.004836907378612912,2.986755097123164
2047608000,46.601257,-16.582413,-0.016906738,0.04243286,-0.027893348,-0.0074439417,-0.0005038995525768535,0.004807243012743141,2.986650470282857
2047616000,46.601433,-16.582502,-0.016967773,0.04258512,-0.027383583,-0.0071418746,,,
2047624000,46.601616,-16.58259,-0.017028809,0.042065524,-0.02662168,-0.0075422423,,,
2047640000,46.60198,-16.582773,-0.017181396,0.041358978,-0.026435291,-0.00838394,-0.0004534498506314804,0.004667266452987071,2.986611499311703
2047648000,46.60216,-16.582872,-0.01727295,0.041149735,-0.0268007,-0.007843777,-0.0004673223937419959,0.00462315388330767,2.98660662609901
2047656000,46.602013,-16.582462,-0.017242432,0.04106086,-0.026816405,-0.006865459,,,
2047664000,46.601875,-16.58207,-0.017242432,0.040659852,-0.026554074,-0.0071725342,,,
2047680000,46.60163,-16.58132,-0.017211914,0.040979493,-0.025180664,-0.006562436,-0.0003363037240459946,0.004514501863722484,2.9867881198200052
2047688000,46.60153,-16.580963,-0.017181396,0.04089948,-0.024696693,-0.0058258395,-0.0003167267607100249,0.004525728606387319,2.986769687038679
2047696000,46.601437,-16.580618,-0.017181396,0.04072955,-0.024546925,-0.0060142432,,,
2047704000,46.601353,-16.58029,-0.017150879,0.040309746,-0.024748502,-0.0061515574,,,
2047720000,46.601215,-16.579678,-0.017150879,0.040392883,-0.02465986,-0.0052455743,-0.0005112768410643466,0.004290954804716876,2.9865873467600004
2047728000,46.60116,-16.579388,-0.017150879,0.04002341,-0.023681996,-0.0051521035,-0.00042723034969760563,0.004250283111330931,2.9866615489531427
2047736000,46.60111,-16.579105,-0.017150879,0.039829068,-0.023410806,-0.0048282435,,,
2047744000,46.601067,-16.578835,-0.017150879,0.040233564,-0.023009373,-0.004679481,,,
2047760000,46.601017,-16.57832,-0.017150879,0.040068034,-0.022844298,-0.00594315,-0.0005876844728189419,0.00402499844256459,2.9865976747022223
2047768000,46.601006,-16.578083,-0.017181396,0.040272906,-0.022896886,-0.0060164467,-0.0006094233470842347,0.003999382674633526,2.9865683987284757
2047776000,46.601006,-16.577854,-0.017181396,0.039983414,-0.021887392,-0.005823901,,,
2047784000,46.601006,-16.577631,-0.017211914,0.039454307,-0.021564316,-0.0055081816,,,
2047800000,46.601032,-16.577213,-0.017242432,0.040098608,-0.021222297,-0.006106017,-0.000589048697358675,0.004240323457968663,2.9866133101652568
2047808000,46.60106,-16.577019,-0.01727295,0.039576277,-0.021405036,-0.0053028963,-0.0005869847926115996,0.004349107128921964,2.986654099305041
2047816000,46.601086,-16.576836,-0.01727295,0.03882393,-0.021711115,-0.004094076,,,
2047824000,46.601116,-16.576666,-0.01727295,0.038354695,-0.02184699,-0.0043878388,,,
2047840000,46.6012,-16.576359,-0.017303467,0.03851693,-0.022035738,-0.0053639924,-0.0005705081412954565,0.004372743854962353,2.986823818484863
2047848000,46.601254,-16.576221,-0.017333984,0.03883317,-0.022835486,-0.005401303,-0.0006722649619296336,0.004369090241601202,2.9868901219881847
2047856000,46.60131,-16.576101,-0.017364502,0.03807135,-0.023794834,-0.005194699,,,
2047864000,46.60137,-16.575994,-0.017364502,0.03792005,-0.023467733,-0.0056750756,,,
2047880000,46.601517,-16.575802,-0.017425537,0.03841684,-0.023418028,-0.0052109514,-0.0008538822406325854,0.004167811904147998,2.9868051426316238
2047888000,46.6016,-16.575718,-0.017456055,0.038838442,-0.023027876,-0.004387037,-0.0008309059802050129,0.004141168398002302,2.986767371691786
2047896000,46.601696,-16.575636,-0.017456055,0.039190356,-0.02247815,-0.00403287,,,
2047904000,46.601795,-16.575563,-0.017486572,0.039149664,-0.022583455,-0.004063749,,,
2047920000,46.602016,-16.57544,-0.01751709,0.039469004,-0.022555007,-0.003487509,-0.0007840498191919827,0.004324423123281482,2.9868000634504663
2047928000,46.602135,-16.57539,-0.01751709,0.03900302,-0.02263277,-0.003918266,-0.0007726084162691611,0.0042557933311789245,2.9869315183746683
2047936000,46.602257,-16.575344,-0.017547607,0.038810935,-0.022120839,-0.004434102,,,
2047944000,46.602383,-16.575304,-0.017547607,0.03925205,-0.022101948,-0.0047607175,,,
2047960000,46.602654,-16.575243,-0.017608643,0.039528146,-0.022335418,-0.0045888205,-0.001018879311061945,0.004279005360721174,2.9869335978562
2047968000,46.602802,-16.575228,-0.01763916,0.039669633,-0.022712698,-0.004472061,-0.0009959033134752954,0.004349197933731779,2.9869026951514726
2047976000,46.60295,-16.57522,-0.017669678,0.038580153,-0.022989389,-0.005256286,,,
2047984000,46.603092,-16.575218,-0.017700195,0.037393194,-0.022461517,-0.006423722,,,
2048000000,46.60338,-16.575212,-0.017791748,0.037237465,-0.02124021,-0.008428523,-0.0011709763114515015,0.0038000629937352294,2.986889617040575
2048008000,46.60353,-16.575218,-0.017852783,0.03727257,-0.021431627,-0.010194692,-0.0011877814621292508,0.0036150803368331166,2.9869121792831517
2048016000,46.60368,-16.57523,-0.017944336,0.036229737,-0.021403871,-0.011624669,,,
2048024000,46.603825,-16.575245,-0.018035889,0.035438284,-0.021137558,-0.012473917,,,
2048040000,46.604103,-16.575283,-0.018249512,0.033211198,-0.020611856,-0.016471842,-0.001207822522162971,0.0019606401666844566,2.986836180014357
2048048000,46.604237,-16.57531,-0.018371582,0.03234677,-0.020573655,-0.019901337,-0.0011784768754523958,0.0014010288213764037,2.98684485145315
2048056000,46.604225,-16.575092,-0.018463135,0.031377662,-0.020170707,-0.022488596,,,
2048064000,46.604214,-16.57488,-0.018585205,0.03075238,-0.019395648,-0.025204396,,,
2048080000,46.604202,-16.574486,-0.01889038,0.030091291,-0.019792624,-0.03002609,-0.001050724255241821,-0.0014860598252122784,2.986840534050346
2048088000,46.604202,-16.574306,-0.019073486,0.028845673,-0.020037774,-0.032943137,-0.001057204164325023,-0.0024801527430608743,2.986855923254273
2048096000,46.6042,-16.574139,-0.019256592,0.02807426,-0.01989151,-0.035611615,,,
2048104000,46.604195,-16.573977,-0.019500732,0.0271794,-0.019196631,-0.038125392,,,
2048120000,46.60418,-16.573671,-0.020019531,0.024332738,-0.018519718,-0.04279311,-0.0013237038720136406,-0.007435990572626881,2.9869974391454117
2048128000,46.604164,-16.573528,-0.020324707,0.023383714,-0.018279312,-0.04486668,-0.0013961557528363337,-0.008841023470467967,2.987026046998604
2048136000,46.60415,-16.573393,-0.020629883,0.021985272,-0.018331418,-0.047511466,,,
2048144000,46.604126,-16.573267,-0.020965576,0.020930195,-0.018336557,-0.04976235,,,
2048160000,46.604076,-16.573032,-0.021697998,0.018848587,-0.017363431,-0.055833027,-0.0015431825385453476,-0.015782083808332847,2.986890704400744
2048168000,46.60404,-16.572926,-0.022094727,0.016706727,-0.017541971,-0.059122812,-0.001558767861029351,-0.017709161978515752,2.9867641760187045
2048176000,46.60399,-16.572824,-0.02255249,0.014852026,-0.01717785,-0.061634183,,,
2048184000,46.60393,-16.572725,-0.023010254,0.013887274,-0.015939934,-0.06518922,,,
2048200000,46.60381,-16.57253,-0.024017334,0.010777487,-0.014722876,-0.07083124,-0.0023774387483164543,-0.025905367940535735,2.9867837421306325
2048208000,46.603733,-16.572435,-0.024536133,0.008777747,-0.014104713,-0.0748429,-0.002655238545189821,-0.027988032693777285,2.9866370036127576
2048216000,46.60364,-16.572346,-0.025115967,0.0065495833,-0.014245807,-0.07944833,,,
2048224000,46.60354,-16.572262,-0.025726318,0.0037575327,-0.013901232,-0.08388542,,,
2048240000,46.603275,-16.572104,-0.02709961,-0.0012708757,-0.012399393,-0.09391148,-0.004075090674881466,-0.03579056264252875,2.986643982055458
2048248000,46.603123,-16.572023,-0.027862549,-0.0036347404,-0.011840592,-0.09976419,-0.004297558937557301,-0.03760626629641854,2.986663333297138
2048256000,46.602955,-16.571945,-0.028656006,-0.006935524,-0.010845737,-0.10572691,,,
2048264000,46.60276,-16.571865,-0.029510498,-0.010484537,-0.010167032,-0.110710874,,,
2048280000,46.602303,-16.571701,-0.031311035,-0.017041167,-0.008737926,-0.12172655,-0.005582236863827472,-0.04395048263830776,2.98670904575894
2048288000,46.602036,-16.571619,-0.032287598,-0.021174505,-0.007423281,-0.1277654,-0.005838330957284877,-0.045417931226340115,2.986674758499428
2048296000,46.60174,-16.571533,-0.033325195,-0.02477008,-0.006393683,-0.13312717,,,
2048304000,46.601425,-16.571445,-0.03439331,-0.028815746,-0.0054526133,-0.13877642,,,
2048320000,46.600704,-16.571257,-0.03668213,-0.03608998,-0.0030359256,-0.15125252,-0.006682024624843744,-0.04985587110363157,2.9866742113149027
2048328000,46.60031,-16.571154,-0.037872314,-0.03949424,-0.0013575475,-0.15750287,-0.006800373493651973,-0.050717785871653036,2.986685495654753
2048336000,46.599888,-16.571043,-0.039154053,-0.043368865,-6.688927e-05,-0.16376974,,,
2048344000,46.599438,-16.570923,-0.04046631,-0.047846604,0.0022462422,-0.17063364,,,
2048360000,46.598434,-16.570648,-0.043273926,-0.056243505,0.0057369033,-0.18270473,-0.00744581995911836,-0.05326107368082622,2.9865224451565267
2048368000,46.597904,-16.5705,-0.04473877,-0.060062017,0.0068922457,-0.1886846,-0.007609347186898795,-0.05362782317182817,2.986486837640024
2048376000,46.59734,-16.570345,-0.04626465,-0.06479465,0.00835582,-0.19517328,,,
2048384000,46.59674,-16.570187,-0.047851562,-0.06886696,0.008990795,-0.20221825,,,
2048400000,46.595455,-16.56986,-0.05114746,-0.077423334,0.011228881,-0.21522088,-0.008184427065573624,-0.05433197874937556,2.9861965775471586
2048408000,46.594765,-16.569689,-0.052886963,-0.08218131,0.012638339,-0.22243804,-0.008279505677324762,-0.0542195553003012,2.986122398305084
2048416000,46.59404,-16.56951,-0.0546875,-0.08623564,0.013789175,-0.22984019,,,
2048424000,46.593285,-16.569324,-0.056549072,-0.090814374,0.0147125,-0.23746826,,,
2048440000,46.591667,-16.568943,-0.060424805,-0.099686235,0.017137159,-0.25105587,-0.008426654404744242,-0.05298607968989667,2.986150309068747
2048448000,46.590813,-16.568743,-0.062469482,-0.10365254,0.018851595,-0.25796372,-0.008279513556111293,-0.052544483849808296,2.9861919828618
2048456000,46.589996,-16.568485,-0.06439209,-0.107481584,0.020741452,-0.2646511,,,
2048464000,46.58915,-16.568218,-0.066345215,-0.11104872,0.02234292,-0.2709641,,,
2048480000,46.587376,-16.567667,-0.07046509,-0.118223496,0.024665862,-0.28427163,-0.007748271093149461,-0.04957299932138417,2.986417207309865
2048488000,46.58645,-16.567383,-0.072631836,-0.1219446,0.025769623,-0.2905933,-0.007581467766948489,-0.04880870693329642,2.986408373604265
2048496000,46.58549,-16.567095,-0.0748291,-0.12549582,0.027255587,-0.29737368,,,
2048504000,46.584507,-16.566793,-0.0770874,-0.12890199,0.029274458,-0.3047533,,,
2048520000,46.582443,-16.56618,-0.08178711,-0.13736615,0.03193946,-0.31928983,-0.007128945985966,-0.04552884346446346,2.9863692185659794
2048528000,46.581364,-16.565859,-0.084228516,-0.1412118,0.03323788,-0.32648665,-0.006986819519611507,-0.04454680358158363,2.9864151164062895
2048536000,46.58025,-16.565535,-0.08673096,-0.14518239,0.034159914,-0.33422157,,,
2048544000,46.579113,-16.565207,-0.08932495,-0.14839613,0.034887247,-0.34160832,,,
2048560000,46.576767,-16.564539,-0.09466553,-0.15365474,0.03688916,-0.35646635,-0.006544167600045639,-0.04019417232943477,2.9863446602641472
2048568000,46.575565,-16.5642,-0.09741211,-0.1562225,0.037355255,-0.3643194,-0.006258125157106752,-0.03898960562120032,2.9863691780621173
